~VERSION INFORMATION
VERS.                                                 2.0:   CWLS Log ASCII Standard-VERSION 2.0
WRAP.                                                  NO:   One line per depth step
~Well Information Block
STRT.M                                             3.9000:   Top Depth
STOP.M                                          1280.3700:   Bottom Depth
STEP.M                                             .13000:   Depth Increment
NULL.                                            -999.250:   Null Value
FLD .                                            LEKHWAIR:   Field Name
WELL.                                      LEKHWAIR-815H1:   NAME
EDF .                                              123.89:   ELEV DRILL FLOOR
EPD .                                                   0:   ELEV PERM DATUM
EGL .                                              114.54:   GROUND LEVEL
COMP.                          Petroleum Development Oman:   OPERATOR
PDAT.                                                 MSL:   PERM DATUM
COUN.                                             RIG49_2:   RIG NAME
SPUD.                                          2015/12/09:   SPUD DATE
LATI.                                         22.91808639:   SURF. LATITUDE
LONG.                                            55.38429:   SURF. LONGITUDE
UTME.                                          334300.128:   SURF. UTM E
UTMN.                                         2535149.527:   SURF. UTM N
~PARAMETER INFORMATION (log)
LNAM.                                              PUBLIC:   NAME
LTYP.                                           COMPOSITE:   LOG TYPE
LSRV.                                      PREFERRED DATA:   SERVICE
LSOU.                                             TECHLOG:   LOG SOURCE
LVSN.                                                   1:   LOG VERSION
BHIS.                                                  RC:   BRIEF HISTORY
FHIS.                                        RAW-LAS/COPY:   FULL HISTORY
~Curve Information Block
#MNEM.UNIT                                        API CODE    No Description
#=========                                        ========    == ===========
DEPT.M                                       00 001 00 00:     1  DEPTH
DEN.G/C3                                                 :     2  Bulk Density
DT.US/F                                                  :     3  Sonic (Compressional)
GR.API                                                   :     4  Gamma Ray
NEU.M3M3                                                 :     5  Neutron Porosity in Limestone Units
RES_DEP.OHMM                                             :     6  Resistivity Deep
~ASCII
# ...
 1225.1200     2.4088   106.7082    42.5713      .3423      .7238
 1225.2500     2.4061   105.6224    40.2821      .3397      .7318
 1225.3800     2.4094   106.1517    42.6748      .3166      .7783
 1225.5100     2.4161   108.2947    46.1724      .3031      .8041
 1225.6400     2.4191   111.6832    48.9378      .3136      .7598
 1225.7700     2.4121   115.3961    52.8271      .3350      .6787
 1225.9000     2.3932   116.6347    54.4938      .3746      .6387
 1226.0300     2.3827   114.7672    56.1090      .3805      .6017
 1226.1600     2.3862   112.9294    55.0518      .3605      .5944
 1226.2900     2.3989   112.3369    52.1632      .3354      .6455
 1226.4200     2.4088   113.0063    51.0888      .3246      .6759
 1226.5500     2.4053   114.2539    53.0180      .3348      .6270
 1226.6800     2.3874   115.1144    54.4003      .3561      .5740
 1226.8100     2.3691   113.9097    55.5349      .3674      .5889
 1226.9400     2.3562   112.8954    53.8730      .3784      .5776
 1227.0700     2.3512   114.1706    53.9701      .3770      .5744
 1227.2000     2.3387   117.5440    57.1201      .3853      .5799
 1227.3300     2.3181   121.8403    62.3475      .4154      .5511
 1227.4600     2.2944   125.6888    67.4543      .4637      .4780
 1227.5900     2.2658   128.2056    70.2561      .5105      .4266
 1227.7200     2.2444   128.6859    68.3724      .4879      .4143
 1227.8500     2.2324   128.2162    65.5368      .4699      .4126
 1227.9800     2.2331   128.1874    62.3097      .4656      .4135
 1228.1100     2.2367   128.7517    61.0312      .4893      .4145
 1228.2400     2.2372   129.3051    62.4994      .5198      .4132
 1228.3700     2.2348   129.0890    66.1157      .5270      .4104
 1228.5000     2.2324   127.9845    71.2898      .5216      .4155
 1228.6300     2.2399   127.4605    72.6462      .4837      .4438
 1228.7600     2.2489   127.9649    71.3605      .4860      .4704
 1228.8900     2.2517   128.9136    69.1055      .4994      .4696
 1229.0200     2.2503   130.1451    69.3758      .5241      .4586
 1229.1500     2.2457   131.3396    73.5881      .5538      .4566
 1229.2800     2.2381   132.0785    80.5777      .5680      .4680
 1229.4100     2.2340   132.3713    88.8447      .5456      .4812
 1229.5400     2.2367   132.6782    90.8336      .5196      .4169
 1229.6700     2.2482   131.7647    87.7413      .4830      .4450
 1229.8000     2.2854   121.4772    81.8989      .4721      .5317
 1229.9300     2.3484   105.9485    75.2900      .4317      .5881
 1230.0600     2.4337    92.0726    68.6954      .3266      .7088
 1230.1900     2.5317    83.0911    62.0327      .1963     1.3559
 1230.3200     2.5916    76.2119    56.8025      .1331     2.2919
 1230.4500     2.6034    73.9942    50.6339      .1113     3.3729
 1230.5800     2.5766    72.5502    45.9677      .1067     4.4511
 1230.7100     2.5304    72.7670    41.8535      .1135     5.8479
 1230.8400     2.4921    73.0294    38.7333      .1223     7.0095
 1230.9700     2.4820    72.9964    38.4313      .1239     6.8358
 1231.1000     2.5030    75.1009    42.8760      .1138     5.3774
 1231.2300     2.5453    76.3235    49.4562      .1019     3.5358
 1231.3600     2.5804    75.7338    55.5465      .1024     2.9009
 1231.4900     2.5913    73.6884    57.7462      .1070     2.4031
 1231.6200     2.5850    75.8543    58.9394      .1128     2.0529
 1231.7500     2.5584    84.3826    61.2697      .1291     1.7896
 1231.8800     2.5061    97.8256    65.6427      .1775     1.4102
 1232.0100     2.4329   112.8463    72.0253      .2848      .8211
 1232.1400     2.3527   125.1016    76.6327      .4371      .5142
 1232.2700     2.2911   129.7779    80.4371      .5012      .4560
 1232.4000     2.2441   130.2734    81.9621      .5217      .4359
 1232.5300     2.2108   129.8062    80.8150      .5361      .4223
 1232.6600     2.1878   129.5874    76.9136      .5397      .4141
 1232.7900     2.1749   129.4401    71.5052      .5172      .4139
 1232.9200     2.1823   129.6178    68.3731      .4995      .4147
 1233.0500     2.1966   130.1302    66.4595      .4971      .4124
 1233.1800     2.2118   130.4278    67.9072      .4892      .4094
 1233.3100     2.2234   130.2634    68.0013      .5089      .4178
 1233.4400     2.2320   129.9251    68.8484      .5279      .4289
 1233.5700     2.2386   129.9731    71.0398      .5548      .4341
 1233.7000     2.2445   130.5709    72.9018      .6007      .4330
 1233.8300     2.2547   130.4007    74.9782      .5444      .4327
 1233.9600     2.2576   130.3570    75.6804      .5436      .4398
 1234.0900     2.2567   130.3024    72.7572      .5313      .4476
 1234.2200     2.2569   130.0741    69.8596      .5299      .4573
 1234.3500     2.2580   129.9953    67.0416      .5325      .4626
 1234.4800     2.2634   130.1230    65.6410      .5244      .4592
 1234.6100     2.2777   129.8252    68.5716      .5015      .4512
 1234.7400     2.2828   127.5866    73.4354      .4895      .4517
 1234.8700     2.3013   126.3106    78.4076      .4570      .4673
 1235.0000     2.3229   124.3423    83.1408      .4195      .4626
 1235.1300     2.3469   121.3863    85.5801      .3904      .4573
 1235.2600     2.3758   119.7368    85.2802      .3600      .4928
 1235.3900     2.4070   119.4613    83.7253      .3268      .5680
 1235.5200     2.4323   116.8302    83.0443      .3094      .5961
 1235.6500     2.4653   113.4489    79.8122      .2829      .5720
 1235.7800     2.5133   105.1701    77.2166      .2156      .7793
 1235.9100     2.5677    87.7986    69.9770      .1573     1.2536
 1236.0400     2.6034    78.8278    63.9940      .1247     2.0086
 1236.1700     2.5951    81.0223    63.2415      .1230     2.5218
 1236.3000     2.5373    88.0077    67.6192      .1504     2.1727
 1236.4300     2.4554    95.6703    73.1708      .2000     1.4740
 1236.5600     2.3837   103.0810    74.2279      .2436     1.1242
 1236.6900     2.3306   106.3594    68.2428      .2845     1.1538
 1236.8200     2.2878   110.0278    61.3182      .2948     1.3440
 1236.9500     2.2475   113.1751    54.9465      .2872     1.6505
 1237.0800     2.2131   114.6896    51.3948      .2732     1.9929
 1237.2100     2.1912   114.2987    51.6493      .2603     2.2345
 1237.3400     2.1774   112.4969    51.8166      .2596     2.2917
 1237.4700     2.1817   111.0494    52.1727      .2579     2.2350
 1237.6000     2.1844   109.9637    48.3069      .2693     2.2521
 1237.7300     2.1758   109.9233    43.8671      .2882     2.4129
 1237.8600     2.1611   110.2489    39.0167      .3068     2.5333
 1237.9900     2.1461   110.2329    36.0494      .3198     2.5891
 1238.1200     2.1361   109.8183    37.3108      .3255     2.7293
 1238.2500     2.1442   109.9353    37.7723      .3247     2.8903
 1238.3800     2.1512   109.6261    44.3009      .3168     2.9737
 1238.5100     2.1585   110.1223    45.3069      .3121     2.7779
 1238.6400     2.1598   110.3783    47.3066      .3089     2.7101
 1238.7700     2.1595   110.7804    48.6900      .3129     2.6349
 1238.9000     2.1622   111.6673    47.9187      .3188     2.4472
 1239.0300     2.1686   112.9497    46.8932      .3155     2.2662
 1239.1600     2.1763   115.3300    48.2779      .3282     2.2505
 1239.2900     2.1693   119.9983    49.5356      .3447     2.5652
 1239.4200     2.1539   122.1832    53.6006      .3715     2.4799
 1239.5500     2.1425   120.8521    55.6191      .3917     1.9335
 1239.6800     2.1522   117.1551    54.6534      .3960     1.7364
 1239.8100     2.1952   114.0119    52.0383      .3764     2.0055
 1239.9400     2.2715   114.4216    49.6374      .3307     1.9648
 1240.0700     2.3603   115.5939    50.4815      .3138     1.4170
 1240.2000     2.4159   116.3618    55.2261      .3626     1.0989
 1240.3300     2.4317   115.1631    57.8279      .4245     1.0082
 1240.4600     2.4358   113.9758    61.8672      .4556      .9990
 1240.5900     2.4390   113.9003    68.4864      .4433     1.0121
 1240.7200     2.4397   114.8598    77.8931      .4149     1.0008
 1240.8500     2.4357   116.0122    91.1669      .4252      .9000
