~VERSION INFORMATION
VERS.                                                 2.0:   CWLS Log ASCII Standard-VERSION 2.0
WRAP.                                                  NO:   One line per depth step
~Well Information Block
STRT.M                                             3.9000:   Top Depth
STOP.M                                          1280.3700:   Bottom Depth
STEP.M                                             .13000:   Depth Increment
NULL.                                            -999.250:   Null Value
FLD .                                            LEKHWAIR:   Field Name
WELL.                                      LEKHWAIR-815H1:   NAME
EDF .                                              123.89:   ELEV DRILL FLOOR
EPD .                                                   0:   ELEV PERM DATUM
EGL .                                              114.54:   GROUND LEVEL
COMP.                          Petroleum Development Oman:   OPERATOR
PDAT.                                                 MSL:   PERM DATUM
COUN.                                             RIG49_2:   RIG NAME
SPUD.                                          2015/12/09:   SPUD DATE
LATI.                                         22.91808639:   SURF. LATITUDE
LONG.                                            55.38429:   SURF. LONGITUDE
UTME.                                          334300.128:   SURF. UTM E
UTMN.                                         2535149.527:   SURF. UTM N
~PARAMETER INFORMATION (log)
LNAM.                                              PUBLIC:   NAME
LTYP.                                           COMPOSITE:   LOG TYPE
LSRV.                                      PREFERRED DATA:   SERVICE
LSOU.                                             TECHLOG:   LOG SOURCE
LVSN.                                                   1:   LOG VERSION
BHIS.                                                  RC:   BRIEF HISTORY
FHIS.                                        RAW-LAS/COPY:   FULL HISTORY
~Curve Information Block
#MNEM.UNIT                                        API CODE    No Description
#=========                                        ========    == ===========
DEPT.M                                       00 001 00 00:     1  DEPTH
DEN.G/C3                                                 :     2  Bulk Density
DT.US/F                                                  :     3  Sonic (Compressional)
GR.API                                                   :     4  Gamma Ray
NEU.M3M3                                                 :     5  Neutron Porosity in Limestone Units
RES_DEP.OHMM                                             :     6  Resistivity Deep
~ASCII
# ...
 1240.9800     2.4055   116.2055   100.7382      .4489      .8087
 1241.1100     2.3956   115.9319   107.8724      .4479      .7599
 1241.2400     2.4011   116.3499   109.9064      .4712      .7378
 1241.3700     2.4152   116.2142   108.6095      .5091      .7097
 1241.5000     2.4249   115.0629   106.5139      .5301      .6692
 1241.6300     2.4239   113.4488   104.9917      .5271      .6320
 1241.7600     2.4269   112.1909   103.0498      .5561      .6159
 1241.8900     2.4413   111.0147   100.5986      .5299      .6279
 1242.0200     2.4644   110.5158    99.8037      .5233      .6169
 1242.1500     2.4958   111.6985    97.7293      .5303      .6009
 1242.2800     2.5285   113.7920    94.6068      .5140      .6028
 1242.4100     2.5510   115.9226    90.2408      .4785      .6146
 1242.5400     2.5516   117.7769    84.7365      .4623      .6113
 1242.6700     2.5250   119.7126    81.9001      .4771      .6027
 1242.8000     2.4901   119.7648    83.6746      .5052      .5978
 1242.9300     2.4753   118.2437    87.2702      .4956      .6006
 1243.0600     2.4748   115.3116    91.0477      .4660      .6061
 1243.1900     2.4774   113.8197    91.4201      .4486      .6301
 1243.3200     2.4728   114.7738    87.0226      .4516      .6695
 1243.4500     2.4549   116.4260    80.7151      .4599      .6818
 1243.5800     2.4261   117.9913    79.7211      .4927      .6044
 1243.7100     2.4156   117.6459    79.5601      .4991      .5771
 1243.8400     2.4219   116.7174    78.8399      .4966      .5903
 1243.9700     2.4376   116.4267    75.3883      .4774      .6417
 1244.1000     2.4414   117.3072    73.8330      .4631      .6486
 1244.2300     2.4231   119.2961    76.8937      .4646      .5942
 1244.3600     2.3956   121.7104    81.1804      .4660      .5753
 1244.4900     2.3746   122.2978    86.2383      .4901      .5539
 1244.6200     2.3715   122.6872    85.2956      .4989      .5294
 1244.7500     2.3748   122.7379    88.4126      .5288      .5337
 1244.8800     2.3771   122.7783    95.4600      .5493      .5310
 1245.0100     2.3761   123.0116   101.9962      .5517      .5201
 1245.1400     2.3740   123.2074   102.7419      .5391      .5171
 1245.2700     2.3745   122.7319    95.4948      .5105      .5269
 1245.4000     2.3794   122.2208    89.1584      .4909      .5348
 1245.5300     2.3862   122.2299    88.1851      .4705      .5331
 1245.6600     2.3941   122.3548    93.1790      .4704      .5354
 1245.7900     2.4035   122.4566    95.9098      .4794      .5325
 1245.9200     2.4123   122.6066    96.1513      .4912      .5231
 1246.0500     2.4174   122.9016    96.8006      .5033      .5162
 1246.1800     2.4162   123.2358    93.7607      .5051      .5244
 1246.3100     2.4052   123.5805    94.1997      .4958      .5094
 1246.4400     2.3918   123.9763    94.5911      .5030      .5005
 1246.5700     2.3801   124.2208    97.6922      .4936      .4974
 1246.7000     2.3727   124.2723   101.3764      .4951      .4979
 1246.8300     2.3736   124.1936   102.9043      .5198      .4986
 1246.9600     2.3841   124.0780   101.3933      .5593      .4968
 1247.0900     2.3958   123.9470    99.5795      .6182      .4963
 1247.2200     2.4031   124.1268   102.3479      .6356      .5059
 1247.3500     2.4005   124.4992   106.5274      .5576      .4996
 1247.4800     2.3959   124.7494   107.4641      .5187      .4913
 1247.6100     2.3974   124.9341   105.8327      .5104      .4833
 1247.7400     2.4067   125.0334   103.9948      .5138      .4812
 1247.8700     2.4174   124.9203   103.9247      .5339      .4911
 1248.0000     2.4200   124.8631   106.7610      .5188      .4961
 1248.1300     2.4112   125.0130   106.5036      .5240      .4934
 1248.2600     2.3976   125.0136   104.9928      .5332      .4969
 1248.3900     2.3929   124.9613   104.3484      .5318      .4970
 1248.5200     2.3983   125.0031   104.5921      .5243      .4988
 1248.6500     2.4072   125.0259   103.8124      .5184      .5038
 1248.7800     2.4115   124.6926    99.9359      .5124      .5016
 1248.9100     2.4059   124.3734    96.9064      .4878      .4878
 1249.0400     2.3951   124.1623    94.3952      .4960      .4949
 1249.1700     2.3934   123.7886    96.4994      .4852      .5072
 1249.3000     2.3962   123.6186    99.8246      .4718      .5112
 1249.4300     2.3972   123.5247   103.1281      .4559      .5090
 1249.5600     2.3946   123.2718   105.8979      .4353      .5090
 1249.6900     2.3925   122.9832   106.4485      .4236      .5133
 1249.8200     2.3880   123.1255   104.5933      .4418      .5157
 1249.9500     2.3888   123.1749   100.4543      .4777      .5164
 1250.0800     2.3903   123.3534    95.8110      .5232      .5174
 1250.2100     2.3932   123.4746    91.1590      .5478      .5164
 1250.3400     2.3977   123.4024    87.5331      .5487      .5150
 1250.4700     2.4040   123.1866    86.1378      .5395      .5167
 1250.6000     2.4147   123.0699    87.5249      .5221      .5240
 1250.7300     2.4213   122.9378    92.5523      .5102      .5236
 1250.8600     2.4227   122.8373    93.3682      .5042      .5232
 1250.9900     2.4151   122.6835    92.7580      .5071      .5248
 1251.1200     2.4066   122.3113    90.1952      .5055      .5267
 1251.2500     2.4025   121.9631    88.6193      .4957      .5281
 1251.3800     2.4031   122.0273    91.0721      .4841      .5293
 1251.5100     2.4088   122.3178    91.6673      .4725      .5314
 1251.6400     2.4132   122.3267    94.0048      .4636      .5309
 1251.7700     2.4148   121.4602    94.4268      .4804      .5295
 1251.9000     2.4152   120.6236    98.7145      .5107      .5328
 1252.0300     2.4143   120.1051   102.7128      .5121      .5385
 1252.1600     2.4126   119.8912   106.2707      .4909      .5426
 1252.2900     2.4112   119.8679   112.8273      .4951      .5433
 1252.4200     2.4058   119.9519   111.3800      .5041      .5388
 1252.5500     2.4046   119.9206   109.3681      .4998      .5378
 1252.6800     2.4049   120.3825   101.5197      .4719      .5434
 1252.8100     2.4070   120.7455    97.3303      .4384      .5392
 1252.9400     2.4090   121.3280    96.9732      .4195      .5390
 1253.0700     2.4103   122.2491    97.4895      .4281      .5507
 1253.2000     2.4116   122.9965    98.4644      .4589      .5562
 1253.3300     2.4079   123.8120   105.6604      .4607      .5275
 1253.4600     2.4048   123.9106   108.3489      .4644      .5150
 1253.5900     2.4040   123.2963   108.9285      .4866      .5207
 1253.7200     2.4111   122.2645   104.3731      .4926      .5407
 1253.8500     2.4241   121.0928    98.3386      .4805      .5532
 1253.9800     2.4380   120.1994    95.0982      .4646      .5435
 1254.1100     2.4476   120.0073    93.4726      .4526      .5340
 1254.2400     2.4448   118.6972    89.8977      .4514      .6247
 1254.3700     2.4519   111.6987    84.8052      .4451      .6409
 1254.5000     2.4692   100.4285    73.5571      .4118      .6998
 1254.6300     2.4943    87.6915    56.9067      .3245      .9656
 1254.7600     2.5227    77.6083    40.1216      .2278     1.4489
 1254.8900     2.5500    73.0693    29.3902      .1775     1.7934
 1255.0200     2.5726    73.0571    27.2614      .1550     1.7073
 1255.1500     2.5940    74.9446    29.8666      .1605     1.5959
 1255.2800     2.5968    76.2198    31.4786      .1674     1.5251
 1255.4100     2.5856    78.9247    30.8942      .1802     1.4580
 1255.5400     2.5741    82.7781    33.3383      .1941     1.4036
 1255.6700     2.5668    86.8665    39.1776      .2103     1.3303
 1255.8000     2.5606    90.2062    44.8847      .2333     1.2205
 1255.9300     2.5576    91.8909    50.5083      .2585     1.1630
 1256.0600     2.5491    90.7865    47.8496      .2697     1.1390
 1256.1900     2.5438    90.0338    45.6750      .2735     1.1899
 1256.3200     2.5362    89.4597    44.8614      .2717     1.3149
 1256.4500     2.5265    88.9455    45.6223      .2735     1.3450
 1256.5800     2.5185    89.9043    47.7632      .2782     1.2530
 1256.7100     2.5154    94.1640    51.3527      .2786     1.1828
