~VERSION INFORMATION
VERS.                                                 2.0:   CWLS Log ASCII Standard-VERSION 2.0
WRAP.                                                  NO:   One line per depth step
~Well Information Block
STRT.M                                             3.9000:   Top Depth
STOP.M                                          1280.3700:   Bottom Depth
STEP.M                                             .13000:   Depth Increment
NULL.                                            -999.250:   Null Value
FLD .                                            LEKHWAIR:   Field Name
WELL.                                      LEKHWAIR-815H1:   NAME
EDF .                                              123.89:   ELEV DRILL FLOOR
EPD .                                                   0:   ELEV PERM DATUM
EGL .                                              114.54:   GROUND LEVEL
COMP.                          Petroleum Development Oman:   OPERATOR
PDAT.                                                 MSL:   PERM DATUM
COUN.                                             RIG49_2:   RIG NAME
SPUD.                                          2015/12/09:   SPUD DATE
LATI.                                         22.91808639:   SURF. LATITUDE
LONG.                                            55.38429:   SURF. LONGITUDE
UTME.                                          334300.128:   SURF. UTM E
UTMN.                                         2535149.527:   SURF. UTM N
~PARAMETER INFORMATION (log)
LNAM.                                              PUBLIC:   NAME
LTYP.                                           COMPOSITE:   LOG TYPE
LSRV.                                      PREFERRED DATA:   SERVICE
LSOU.                                             TECHLOG:   LOG SOURCE
LVSN.                                                   1:   LOG VERSION
BHIS.                                                  RC:   BRIEF HISTORY
FHIS.                                        RAW-LAS/COPY:   FULL HISTORY
~Curve Information Block
#MNEM.UNIT                                        API CODE    No Description
#=========                                        ========    == ===========
DEPT.M                                       00 001 00 00:     1  DEPTH
DEN.G/C3                                                 :     2  Bulk Density
DT.US/F                                                  :     3  Sonic (Compressional)
GR.API                                                   :     4  Gamma Ray
NEU.M3M3                                                 :     5  Neutron Porosity in Limestone Units
RES_DEP.OHMM                                             :     6  Resistivity Deep
~ASCII
# ...
 1256.8400     2.5121    99.6844    58.1514      .2879     1.1029
 1256.9700     2.4988   106.7790    66.1100      .3312      .9503
 1257.1000     2.4810   112.5757    73.3976      .3883      .7786
 1257.2300     2.4675   114.0238    76.7655      .4410      .6374
 1257.3600     2.4636   112.3237    76.4841      .4457      .6050
 1257.4900     2.4706   108.8882    73.4862      .4059      .6937
 1257.6200     2.4861   103.4602    67.8978      .3792      .8323
 1257.7500     2.5040    97.4121    61.0769      .3369      .9058
 1257.8800     2.5205    93.7472    57.5738      .3073      .9994
 1258.0100     2.5299    92.0421    55.2212      .2889     1.1415
 1258.1400     2.5387    92.0899    53.1148      .2844     1.2731
 1258.2700     2.5435    92.6760    50.8619      .2884     1.2970
 1258.4000     2.5392    93.0835    48.9130      .2897     1.1890
 1258.5300     2.5283    94.2997    48.9381      .2800     1.0647
 1258.6600     2.5138    98.4541    55.6773      .2851     1.1679
 1258.7900     2.4982   103.5896    65.8188      .3002      .9138
 1258.9200     2.4857   108.7492    72.8126      .3460      .7416
 1259.0500     2.4697   112.5532    76.8358      .4047      .6608
 1259.1800     2.4526   114.3041    79.1727      .4483      .6275
 1259.3100     2.4414   114.4197    81.9282      .4674      .6075
 1259.4400     2.4373   114.4452    87.7758      .4907      .5954
 1259.5700     2.4365   115.7463    87.8640      .4868      .6331
 1259.7000     2.4371   117.0758    89.6412      .4486      .6206
 1259.8300     2.4317   118.1758    89.3730      .4623      .5997
 1259.9600     2.4261   118.9362    90.9460      .4942      .5877
 1260.0900     2.4243   119.3241    92.0429      .5555      .5869
 1260.2200     2.4250   119.4417    88.3147      .6435      .5894
 1260.3500     2.4233   119.6181    86.2823      .5845      .5824
 1260.4800     2.4184   119.6493    84.3516      .6044      .5791
 1260.6100     2.4167   119.8623    85.5398      .5770      .5763
 1260.7400     2.4154   120.0172    87.6890      .5716      .5695
 1260.8700     2.4167   120.0800    90.3418      .5560      .5675
 1261.0000     2.4198   119.7744    92.1271      .5101      .5761
 1261.1300     2.4222   118.8382    91.6608      .4616      .5905
 1261.2600     2.4311   118.0847    92.2915      .4561      .5952
 1261.3900     2.4328   118.2797    92.5507      .4848      .6148
 1261.5200     2.4294   118.7151    94.9784      .4969      .5966
 1261.6500     2.4216   119.5626    98.4133      .5028      .5701
 1261.7800     2.4161   120.3515    99.7186      .5136      .5569
 1261.9100     2.4178   120.5550    99.1551      .5317      .5589
 1262.0400     2.4261   120.0329   100.1214      .5446      .5623
 1262.1700     2.4394   119.1889    96.1509      .5178      .5629
 1262.3000     2.4462   118.7177   100.1272      .4945      .5838
 1262.4300     2.4453   118.3204    99.1611      .4860      .5934
 1262.5600     2.4408   117.9108   100.0584      .4794      .5877
 1262.6900     2.4353   117.8568   100.5002      .4616      .5807
 1262.8200     2.4296   118.2675    99.1423      .4345      .5794
 1262.9500     2.4230   118.6419   102.6400      .4203      .5694
 1263.0800     2.4169   119.5276   103.5182      .4372      .5375
 1263.2100     2.4093   120.4574   107.4268      .4537      .5342
 1263.3400     2.4082   121.0614   108.0025      .4611      .5329
 1263.4700     2.4104   121.3978   106.5039      .4627      .5306
 1263.6000     2.4132   121.5445   105.0332      .4710      .5275
 1263.7300     2.4149   121.5568   104.7575      .4835      .5233
 1263.8600     2.4130   121.4970   105.3845      .4653      .5177
 1263.9900     2.4144   121.4907   108.7726      .4613      .5381
 1264.1200     2.4228   121.4320   110.0492      .4334      .5428
 1264.2500     2.4359   121.3915   111.4216      .4296      .5471
 1264.3800     2.4480   121.2493   112.9297      .4260      .5583
 1264.5100     2.4587   121.0957   112.8785      .4178      .5916
 1264.6400     2.4690   121.0937   110.8859      .4247      .6367
 1264.7700     2.4697   121.0944   111.9875      .4580      .5945
 1264.9000     2.4622   121.0945   106.3520      .4976      .5531
 1265.0300     2.4425   121.0891   108.3207      .5535      .5490
 1265.1600     2.4251   121.0841   108.3380      .5739      .5504
 1265.2900     2.4121   121.0812   109.4745      .5643      .5504
 1265.4200     2.4062   121.0802   112.1544      .5383      .5492
 1265.5500     2.4103   121.0802   112.9895      .5094      .5484
 1265.6800     2.4135   121.0802   116.7465      .5223      .5500
 1265.8100     2.4253   121.0802   116.7186      .5084      .5560
 1265.9400     2.4298   121.0802   115.1837      .5175      .5525
 1266.0700     2.4334   121.0802   110.9252      .5052      .5438
 1266.2000     2.4378   121.0802   106.9129      .4911      .5516
 1266.3300     2.4449   121.0802   104.9890      .4922      .5768
 1266.4600     2.4564   121.0802   103.8733      .4955      .5905
 1266.5900     2.4621   121.0802   103.7801      .5181      .5900
 1266.7200     2.4579   121.0802   106.1076      .5089      .5930
 1266.8500     2.4484   121.0802   110.1982      .5112      .5943
 1266.9800     2.4429   121.0802   114.4720      .5073      .5954
 1267.1100     2.4419   121.0802   118.0878      .5020      .5971
 1267.2400     2.4441   121.0802   119.4339      .4942      .6016
 1267.3700     2.4525   121.0802   116.2842      .4644      .6135
 1267.5000     2.4602   121.0802   114.8263      .4658      .6241
 1267.6300     2.4659   121.0802   112.8715      .4739      .6048
 1267.7600     2.4628   121.0802   116.7900      .5095      .5837
 1267.8900     2.4491   121.0802   122.3436      .5084      .5705
 1268.0200     2.4332   121.0802  -999.2500      .4877      .5651
 1268.1500     2.4242   121.0802  -999.2500      .4862      .5636
 1268.2800     2.4220   121.0802  -999.2500      .4758      .5632
 1268.4100     2.4274   121.0802  -999.2500      .4733      .5674
 1268.5400     2.4341   121.0802  -999.2500      .4757      .5719
 1268.6700     2.4415   121.0802  -999.2500      .4806      .5928
 1268.8000     2.4494   121.0802  -999.2500      .4907      .6346
 1268.9300     2.4545   121.0802  -999.2500      .4976      .6447
 1269.0600     2.4533   121.0802  -999.2500      .4946      .5898
 1269.1900     2.4479   121.0802  -999.2500      .5029      .5779
 1269.3200     2.4408   121.0802  -999.2500      .5053      .5664
 1269.4500     2.4383   121.0802  -999.2500      .4860      .5729
 1269.5800     2.4357   121.0802  -999.2500      .4769      .5801
 1269.7100     2.4391   121.0802  -999.2500      .4682      .5941
 1269.8400     2.4489   121.0802  -999.2500      .4614      .6157
 1269.9700     2.4600   121.0802  -999.2500      .4689      .6391
 1270.1000     2.4802   121.0802  -999.2500      .4665      .6789
 1270.2300     2.4950   121.0802  -999.2500      .4624      .6929
 1270.3600     2.5350   121.0802  -999.2500      .4582      .6436
 1270.4900     2.7560   121.0802  -999.2500  -999.2500      .5929
 1270.6200     3.1849   121.0802  -999.2500  -999.2500      .5652
 1270.7500     3.7425   121.0802  -999.2500  -999.2500      .5551
 1270.8800     4.2744   121.0802  -999.2500  -999.2500      .5448
 1271.0100     4.5609   121.0802  -999.2500  -999.2500      .5392
 1271.1400     4.6186   121.0802  -999.2500  -999.2500      .5431
 1271.2700     4.6288   121.0802  -999.2500  -999.2500      .5657
 1271.4000     4.6288   121.0802  -999.2500  -999.2500      .5874
 1271.5300     4.6288   121.0802  -999.2500  -999.2500      .5924
 1271.6600     4.6288   121.0802  -999.2500  -999.2500      .5803
 1271.7900     4.6288   121.0802  -999.2500  -999.2500      .5661
 1271.9200     4.6288   121.0802  -999.2500  -999.2500      .5590
 1272.0500     4.6288   121.0802  -999.2500  -999.2500      .5511
 1272.1800     4.6288   121.0802  -999.2500  -999.2500      .5593
 1272.3100     4.6288   121.0802  -999.2500  -999.2500      .5733
 1272.4400     4.6288   121.0802  -999.2500  -999.2500      .5884
 1272.5700     4.6288   121.0802  -999.2500  -999.2500      .5921
