~VERSION INFORMATION
VERS.                                                 2.0:   CWLS Log ASCII Standard-VERSION 2.0
WRAP.                                                  NO:   One line per depth step
~Well Information Block
STRT.M                                             3.9000:   Top Depth
STOP.M                                          1280.3700:   Bottom Depth
STEP.M                                             .13000:   Depth Increment
NULL.                                            -999.250:   Null Value
FLD .                                            LEKHWAIR:   Field Name
WELL.                                      LEKHWAIR-815H1:   NAME
EDF .                                              123.89:   ELEV DRILL FLOOR
EPD .                                                   0:   ELEV PERM DATUM
EGL .                                              114.54:   GROUND LEVEL
COMP.                          Petroleum Development Oman:   OPERATOR
PDAT.                                                 MSL:   PERM DATUM
COUN.                                             RIG49_2:   RIG NAME
SPUD.                                          2015/12/09:   SPUD DATE
LATI.                                         22.91808639:   SURF. LATITUDE
LONG.                                            55.38429:   SURF. LONGITUDE
UTME.                                          334300.128:   SURF. UTM E
UTMN.                                         2535149.527:   SURF. UTM N
~PARAMETER INFORMATION (log)
LNAM.                                              PUBLIC:   NAME
LTYP.                                           COMPOSITE:   LOG TYPE
LSRV.                                      PREFERRED DATA:   SERVICE
LSOU.                                             TECHLOG:   LOG SOURCE
LVSN.                                                   1:   LOG VERSION
BHIS.                                                  RC:   BRIEF HISTORY
FHIS.                                        RAW-LAS/COPY:   FULL HISTORY
~Curve Information Block
#MNEM.UNIT                                        API CODE    No Description
#=========                                        ========    == ===========
DEPT.M                                       00 001 00 00:     1  DEPTH
DEN.G/C3                                                 :     2  Bulk Density
DT.US/F                                                  :     3  Sonic (Compressional)
GR.API                                                   :     4  Gamma Ray
NEU.M3M3                                                 :     5  Neutron Porosity in Limestone Units
RES_DEP.OHMM                                             :     6  Resistivity Deep
~ASCII
# ...
 1209.2600  -999.2500  -999.2500    28.4078  -999.2500  -999.2500
 1209.3900  -999.2500  -999.2500    26.7024  -999.2500  -999.2500
 1209.5200  -999.2500  -999.2500    26.3139  -999.2500  -999.2500
 1209.6500  -999.2500  -999.2500    27.3822  -999.2500  -999.2500
 1209.7800  -999.2500  -999.2500    29.3945  -999.2500  -999.2500
 1209.9100  -999.2500    64.8175    32.1406  -999.2500  -999.2500
 1210.0400  -999.2500    65.7406    31.2045  -999.2500  -999.2500
 1210.1700  -999.2500    66.8325    30.5519  -999.2500  -999.2500
 1210.3000  -999.2500    67.1046    31.4442  -999.2500  -999.2500
 1210.4300  -999.2500    66.7017    33.6563  -999.2500  -999.2500
 1210.5600  -999.2500    65.9208    35.6053  -999.2500  -999.2500
 1210.6900  -999.2500    64.9589    35.7233  -999.2500  -999.2500
 1210.8200  -999.2500    63.9755    34.5937  -999.2500  -999.2500
 1210.9500  -999.2500    64.7641    33.2614  -999.2500  -999.2500
 1211.0800  -999.2500    64.7785    36.7470  -999.2500  -999.2500
 1211.2100  -999.2500    63.0909    39.7599  -999.2500  -999.2500
 1211.3400  -999.2500    60.4207    40.9478  -999.2500  -999.2500
 1211.4700  -999.2500    58.5197    40.8928  -999.2500  -999.2500
 1211.6000  -999.2500    59.4202    40.9902  -999.2500  -999.2500
 1211.7300  -999.2500    64.5005    42.8671  -999.2500  -999.2500
 1211.8600  -999.2500    87.9936    47.7623  -999.2500  -999.2500
 1211.9900  -999.2500   111.8031    48.7325  -999.2500  -999.2500
 1212.1200  -999.2500   127.7293    49.5609  -999.2500  -999.2500
 1212.2500  -999.2500   133.3112    50.2656  -999.2500  -999.2500
 1212.3800  -999.2500   128.5174    50.7738  -999.2500  -999.2500
 1212.5100  -999.2500   114.6021    51.9080  -999.2500  -999.2500
 1212.6400  -999.2500    98.2381    49.3016  -999.2500  -999.2500
 1212.7700  -999.2500    92.0821    48.6035  -999.2500  -999.2500
 1212.9000  -999.2500    89.2315    47.1664  -999.2500  -999.2500
 1213.0300  -999.2500    88.5904    45.5205  -999.2500  -999.2500
 1213.1600  -999.2500    89.9106    43.1232  -999.2500  -999.2500
 1213.2900  -999.2500    93.5475    40.9294  -999.2500  -999.2500
 1213.4200  -999.2500    99.9979    42.1373  -999.2500  -999.2500
 1213.5500  -999.2500   107.2083    42.0603  -999.2500  -999.2500
 1213.6800  -999.2500   110.5637    40.1190  -999.2500  -999.2500
 1213.8100  -999.2500   109.2962    37.2932  -999.2500  -999.2500
 1213.9400  -999.2500   105.4146    34.7066  -999.2500  -999.2500
 1214.0700  -999.2500   101.0425    35.1156  -999.2500  -999.2500
 1214.2000  -999.2500    97.2585    38.9559  -999.2500  -999.2500
 1214.3300  -999.2500    93.3611    40.8698  -999.2500  -999.2500
 1214.4600  -999.2500    85.2536    42.9694  -999.2500  -999.2500
 1214.5900  -999.2500    80.2536    41.5254  -999.2500  -999.2500
 1214.7200  -999.2500    78.6861    39.6845  -999.2500  -999.2500
 1214.8500  -999.2500    83.8110    39.9951  -999.2500  -999.2500
 1214.9800  -999.2500    93.6270    42.4916  -999.2500  -999.2500
 1215.1100  -999.2500   102.6320    45.5380  -999.2500  -999.2500
 1215.2400  -999.2500   108.4583    48.2539  -999.2500  -999.2500
 1215.3700  -999.2500   113.0838    47.7620  -999.2500  -999.2500
 1215.5000  -999.2500   116.0768    46.4262  -999.2500  -999.2500
 1215.6300  -999.2500   117.6923    46.2061  -999.2500  -999.2500
 1215.7600  -999.2500   117.8969    44.1830  -999.2500  -999.2500
 1215.8900  -999.2500   116.0106    39.2592  -999.2500  -999.2500
 1216.0200  -999.2500   111.4155    33.6014  -999.2500  -999.2500
 1216.1500  -999.2500   105.4941    29.4583  -999.2500  -999.2500
 1216.2800  -999.2500   100.4921    30.1644  -999.2500  -999.2500
 1216.4100  -999.2500    96.2932    33.3305  -999.2500  -999.2500
 1216.5400  -999.2500    89.8221    34.0394  -999.2500  -999.2500
 1216.6700  -999.2500    81.6166    33.3719  -999.2500  -999.2500
 1216.8000  -999.2500    74.9815    32.8262  -999.2500  -999.2500
 1216.9300  -999.2500    73.7812    31.9389  -999.2500  -999.2500
 1217.0600  -999.2500    77.7670    32.6534  -999.2500  -999.2500
 1217.1900  -999.2500    86.7132    34.2482  -999.2500  -999.2500
 1217.3200  -999.2500    94.4258    37.1914  -999.2500  -999.2500
 1217.4500  -999.2500   100.7898    40.4114  -999.2500  -999.2500
 1217.5800  -999.2500   105.2883    43.9021  -999.2500  -999.2500
 1217.7100  -999.2500   108.1733    47.6426  -999.2500  -999.2500
 1217.8400  -999.2500   111.0984    50.6894  -999.2500  -999.2500
 1217.9700  -999.2500   113.3621    51.9427  -999.2500  -999.2500
 1218.1000  -999.2500   108.3326    51.0305  -999.2500  -999.2500
 1218.2300  -999.2500    99.6248    47.3760  -999.2500  -999.2500
 1218.3600  -999.2500    88.7777    43.2988  -999.2500  -999.2500
 1218.4900  -999.2500    75.4681    38.8719  -999.2500  -999.2500
 1218.6200  -999.2500    63.8376    33.9849  -999.2500  -999.2500
 1218.7500  -999.2500    66.7085    31.0830  -999.2500  -999.2500
 1218.8800  -999.2500    77.6943    29.1045  -999.2500  -999.2500
 1219.0100  -999.2500    88.6534    32.0789  -999.2500  -999.2500
 1219.1400  -999.2500    93.1157    38.7030  -999.2500  -999.2500
 1219.2700  -999.2500    92.5437    43.9697  -999.2500  -999.2500
 1219.4000  -999.2500    87.2943    45.5593  -999.2500  -999.2500
 1219.5300  -999.2500    79.6428    44.5714  -999.2500  -999.2500
 1219.6600  -999.2500    81.1529    43.4965  -999.2500  -999.2500
 1219.7900  -999.2500    93.5614    44.8444  -999.2500  -999.2500
 1219.9200  -999.2500    98.8832    47.1623  -999.2500  -999.2500
 1220.0500  -999.2500   101.9204    46.8231  -999.2500  -999.2500
 1220.1800  -999.2500   103.7284    45.9494  -999.2500  -999.2500
 1220.3100  -999.2500   105.1532    44.9977  -999.2500  -999.2500
 1220.4400  -999.2500   107.2841    42.4889      .3561      .6184
 1220.5700  -999.2500   109.5082    41.0760      .3623      .6195
 1220.7000     2.3908   109.7473    40.0430      .3553      .6293
 1220.8300     2.3879   113.7135    42.5502      .3460      .6491
 1220.9600     2.3535   116.9749    43.2883      .3405      .6710
 1221.0900     2.3309   118.1269    41.5894      .3379      .6851
 1221.2200     2.3471   117.2386    39.0990      .3307      .6882
 1221.3500     2.3958   114.7298    37.5938      .3123      .6820
 1221.4800     2.4394   111.3993    37.3006      .2984      .6452
 1221.6100     2.4258   111.9847    41.3326      .2982      .6369
 1221.7400     2.4046   113.6250    44.4509      .3120      .6312
 1221.8700     2.3871   115.2409    46.6914      .3270      .6126
 1222.0000     2.3754   116.0253    48.8196      .3374      .5873
 1222.1300     2.3687   115.7703    50.2964      .3448      .5657
 1222.2600     2.3668   114.9344    49.2437      .3538      .5544
 1222.3900     2.3689   113.5212    49.9083      .3559      .5891
 1222.5200     2.3657   111.3431    48.8577      .3383      .6119
 1222.6500     2.3651   110.2704    50.1926      .3285      .6276
 1222.7800     2.3691   110.0236    50.6735      .3319      .6431
 1222.9100     2.3784   110.3121    50.4090      .3485      .6665
 1223.0400     2.3885   111.3853    50.2115      .3706      .6851
 1223.1700     2.3881   113.9425    48.0664      .3820      .6530
 1223.3000     2.3737   115.5625    51.9869      .4061      .6186
 1223.4300     2.3534   116.3048    54.1876      .4100      .5807
 1223.5600     2.3428   116.0217    58.2764      .4132      .5393
 1223.6900     2.3444   114.6476    60.9776      .4137      .5410
 1223.8200     2.3534   113.3842    60.0384      .4068      .5788
 1223.9500     2.3608   113.5224    57.0471      .3983      .6096
 1224.0800     2.3582   114.3008    57.8377      .4143      .6202
 1224.2100     2.3462   114.0271    57.0570      .4085      .6105
 1224.3400     2.3422   113.0255    55.5962      .4106      .5929
 1224.4700     2.3473   112.0057    50.2814      .3938      .6134
 1224.6000     2.3603   110.8901    46.1062      .3551      .6628
 1224.7300     2.3784   110.0513    45.5540      .3171      .7044
 1224.8600     2.3968   109.8698    46.4835      .3090      .7087
 1224.9900     2.4085   108.8005    46.7503      .3269      .7221
