~VERSION INFORMATION
VERS.                                                 2.0:   CWLS Log ASCII Standard-VERSION 2.0
WRAP.                                                  NO:   One line per depth step
~Well Information Block
STRT.M                                            15.0876:   Top Depth
STOP.M                                           669.0360:   Bottom Depth
STEP.M                                             .15240:   Depth Increment
NULL.                                            -999.250:   Null Value
FLD .                                               NATIH:   Field Name
WELL.                                      NATIH WSW-13H1:   NAME
EDF .                                              231.32:   ELEV DRILL FLOOR
EPD .                                                   0:   ELEV PERM DATUM
EGL .                                              226.75:   GROUND LEVEL
COMP.                          Petroleum Development Oman:   OPERATOR
PDAT.                                                 MSL:   PERM DATUM
COUN.                                             RIG05_1:   RIG NAME
SPUD.                                          1980/03/02:   SPUD DATE
LATI.                                         22.46529137:   SURF. LATITUDE
LONG.                                         56.71960289:   SURF. LONGITUDE
UTME.                                           471151.72:   SURF. UTM E
UTMN.                                          2484147.59:   SURF. UTM N
~PARAMETER INFORMATION (log)
LNAM.                                              PUBLIC:   NAME
LTYP.                                              JOINED:   LOG TYPE
LSRV.                                            CLEAN UP:   SERVICE
LSOU.                                              TARGET:   LOG SOURCE
LVSN.                                                   1:   LOG VERSION
BHIS.                                                   R:   BRIEF HISTORY
TDD .M                                             694.94:   FINAL TD DRILLER
TDL .M                                             665.68:   FINAL TD LOGGER
FHIS.                                             RAW-LAS:   FULL HISTORY
~Curve Information Block
#MNEM.UNIT                                        API CODE    No Description
#=========                                        ========    == ===========
DEPT.M                                       00 001 00 00:     1  DEPTH
DEN.G/C3                                                 :     2  Bulk Density
DT.US/M                                                  :     3  Sonic (Compressional)
GR.API                                                   :     4  Gamma Ray
NEU.V/V                                                  :     5  Neutron Porosity in Limestone Units
RES_DEP.OHMM                                             :     6  Resistivity Deep
~ASCII
# ...
  145.2372  -999.2500  -999.2500    20.1980      .4790  -999.2500
  145.3896  -999.2500  -999.2500    18.8970      .4550  -999.2500
  145.5420  -999.2500  -999.2500    17.6960      .4420  -999.2500
  145.6944  -999.2500  -999.2500    17.4960      .4540  -999.2500
  145.8468  -999.2500  -999.2500    17.2960      .4890  -999.2500
  145.9992  -999.2500  -999.2500    17.0960      .5040  -999.2500
  146.1516  -999.2500  -999.2500    16.0950      .4860  -999.2500
  146.3040  -999.2500  -999.2500    15.6940      .4820  -999.2500
  146.4564  -999.2500  -999.2500    15.9950      .4880  -999.2500
  146.6088  -999.2500  -999.2500    16.9950      .4980  -999.2500
  146.7612  -999.2500  -999.2500    17.4960      .5330  -999.2500
  146.9136  -999.2500  -999.2500    16.4950      .5650  -999.2500
  147.0660  -999.2500  -999.2500    16.5950      .5330  -999.2500
  147.2184  -999.2500  -999.2500    17.5960      .4890  -999.2500
  147.3708  -999.2500  -999.2500    17.8960      .5480  -999.2500
  147.5232  -999.2500  -999.2500    21.0980      .4970  -999.2500
  147.6756  -999.2500   341.2560    23.6000      .5140    23.2670
  147.8280  -999.2500   379.0910    25.9020      .5110     5.1220
  147.9804  -999.2500   417.2750    28.2040      .5170     2.5400
  148.1328  -999.2500   455.9310    30.1050      .4910      .7790
  148.2852  -999.2500   488.2340    30.3050      .4610     1.5720
  148.4376  -999.2500   486.8730    29.3040      .4390     2.8110
  148.5900  -999.2500   467.1140    28.6040      .4270     6.6940
  148.7424  -999.2500   453.9970    27.0030      .4100    18.1350
  148.8948  -999.2500   433.8510    25.4010      .4040 24705.0547
  149.0472  -999.2500   397.4220    25.3010      .3830 14871.1641
  149.1996  -999.2500   366.3920    24.3010      .3610    12.7710
  149.3520     2.3440   345.1620    22.8000      .3430     9.7720
  149.5044     2.3630   326.7810    22.0990      .3090    11.3270
  149.6568     2.3960   309.4340    21.6990      .2960    13.2510
  149.8092     2.4090   294.5170    21.7990      .2940    14.1350
  149.9616     2.4170   284.9730    22.6990      .2930    24.3650
  150.1140     2.4020   281.5980    22.6990      .3010    28.7680
  150.2664     2.3940   284.4280    21.7990      .3170    19.8880
  150.4188     2.3810   292.0200    21.7990      .3240    15.6460
  150.5712     2.3640   301.7880    22.6990      .3450    14.1350
  150.7236     2.3530   311.4860    23.2000      .3720    12.4220
  150.8760     2.3410   319.7260    24.9010      .3870    11.4320
  151.0284     2.3350   327.7780    26.1020      .3930    11.7530
  151.1808     2.3080   339.1910    27.6030      .4010    11.7530
  151.3332     2.2980   353.8570    31.0060      .3990    11.6450
  151.4856     2.2840   366.1310    33.4070      .4110    11.5380
  151.6380     2.2850   372.3540    32.8070      .4170    11.8620
  151.7904     2.3040   371.2980    32.1060      .4140    12.6530
  151.9428     2.3190   362.2190    29.6040      .4030    12.7710
  152.0952     2.3330   346.9090    26.6020      .3970    12.6530
  152.2476     2.3690   331.0870    25.8020      .3780    13.2510
  152.4000     2.3940   321.4550    25.3010      .3470    13.2510
  152.5524     2.3930   321.1730    25.2010      .3440    13.4980
  152.7048     2.3630   328.9960    23.8000      .3500    13.4980
  152.8572     2.3420   338.0110    22.9000      .3530    14.0050
  153.0096     2.3450   338.7260    21.6990      .3510    13.3740
  153.1620     2.3490   329.7880    21.1980      .3370    13.6230
  153.3144     2.3610   318.1230    19.6970      .3130    14.2660
  153.4668     2.3950   307.9340    18.4970      .2970    16.2340
  153.6192     2.4250   300.6260    18.4970      .2930    17.6400
  153.7716     2.4400   295.1080    19.0970      .2950    18.3030
  153.9240     2.4250   288.6810    19.2970      .2960    18.9910
  154.0764     2.4300   280.7650    19.4970      .2990    19.1670
  154.2288     2.4180   273.6150    20.7980      .2990    19.7060
  154.3812     2.4020   274.8170    22.1990      .3020    22.6310
  154.5336     2.3840   289.6550    22.4990      .3170    29.3050
  154.6860     2.3410   312.6220    21.8990      .3390    36.9090
  154.8384     2.3060   333.2270    20.8980      .3590    32.1380
  154.9908     2.2900   344.2520    21.1980      .3690    20.8270
  155.1432     2.2830   344.8290    20.3980      .3620    16.8440
  155.2956     2.2770   339.5650    18.9970      .3540    15.2180
  155.4480     2.2680   342.7310    19.1970      .3600    12.3080
  155.6004     2.2490   358.0630    19.2970      .3880     9.2450
  155.7528     2.2110   364.9090    18.9970      .4040     7.2060
  155.9052     2.1700   362.7560    19.5970      .4100     6.1030
  156.0576     2.1600   370.3210    19.2970      .4160     5.6170
  156.2100     2.1500   384.9740    20.3980      .4570     5.8820
  156.3624     2.0860   391.3580    21.9990      .4950     7.0750
  156.5148     2.0190   385.7250    24.5010      .5090     7.2060
  156.6672     2.0220   377.0640    25.8020      .5230     7.0750
  156.8196     2.0060   370.2740    29.2040      .5300     7.8310
  156.9720     2.0090   362.5500    32.8070      .5270     8.2760
  157.1244     2.1220   349.8640    34.8080      .4940     8.7480
  157.2768     2.2190   334.6170    34.9080      .4330    10.4240
  157.4292     2.2600   323.4790    35.5090      .4090    13.6230
  157.5816     2.2600   321.1140    35.7090      .4230    13.6230
  157.7340     2.2600   326.0980    35.2080      .4420    15.0780
  157.8864     2.2590   333.7960    33.3070      .4490    13.7490
  158.0388     2.2560   343.2530    31.7060      .4450    11.8620
  158.1912     2.2530   359.2220    30.2050      .4240     9.9540
  158.3436     2.2550   378.1720    31.2060      .4010     8.2000
  158.4960     2.2440   387.9960    32.6070      .4070     7.2730
  158.6484     2.2310   391.1600    34.6080      .4160     7.0100
  158.8008     2.2160   394.6310    34.4080      .4090     6.5110
  158.9532     2.2140   399.1870    33.6070      .4080     6.3920
  159.1056     2.2110   403.3600    34.3080      .4080     6.6320
  159.2580     2.2140   406.4160    34.5080      .4000     6.9450
  159.4104     2.2310   408.0570    31.8060      .4030     7.4770
  159.5628     2.2410   407.3530    30.3050      .4040     8.0500
  159.7152     2.2710   401.5140    27.2030      .3920     8.2760
  159.8676     2.3020   385.8370    24.9010      .3560     8.4310
  160.0200     2.3340   359.7950    24.4010      .3000     8.2000
  160.1724     2.3480   331.2330    26.1020      .2580     7.8310
  160.3248     2.3250   312.6230    29.4040      .2740     7.5470
  160.4772     2.3250   314.5600    29.4040      .2740     7.0100
  160.6296     2.2880   335.4210    30.3050      .3190     6.4510
  160.7820     2.2250   363.2140    31.2060      .3630     5.9920
  160.9344     2.1630   387.7350    30.3050      .3830     5.4640
  161.0868     2.1480   405.7610    29.2040      .3940     5.1220
  161.2392     2.1480   418.1750    28.1030      .4140     5.0750
  161.3916     2.1320   426.6070    29.1040      .4330     5.1220
  161.5440     2.1000   430.6570    28.8040      .4530     5.4130
  161.6964     2.1000   426.7340    28.6040      .4430     5.9370
  161.8488     2.0890   413.4280    28.2040      .4470     6.5710
  162.0012     2.1060   393.0100    28.6040      .4310     6.9450
  162.1536     2.1740   367.3150    27.9030      .4000     7.2060
  162.3060     2.2280   341.7380    27.4030      .3740     7.4090
  162.4584     2.2750   326.7410    26.5020      .3260     7.5470
  162.6108     2.2830   326.1860    27.2030      .3130     7.7590
  162.7632     2.2900   338.2880    27.3030      .3340     7.9760
  162.9156     2.2240   358.5690    26.2020      .3730     7.9760
  163.0680     2.1650   375.9890    26.8020      .4090     7.7590
  163.2204     2.1610   384.7450    27.0030      .4260     7.6170
  163.3728     2.1830   387.7360    25.8020      .4160     7.7590
  163.5252     2.2280   386.7430    26.2020      .4000     7.9030
  163.6776     2.2560   378.9160    24.6010      .3880     8.0500
