~VERSION INFORMATION
VERS.                                                 2.0:   CWLS Log ASCII Standard-VERSION 2.0
WRAP.                                                  NO:   One line per depth step
~Well Information Block
STRT.M                                            15.0876:   Top Depth
STOP.M                                           669.0360:   Bottom Depth
STEP.M                                             .15240:   Depth Increment
NULL.                                            -999.250:   Null Value
FLD .                                               NATIH:   Field Name
WELL.                                      NATIH WSW-13H1:   NAME
EDF .                                              231.32:   ELEV DRILL FLOOR
EPD .                                                   0:   ELEV PERM DATUM
EGL .                                              226.75:   GROUND LEVEL
COMP.                          Petroleum Development Oman:   OPERATOR
PDAT.                                                 MSL:   PERM DATUM
COUN.                                             RIG05_1:   RIG NAME
SPUD.                                          1980/03/02:   SPUD DATE
LATI.                                         22.46529137:   SURF. LATITUDE
LONG.                                         56.71960289:   SURF. LONGITUDE
UTME.                                           471151.72:   SURF. UTM E
UTMN.                                          2484147.59:   SURF. UTM N
~PARAMETER INFORMATION (log)
LNAM.                                              PUBLIC:   NAME
LTYP.                                              JOINED:   LOG TYPE
LSRV.                                            CLEAN UP:   SERVICE
LSOU.                                              TARGET:   LOG SOURCE
LVSN.                                                   1:   LOG VERSION
BHIS.                                                   R:   BRIEF HISTORY
TDD .M                                             694.94:   FINAL TD DRILLER
TDL .M                                             665.68:   FINAL TD LOGGER
FHIS.                                             RAW-LAS:   FULL HISTORY
~Curve Information Block
#MNEM.UNIT                                        API CODE    No Description
#=========                                        ========    == ===========
DEPT.M                                       00 001 00 00:     1  DEPTH
DEN.G/C3                                                 :     2  Bulk Density
DT.US/M                                                  :     3  Sonic (Compressional)
GR.API                                                   :     4  Gamma Ray
NEU.V/V                                                  :     5  Neutron Porosity in Limestone Units
RES_DEP.OHMM                                             :     6  Resistivity Deep
~ASCII
# ...
  572.8716  -999.2500   289.7140    34.0170      .2620    19.0550
  573.0240  -999.2500   302.3550    32.0160      .2390    20.5120
  573.1764  -999.2500   300.3540    32.2160      .2100    20.7010
  573.3288  -999.2500   291.7250    34.8170      .2080    20.3240
  573.4812  -999.2500   289.0550    39.1200      .2400    19.7700
  573.6336  -999.2500   295.9190    46.2230      .2700    19.9530
  573.7860  -999.2500   311.5630    50.2250      .2970    19.7700
  573.9384  -999.2500   324.8670    48.7240      .3130    19.2310
  574.0908  -999.2500   326.2800    45.1230      .2970    18.8800
  574.2432  -999.2500   322.1580    41.3210      .2620    18.7070
  574.3956  -999.2500   316.9090    43.6220      .2550    18.3650
  574.5480  -999.2500   310.5300    46.5230      .2620    18.3650
  574.7004  -999.2500   304.6880    47.7240      .2470    17.2190
  574.8528  -999.2500   299.5460    52.4260      .2400    16.2930
  575.0052  -999.2500   301.2050    60.9310      .2760    15.8490
  575.1576  -999.2500   317.3260    67.2340      .3410    15.9960
  575.3100  -999.2500   345.5400    66.6330      .3910    16.2930
  575.4624  -999.2500   368.5030    60.2300      .3930    15.4170
  575.6148  -999.2500   367.6750    49.2250      .3400    14.5880
  575.7672  -999.2500   346.4300    40.1200      .2510    14.4540
  575.9196  -999.2500   318.3720    33.6170      .2090    14.3220
  576.0720  -999.2500   293.3810    31.3160      .1980    14.9970
  576.2244  -999.2500   278.9630    32.8160      .2180    16.2930
  576.3768  -999.2500   280.0410    32.3160      .2480    16.9040
  576.5292  -999.2500   291.3270    31.3160      .2680    16.5960
  576.6816  -999.2500   299.0840    30.9160      .2600    15.8490
  576.8340  -999.2500   296.1740    31.4160      .2400    16.5960
  576.9864  -999.2500   291.2040    29.6150      .2380    19.4090
  577.1388  -999.2500   289.7030    26.0130      .2400    22.9090
  577.2912  -999.2500   282.5720    24.0120      .2320    26.7920
  577.4436  -999.2500   263.2470    21.4110      .2110    29.6480
  577.5960  -999.2500   239.9860    20.4100      .1630    29.9230
  577.7484  -999.2500   220.5260    22.4110      .1220    30.2000
  577.9008  -999.2500   212.2540    25.2130      .1120    33.4190
  578.0532  -999.2500   222.0860    26.5130      .1310    35.6450
  578.2056  -999.2500   242.7500    26.9130      .1730    36.9830
  578.3580  -999.2500   261.9130    30.4150      .2250    36.3080
  578.5104  -999.2500   274.0940    30.7150      .2590    28.5760
  578.6628  -999.2500   276.4560    29.8150      .2540    21.0860
  578.8152  -999.2500   270.0120    31.8160      .2410    20.7010
  578.9676  -999.2500   268.6840    35.5180      .2430    20.3240
  579.1200  -999.2500   279.8390    39.9200      .2540    16.5960
  579.2724  -999.2500   298.8460    47.2240      .2860    14.7230
  579.4248  -999.2500   325.0080    55.6280      .3100    13.4280
  579.5772  -999.2500   355.7770    62.7310      .3330    12.3590
  579.7296  -999.2500   381.6720    73.2370      .3540    11.6950
  579.8820  -999.2500   397.6770    77.3390      .3950    11.3760
  580.0344  -999.2500   403.1480    77.6390      .4150    11.3760
  580.1868  -999.2500   396.2390    75.9380      .3960    11.8030
  580.3392  -999.2500   377.8890    78.6390      .3710    12.3590
  580.4916  -999.2500   354.9880    78.2390      .3570    12.8230
  580.6440  -999.2500   329.4360    75.2380      .3380    13.0620
  580.7964  -999.2500   299.7370    73.7370      .3130    13.5520
  580.9488  -999.2500   284.9550    74.7370      .2940    14.4540
  581.1012  -999.2500   304.2320    81.4410      .3070    15.2760
  581.2536  -999.2500   335.5280    87.1440      .3530    15.5600
  581.4060  -999.2500   351.1730    84.2420      .3810    14.9970
  581.5584  -999.2500   349.7660    75.4380      .3730    14.4540
  581.7108  -999.2500   346.5770    71.0350      .3400    14.4540
  581.8632  -999.2500   342.5760    72.5360      .3010    14.8590
  582.0156  -999.2500   339.7280    74.6370      .3010    15.1360
  582.1680  -999.2500   341.8780    72.5360      .3240    15.2760
  582.3204  -999.2500   338.1200    69.5350      .3200    15.2760
  582.4728  -999.2500   324.1430    69.2350      .3230    14.9970
  582.6252  -999.2500   296.0990    65.9330      .3150    14.9970
  582.7776  -999.2500   274.3920    64.9330      .3200    15.4170
  582.9300  -999.2500   299.2430    64.4320      .3270    15.7040
  583.0824  -999.2500   333.1990    64.1320      .3220    16.4440
  583.2348  -999.2500   343.0780    65.1330      .3310    17.2190
  583.3872  -999.2500   339.2380    60.7300      .3270    17.3780
  583.5396  -999.2500   328.2970    58.7290      .3010    17.5390
  583.6920  -999.2500   315.2390    58.7290      .2960    18.0300
  583.8444  -999.2500   308.8760    60.5300      .3120    17.5390
  583.9968  -999.2500   310.3800    64.0320      .3150    15.7040
  584.1492  -999.2500   315.4750    70.9360      .3220    13.6770
  584.3016  -999.2500   323.8940    80.9400      .3420    12.2460
  584.4540  -999.2500   341.4150    93.8470      .3700    11.2720
  584.6064  -999.2500   364.8530   107.9540      .4060    10.7650
  584.7588  -999.2500   382.5640   121.9610      .4690    10.7650
  584.9112  -999.2500   402.5590   128.4640      .5150    10.8640
  585.0636  -999.2500   431.7490   124.2620      .5280    10.5680
  585.2160  -999.2500   437.5060   118.9600      .5300    10.0930
  585.3684  -999.2500   401.8490   107.3540      .5070     9.5500
  585.5208  -999.2500   339.0860   100.0500      .4150     9.2040
  585.6732  -999.2500   288.3100   104.3520      .3470     9.1200
  585.8256  -999.2500   295.4710   115.9580      .3570     9.2040
  585.9780  -999.2500   353.3750   132.1660      .3950     9.2040
  586.1304  -999.2500   408.2700   143.1720      .4430     9.2900
  586.2828  -999.2500   432.7360   140.1700      .4870     9.4620
  586.4352  -999.2500   433.1690   131.1660      .5090     9.8170
  586.5876  -999.2500   425.2850   113.8570      .4950    10.4710
  586.7400  -999.2500   401.1210    96.8480      .4510    11.3760
  586.8924  -999.2500   362.7720    80.6400      .3570    12.4740
  587.0448  -999.2500   327.1280    67.6340      .2760    14.0600
  587.1972  -999.2500   310.2770    62.3310      .2380    15.9960
  587.3496  -999.2500   312.2760    63.6320      .2530    17.8650
  587.5020  -999.2500   312.2960    64.1320      .2790    18.8800
  587.6544  -999.2500   310.0090    62.5310      .3080    19.2310
  587.8068  -999.2500   305.3490    57.4290      .3000    19.2310
  587.9592  -999.2500   292.9190    51.5260      .2650    19.2310
  588.1116  -999.2500   282.0790    48.1240      .2280    19.4090
  588.2640  -999.2500   276.4940    47.1240      .2100    20.5120
  588.4164  -999.2500   278.1970    47.9240      .2030    22.2840
  588.5688  -999.2500   284.4640    47.5240      .1950    23.9880
  588.7212  -999.2500   279.7570    49.3250      .1960    25.5860
  588.8736  -999.2500   274.6400    52.2260      .2120    26.7920
  589.0260  -999.2500   288.1160    51.9260      .2330    26.7920
  589.1784  -999.2500   302.2220    49.8250      .2460    26.3030
  589.3308  -999.2500   303.4880    51.9260      .2570    24.8890
  589.4832  -999.2500   296.7760    53.3270      .2560    23.5510
  589.6356  -999.2500   286.0490    55.5280      .2620    21.8780
  589.7880  -999.2500   273.2350    60.2300      .2690    19.7700
  589.9404  -999.2500   259.2800    60.3300      .2940    18.1970
  590.0928  -999.2500   263.1970    60.8300      .3280    17.3780
  590.2452  -999.2500   304.7910    55.7280      .3500    17.2190
  590.3976  -999.2500   344.7120    42.8210      .3590    17.2190
  590.5500  -999.2500   355.0470    29.2150      .3630    17.0610
  590.7024  -999.2500   338.7230    20.0100      .3400    17.0610
  590.8548  -999.2500   306.8350    16.3080      .3130    17.7010
  591.0072  -999.2500   268.4280    14.9080      .2870    19.2310
  591.1596  -999.2500   240.4000    12.7060      .2790    21.4780
  591.3120  -999.2500   252.6740    11.6060      .2890    23.7680
