~VERSION INFORMATION
VERS.                                                 2.0:   CWLS Log ASCII Standard-VERSION 2.0
WRAP.                                                  NO:   One line per depth step
~Well Information Block
STRT.M                                              .6096:   Top Depth
STOP.M                                          1141.9332:   Bottom Depth
STEP.M                                             .15240:   Depth Increment
NULL.                                            -999.250:   Null Value
FLD .                                               NATIH:   Field Name
WELL.                                          NATIH-85H1:   NAME
EDF .                                              214.53:   ELEV DRILL FLOOR
EPD .                                                   0:   ELEV PERM DATUM
EGL .                                              209.96:   GROUND LEVEL
COMP.                          PETROLEUM DEVELOPMENT OMAN:   OPERATOR
PDAT.                                                 MSL:   PERM DATUM
COUN.                                             RIG05_3:   RIG NAME
SPUD.                                          1990/12/20:   SPUD DATE
LATI.                                         22.42686054:   SURF. LATITUDE
LONG.                                         56.67231194:   SURF. LONGITUDE
UTME.                                           466276.93:   SURF. UTM E
UTMN.                                          2479903.71:   SURF. UTM N
~PARAMETER INFORMATION (log)
LNAM.                                              PUBLIC:   NAME
LTYP.                                              JOINED:   LOG TYPE
LSRV.                                            CLEAN UP:   SERVICE
LSOU.                                               FUGRO:   LOG SOURCE
LVSN.                                                   1:   LOG VERSION
BHIS.                                                   R:   BRIEF HISTORY
TDD .M                                            1165.00:   FINAL TD DRILLER
TDL .M                                            1151.00:   FINAL TD LOGGER
FHIS.                                             RAW-LAS:   FULL HISTORY
~Curve Information Block
#MNEM.UNIT                                        API CODE    No Description
#=========                                        ========    == ===========
DEPT.M                                       00 001 00 00:     1  DEPTH
DEN.G/CC                                                 :     2  Bulk Density
DT.US/M                                                  :     3  Acoustic log
GR.API                                                   :     4  Gamma Ray
NEU.V/V                                                  :     5  Neutron Porosity in Limestone Units
RES_DEP.OHMM                                             :     6  Resistivity Deep
~ASCII
# ...
 1041.8064     2.3627   548.6307    12.6632      .2490     1.6524
 1041.9588     2.3559   551.8740    12.7837      .2346     1.6240
 1042.1112     2.3366   548.4708    11.8388      .2296     1.5955
 1042.2636     2.3327   549.3011    11.3652      .2284     1.6269
 1042.4160     2.3166   551.8199    11.1222      .2310     1.6995
 1042.5684     2.3228   552.2371    12.7722      .2326     1.7664
 1042.7208     2.3841   550.3345    13.8333      .2332     1.8333
 1042.8732     2.3322   549.1959    14.8972      .2363     1.8107
 1043.0256     2.3355   548.6936    13.8372      .2344     1.6780
 1043.1780     2.3506   546.9010    13.1294      .2299     1.5371
 1043.3304     2.3659   545.1084    13.9659      .2314     1.3611
 1043.4828     2.3117   543.3158    14.5598      .2264     1.2694
 1043.6352     2.3049   541.5232    14.5598      .2229     1.1851
 1043.7876     2.3077   539.7306    11.8302      .2347     1.1445
 1043.9400     2.3302   537.9380    10.8742      .2427     1.1300
 1044.0924     2.3102   536.1454    11.8116      .2675     1.1344
 1044.2448     2.2635   534.3528    12.6366      .2825     1.1988
 1044.3972     2.2688   532.5602    12.6366      .3109     1.2868
 1044.5496     2.2960   530.7676    12.6389      .2816     1.3327
 1044.7020     2.3102   528.9750    12.5208      .2625     1.3825
 1044.8544     2.3413   527.1824    14.2949      .2430     1.4115
 1045.0068     2.3320   525.3898    13.9955      .2303     1.4238
 1045.1592     2.3295   523.5972    14.7354      .2322     1.4856
 1045.3116     2.3226   521.8046    13.6699      .2144     1.6599
 1045.4640     2.3237   519.2208    13.8489      .2107     1.9008
 1045.6164     2.3385   513.9726    15.5858      .1944     2.2278
 1045.7688     2.3398   509.2166    17.3543      .1738     2.3853
 1045.9212     2.3773   507.8485    18.6534      .1605     2.4198
 1046.0736     2.4166   498.7928    17.4730      .1538     2.3570
 1046.2260     2.3995   480.0294    15.8226      .1640     2.3164
 1046.3784     2.3847   468.6618    14.2852      .1561     2.4206
 1046.5308     2.3748   466.2649    12.7526      .1462     2.6813
 1046.6832     2.4258   466.2815    13.2250      .1433     3.1068
 1046.8356     2.4640   464.4060    14.0513      .1415     3.4440
 1046.9880     2.4478   459.6426    16.6494      .1404     3.6193
 1047.1404     2.5077   457.5160    20.8007      .1283     3.7511
 1047.2928     2.5329   449.9135    22.2172      .1157     3.8249
 1047.4452     2.5476   446.2371    21.9810      .1069     3.7005
 1047.5976     2.4764   452.4584    16.8849      .1070     3.7079
 1047.7500     2.4910   452.7142    14.6422      .1059     3.6633
 1047.9024     2.4578   451.8862    12.9843      .1052     3.4794
 1048.0548     2.4851   453.8104    13.2184      .1106     3.3825
 1048.2072     2.4568   452.4141    12.7463      .1118     3.4792
 1048.3596     2.4574   456.2262    12.5082      .1124     3.6391
 1048.5120     2.4700   461.0195    14.0343      .1143     3.9125
 1048.6644     2.4636   458.9378    14.1484      .1101     4.2495
 1048.8168     2.4652   453.0112    18.6167      .1088     4.1070
 1048.9692     2.4817   455.1021    22.5016      .1046     4.1225
 1049.1216     2.5028   462.4095    26.1461      .0970     4.4368
 1049.2740     2.5324   470.0096    23.1994      .0949     4.7629
 1049.4264     2.5904   473.1805    17.8958      .0935     5.5840
 1049.5788     2.5483   457.9164    14.9497      .0840     6.6548
 1049.7312     2.5552   441.1921    13.6528      .0739     7.2816
 1049.8836     2.4980   427.2142    14.3544      .0676     7.5484
 1050.0360     2.5185   411.1706    15.9592      .0689     7.6506
 1050.1884     2.5623   405.2258    17.8185      .0690     6.1788
 1050.3408     2.5244   411.7472    20.7906      .0713     4.2424
 1050.4932     2.5481   416.9447    26.1696      .0772     3.8306
 1050.6456     2.5456   423.9211    26.9184      .0847     3.8230
 1050.7980     2.5330   429.1519    24.6746      .1056     4.2867
 1050.9504     2.5126   419.0613    17.2365      .0966     5.9928
 1051.1028     2.4937   415.8643    15.0031      .0773     8.1744
 1051.2552     2.5612   416.7522    15.1671      .0603     8.0293
 1051.4076     2.5534   410.0994    16.3513      .0584     7.1698
 1051.5600     2.5527   405.7039    16.0013      .0573     6.3465
 1051.7124     2.5926   406.0976    15.7017      .0574     4.6589
 1051.8648     2.6174   404.8028    21.5051      .0619     3.6501
 1052.0172     2.6021   413.1992    27.4187      .0671     3.7736
 1052.1696     2.5637   430.9530    29.4588      .0873     4.1535
 1052.3220     2.5853   426.3651    23.0667      .1070     5.4615
 1052.4744     2.5384   414.8618    17.0371      .0928    10.3064
 1052.6268     2.5252   414.8379    13.9605      .0602    12.7256
 1052.7792     2.6216   419.6726    14.0812      .0409    12.2372
 1052.9316     2.6823   430.4534    16.0928      .0353     7.7125
 1053.0840     2.6774   437.8672    24.3758      .0388     3.6211
 1053.2364     2.5907   442.5780    32.0610      .0522     3.0537
 1053.3888     2.5334   450.2084    38.6077      .0742     3.0463
 1053.5412     2.4334   467.3217    33.5844      .1289     3.5549
 1053.6936     2.4882   476.9541    26.0201      .0873     6.5014
 1053.8460     2.6350   476.0516    18.5421      .0456    14.7634
 1053.9984     2.6509   478.0231    16.7023      .0264    18.4159
 1054.1508     2.5917   470.9006    15.6368      .0268    17.3742
 1054.3032     2.6883   451.7634    14.9400      .0241    11.2169
 1054.4556     2.6766   443.2370    17.0739      .0280     6.5916
 1054.6080     2.6194   435.9524    25.2426      .0382     3.6955
 1054.7604     2.5898   445.2679    32.3138      .0585     3.5827
 1054.9128     2.5293   441.0399    31.8402      .1070     3.6688
 1055.0652     2.5472   423.4475    24.7346      .1494     7.9628
 1055.2176     2.6433   419.0086    17.0432      .1045    14.2459
 1055.3700     2.6345   417.9473    14.6755      .0537    10.9337
 1055.5224     2.6259   416.8860    17.1641      .0347     5.1569
 1055.6748     2.6171   415.8247    25.3348      .0398     3.5103
 1055.8272     2.5417   414.7634    31.2541      .0641     3.5506
 1055.9796     2.3509   413.7021    27.9414      .1175     4.0870
 1056.1320     2.4247   412.6407    19.7727      .1246    10.6729
 1056.2844     2.6462   411.5794    11.9609      .0639    30.1104
 1056.4368     2.7293   410.5181    13.6191      .0272    18.2122
 1056.5892     2.6934   409.4568    17.2852      .0148     5.8694
 1056.7416     2.6550   408.3955    27.1682      .0238     2.6302
 1056.8940     2.5696   409.4315    34.9138      .0503     2.3433
 1057.0464     2.3072   413.0892    34.7149      .1299     2.5422
 1057.1988     2.3214   416.7469    27.9738      .2166     4.4212
 1057.3512     2.4943   421.1278    18.5846      .1698    12.8110
 1057.5036     2.6866   427.5174    16.0850      .0577    18.3174
 1057.6560     2.6515   426.0240    16.5170      .0253     6.6297
 1057.8084     2.6385   421.7406    22.0981      .0224     3.3129
 1057.9608     2.6042   415.3475    29.3419      .0455     1.8242
 1058.1132     2.5063   416.3152    36.2319      .1021     1.4989
 1058.2656     2.3786   430.7956    42.4091      .1917     1.3810
 1058.4180     2.4185   430.3361    43.9683      .2540     1.4017
 1058.5704     2.5094   436.4923    45.1636      .3400     1.2899
 1058.7228     2.5880   449.0601    46.4788      .3301     1.0102
 1058.8752     2.5331   451.7087    48.2458      .3579      .9080
 1059.0276     1.7526   446.3387    50.0797      .4048      .8384
 1059.1800     1.7937   450.1566    50.4363      .4938      .8880
 1059.3324     1.9750   450.9182    48.1792      .4655     1.0475
 1059.4848     2.3199   457.0341    42.8987      .4257     1.3123
 1059.6372     2.5238   457.5840    38.5541      .3636     1.3603
 1059.7896     2.6017   457.8878    37.6037      .3568     1.5246
 1059.9420     2.6467   457.9072    39.0235      .3195     1.3932
 1060.0944     2.6551   437.8132    42.4173      .3063     1.2461
 1060.2468     2.4939   411.2300    46.9314      .2828     1.4074
