~VERSION INFORMATION
VERS.                                                 2.0:   CWLS Log ASCII Standard-VERSION 2.0
WRAP.                                                  NO:   One line per depth step
~Well Information Block
STRT.M                                              .6096:   Top Depth
STOP.M                                          1141.9332:   Bottom Depth
STEP.M                                             .15240:   Depth Increment
NULL.                                            -999.250:   Null Value
FLD .                                               NATIH:   Field Name
WELL.                                          NATIH-85H1:   NAME
EDF .                                              214.53:   ELEV DRILL FLOOR
EPD .                                                   0:   ELEV PERM DATUM
EGL .                                              209.96:   GROUND LEVEL
COMP.                          PETROLEUM DEVELOPMENT OMAN:   OPERATOR
PDAT.                                                 MSL:   PERM DATUM
COUN.                                             RIG05_3:   RIG NAME
SPUD.                                          1990/12/20:   SPUD DATE
LATI.                                         22.42686054:   SURF. LATITUDE
LONG.                                         56.67231194:   SURF. LONGITUDE
UTME.                                           466276.93:   SURF. UTM E
UTMN.                                          2479903.71:   SURF. UTM N
~PARAMETER INFORMATION (log)
LNAM.                                              PUBLIC:   NAME
LTYP.                                              JOINED:   LOG TYPE
LSRV.                                            CLEAN UP:   SERVICE
LSOU.                                               FUGRO:   LOG SOURCE
LVSN.                                                   1:   LOG VERSION
BHIS.                                                   R:   BRIEF HISTORY
TDD .M                                            1165.00:   FINAL TD DRILLER
TDL .M                                            1151.00:   FINAL TD LOGGER
FHIS.                                             RAW-LAS:   FULL HISTORY
~Curve Information Block
#MNEM.UNIT                                        API CODE    No Description
#=========                                        ========    == ===========
DEPT.M                                       00 001 00 00:     1  DEPTH
DEN.G/CC                                                 :     2  Bulk Density
DT.US/M                                                  :     3  Acoustic log
GR.API                                                   :     4  Gamma Ray
NEU.V/V                                                  :     5  Neutron Porosity in Limestone Units
RES_DEP.OHMM                                             :     6  Resistivity Deep
~ASCII
# ...
  930.2496     2.1567   461.0226     5.4815      .3081    37.1041
  930.4020     2.1388   470.0237     4.9660      .2872    36.6718
  930.5544     2.1292   472.3156     5.2033      .3107    36.0661
  930.7068     2.1642   476.0825     5.7947      .3073    36.2038
  930.8592     2.1869   478.4235     7.3315      .3325    35.7895
  931.0116     2.1893   479.7548     6.7407      .3138    35.4241
  931.1640     2.1740   467.4763     6.9773      .2910    34.7269
  931.3164     2.2012   436.0043     6.5926      .2642    33.4820
  931.4688     2.2139   417.7997     8.3690      .2501    32.2788
  931.6212     2.2675   407.3333     9.3183      .2310    31.2536
  931.7736     2.2723   405.4108     8.4047      .2219    31.2228
  931.9260     2.2703   405.6742     6.9833      .2330    31.6787
  932.0784     2.2665   407.0032     5.8004      .2386    30.5094
  932.2308     2.2466   409.9071     5.7983      .2502    29.0606
  932.3832     2.1965   410.7292     7.0956      .2681    27.1767
  932.5356     2.1853   410.2140     7.2345      .2900    25.7680
  932.6880     2.1539   411.2378     7.2355      .3047    25.1370
  932.8404     2.1851   416.2287     7.0005      .3020    24.8261
  932.9928     2.2458   423.1287     7.6852      .2867    23.9621
  933.1452     2.2825   424.4761     6.8573      .2650    23.4333
  933.2976     2.3118   432.3495     6.7417      .2278    23.6975
  933.4500     2.3174   448.3802     6.9796      .2097    24.6733
  933.6024     2.2983   460.5573     7.8075      .2116    26.0071
  933.7548     2.3013   467.9174     7.6867      .2206    26.8925
  933.9072     2.2868   469.2659     6.0059      .2313    26.1050
  934.0596     2.2584   466.4626     5.6511      .2284    24.3605
  934.2120     2.2995   467.8625     6.0071      .2362    23.6482
  934.3644     2.3120   463.2312     7.2136      .2306    23.4022
  934.5168     2.3576   452.4412     8.0428      .2175    22.6540
  934.6692     2.3460   450.4297     7.8049      .2009    22.0703
  934.8216     2.3331   457.2018     7.3331      .1976    21.6063
  934.9740     2.3239   474.4909     6.9770      .2010    21.4117
  935.1264     2.3665   490.8241     6.8600      .1932    21.3783
  935.2788     2.3432   486.1347     8.7807      .1747    21.6358
  935.4312     2.3044   487.0652     9.6011      .1709    21.2576
  935.5836     2.2104   493.5767    10.5406      .1835    19.9664
  935.7360     2.1816   492.9685     8.8507      .1898    19.0046
  935.8884     2.1305   494.3909     8.3788      .2027    18.5687
  936.0408     2.3222   496.6747     8.1396      .1610    17.9280
  936.1932     2.3392   495.4632     8.8475      .1568    17.0309
  936.3456     2.2057   497.6399     9.2843      .1672    16.3901
  936.4980     2.0882   509.8764     8.9291      .1782    15.5673
  936.6504     2.1228   514.1909     8.5659      .2025    15.3445
  936.8028     2.3226   505.9324     7.7785      .2325    16.3053
  936.9552     2.2817   491.8142     7.5491      .2196    17.8723
  937.1076     2.2870   477.9763     6.8534      .1803    19.3762
  937.2600     2.3254   468.4287     7.5608      .1734    20.0622
  937.4124     2.3053   461.8573     9.5672      .1684    20.0055
  937.5648     2.2865   458.6875     9.2128      .1570    19.4939
  937.7172     2.2575   454.3062     9.3324      .1579    18.6643
  937.8696     2.2724   453.6127     6.6170      .1676    18.5038
  938.0220     2.3390   455.1414     7.1130      .1797    19.1914
  938.1744     2.3340   459.4625     6.4030      .1783    19.5000
  938.3268     2.3722   478.9352     7.3454      .1800    19.7446
  938.4792     2.3387   496.3527     7.6741      .1865    19.9246
  938.6316     2.3722   499.3511     7.6741      .1659    19.3414
  938.7840     2.4201   483.3208     7.1166      .1515    19.0789
  938.9364     2.4260   466.6815     7.3540      .1469    18.8867
  939.0888     2.4419   471.8541     9.7160      .1500    18.7546
  939.2412     2.4290   465.3431    11.2196      .1455    18.6162
  939.3936     2.4281   456.7450    11.5739      .1482    18.4804
  939.5460     2.4267   462.6707     9.9191      .1527    18.5666
  939.6984     2.3970   472.6720     8.8575      .1554    18.7111
  939.8508     2.3727   476.6387     8.2670      .1577    18.7902
  940.0032     2.3957   479.4273     7.3227      .1599    18.1885
  940.1556     2.3919   478.9475     8.4015      .1770    17.4628
  940.3080     2.4016   465.8850     8.5183      .1911    17.3400
  940.4604     2.3980   457.7142     9.5807      .1970    17.5603
  940.6128     2.4144   454.3696     8.6187      .1840    18.2174
  940.7652     2.3990   456.8119     8.3837      .1833    18.7586
  940.9176     2.3921   470.7183     7.2043      .1727    19.2987
  941.0700     2.4181   482.4845     5.7878      .1619    19.9469
  941.2224     2.4083   474.5138     6.0240      .1533    20.6577
  941.3748     2.4172   463.1655     6.6738      .1601    21.2714
  941.5272     2.4169   462.6963     8.4462      .1693    21.9317
  941.6796     2.3824   463.4565     9.0382      .1677    22.4349
  941.8320     2.4044   458.5161     8.9117      .1613    22.8630
  941.9844     2.3944   457.9834     7.4929      .1486    23.1573
  942.1368     2.3585   461.9447     5.9569      .1443    23.4357
  942.2892     2.3680   456.9792     6.1436      .1429    23.3116
  942.4416     2.3459   447.1300     7.5607      .1553    22.1763
  942.5940     2.3778   445.7015     9.0952      .1569    21.0002
  942.7464     2.4021   441.5624    10.6271      .1455    20.0057
  942.8988     2.4139   436.6923    11.4518      .1321    19.3878
  943.0512     2.4258   433.3402    12.3084      .1236    19.4374
  943.2036     2.3897   433.1818    11.7182      .1298    20.3692
  943.3560     2.3678   441.0029    10.5323      .1257    22.6520
  943.5084     2.3734   456.5136    10.0231      .1158    25.1268
  943.6608     2.3625   458.8067    10.4993      .1058    27.0650
  943.8132     2.3830   449.0901    10.6286      .0950    29.9461
  943.9656     2.4017   442.9958     9.6932      .1013    30.8227
  944.1180     2.3321   436.2755     7.4594      .1112    26.8683
  944.2704     2.3994   435.2610     7.8288      .1279    24.4752
  944.4228     2.4540   434.5500     8.4355      .1205    22.7671
  944.5752     2.4200   437.6466    10.0977      .1193    22.2164
  944.7276     2.3073   440.8253    10.0993      .1182    23.8962
  944.8800     2.3115   442.6483    11.0517      .1163    25.6162
  945.0324     2.2424   441.5986    10.8174      .1088    27.0098
  945.1848     2.3510   437.0421    10.2218      .1087    26.3716
  945.3372     2.4888   427.3199     9.3898      .1125    22.9848
  945.4896     2.4874   419.0063     9.5071      .0943    21.8482
  945.6420     2.4694   420.8992    11.1723      .0813    22.7147
  945.7944     2.4585   419.7764    11.7685      .0773    22.5035
  945.9468     2.4587   419.3751    13.3160      .0842    22.7978
  946.0992     2.3493   426.8341    14.0291      .0780    24.2974
  946.2516     2.1831   434.3044    15.3371      .0707    23.9524
  946.4040     2.3015   432.3365    15.3347      .0850    23.2692
  946.5564     2.4180   429.2365    15.8128      .0869    24.4092
  946.7088     2.4201   435.1213    15.0993      .0814    24.9446
  946.8612     2.4828   442.6411    14.8640      .0519    26.2975
  947.0136     2.4902   443.5888    13.5560      .0422    27.4176
  947.1660     2.5019   432.9336    13.5560      .0415    27.2053
  947.3184     2.4878   435.0047    13.7962      .0531    26.2038
  947.4708     2.5813   444.8426    14.5097      .0664    24.5020
  947.6232     2.5231   434.3064    16.5344      .0780    23.4729
  947.7756     2.4620   428.7010    18.0777      .0868    22.4547
  947.9280     2.5014   441.5222    18.6897      .0895    22.1761
  948.0804     2.4936   447.5973    17.8569      .0953    21.7335
  948.2328     2.4632   448.2327    16.0733      .1019    21.0505
  948.3852     2.4762   449.4911    14.6310      .1070    21.3626
  948.5376     2.4928   451.9402    11.7744      .1065    22.3546
  948.6900     2.4295   447.4376    11.7767      .1044    24.1555
