~VERSION INFORMATION
VERS.                                                 2.0:   CWLS Log ASCII Standard-VERSION 2.0
WRAP.                                                  NO:   One line per depth step
~Well Information Block
STRT.M                                            15.0876:   Top Depth
STOP.M                                           669.0360:   Bottom Depth
STEP.M                                             .15240:   Depth Increment
NULL.                                            -999.250:   Null Value
FLD .                                               NATIH:   Field Name
WELL.                                      NATIH WSW-13H1:   NAME
EDF .                                              231.32:   ELEV DRILL FLOOR
EPD .                                                   0:   ELEV PERM DATUM
EGL .                                              226.75:   GROUND LEVEL
COMP.                          Petroleum Development Oman:   OPERATOR
PDAT.                                                 MSL:   PERM DATUM
COUN.                                             RIG05_1:   RIG NAME
SPUD.                                          1980/03/02:   SPUD DATE
LATI.                                         22.46529137:   SURF. LATITUDE
LONG.                                         56.71960289:   SURF. LONGITUDE
UTME.                                           471151.72:   SURF. UTM E
UTMN.                                          2484147.59:   SURF. UTM N
~PARAMETER INFORMATION (log)
LNAM.                                              PUBLIC:   NAME
LTYP.                                              JOINED:   LOG TYPE
LSRV.                                            CLEAN UP:   SERVICE
LSOU.                                              TARGET:   LOG SOURCE
LVSN.                                                   1:   LOG VERSION
BHIS.                                                   R:   BRIEF HISTORY
TDD .M                                             694.94:   FINAL TD DRILLER
TDL .M                                             665.68:   FINAL TD LOGGER
FHIS.                                             RAW-LAS:   FULL HISTORY
~Curve Information Block
#MNEM.UNIT                                        API CODE    No Description
#=========                                        ========    == ===========
DEPT.M                                       00 001 00 00:     1  DEPTH
DEN.G/C3                                                 :     2  Bulk Density
DT.US/M                                                  :     3  Sonic (Compressional)
GR.API                                                   :     4  Gamma Ray
NEU.V/V                                                  :     5  Neutron Porosity in Limestone Units
RES_DEP.OHMM                                             :     6  Resistivity Deep
~ASCII
# ...
  554.2788  -999.2500   334.6870    37.8190      .2730    10.1860
  554.4312  -999.2500   332.9500    40.3200      .2920    10.4710
  554.5836  -999.2500   343.3710    43.6220      .3160    10.1860
  554.7360  -999.2500   350.3280    45.7230      .3200     9.4620
  554.8884  -999.2500   346.8270    46.6230      .2970     8.7900
  555.0408  -999.2500   338.8730    48.4240      .3050     8.4720
  555.1932  -999.2500   340.8390    54.8270      .3530     8.4720
  555.3456  -999.2500   358.4800    57.8290      .4160     8.3950
  555.4980  -999.2500   362.3310    55.5280      .4340     8.5510
  555.6504  -999.2500   336.9300    52.8260      .3780     9.0360
  555.8028  -999.2500   315.6180    52.0260      .3220     9.8170
  555.9552  -999.2500   311.9420    49.2250      .3110    11.6950
  556.1076  -999.2500   314.8190    42.3210      .2620    12.5890
  556.2600  -999.2500   304.5290    34.1170      .1700    12.1340
  556.4124  -999.2500   271.9360    32.1160      .1390    12.8230
  556.5648  -999.2500   239.5340    34.5170      .1550    14.5880
  556.7172  -999.2500   233.2060    36.9180      .1960    15.1360
  556.8696  -999.2500   254.0040    39.8200      .2580    13.6770
  557.0220  -999.2500   283.3980    42.5210      .3140    12.1340
  557.1744  -999.2500   303.6330    44.9230      .3260    10.7650
  557.3268  -999.2500   318.8240    46.9230      .3340    10.0930
  557.4792  -999.2500   343.7470    49.7250      .3840    10.3750
  557.6316  -999.2500   383.3060    45.2230      .4210    10.5680
  557.7840  -999.2500   408.8860    38.5190      .3910    10.1860
  557.9364  -999.2500   384.7100    34.2170      .2910    10.2800
  558.0888  -999.2500   332.9160    36.5180      .2590    11.2720
  558.2412  -999.2500   295.6970    38.2190      .3050    12.7060
  558.3936  -999.2500   292.4270    36.4180      .3270    13.8040
  558.5460  -999.2500   300.0280    34.8170      .2850    14.4540
  558.6984  -999.2500   291.4900    33.3170      .2380    14.5880
  558.8508  -999.2500   286.1360    34.0170      .2430    14.4540
  559.0032  -999.2500   291.1060    35.4180      .2880    14.7230
  559.1556  -999.2500   303.3060    38.3190      .2990    14.9970
  559.3080  -999.2500   320.7010    39.8200      .2940    14.8590
  559.4604  -999.2500   331.3290    40.1200      .3190    14.9970
  559.6128  -999.2500   336.2570    38.2190      .3120    15.1360
  559.7652  -999.2500   335.1280    37.6190      .3090    14.7230
  559.9176  -999.2500   321.8640    37.1180      .3070    14.7230
  560.0700  -999.2500   307.6990    36.3180      .2960    14.9970
  560.2224  -999.2500   298.5320    37.1180      .2730    15.4170
  560.3748  -999.2500   293.3180    38.9190      .2710    15.9960
  560.5272  -999.2500   287.3350    40.1200      .2750    17.7010
  560.6796  -999.2500   282.2470    40.1200      .2640    18.1970
  560.8320  -999.2500   288.1120    40.7200      .2440    17.8650
  560.9844  -999.2500   291.5780    39.1200      .2370    18.3650
  561.1368  -999.2500   283.9290    35.3180      .2180    18.1970
  561.2892  -999.2500   272.7700    34.5170      .2090    17.7010
  561.4416  -999.2500   264.3380    32.6160      .2220    17.3780
  561.5940  -999.2500   264.3880    31.3160      .2600    17.8650
  561.7464  -999.2500   278.6170    30.3150      .2980    17.3780
  561.8988  -999.2500   300.7850    32.9170      .3060    15.7040
  562.0512  -999.2500   312.5530    31.3160      .2800    14.7230
  562.2036  -999.2500   311.7010    33.2170      .2550    14.3220
  562.3560  -999.2500   315.1570    35.7180      .2790    14.3220
  562.5084  -999.2500   325.6490    36.6180      .3260    14.8590
  562.6608  -999.2500   334.9660    34.1170      .3160    15.5600
  562.8132  -999.2500   335.9060    33.2170      .2850    15.4170
  562.9656  -999.2500   313.0540    32.5160      .2830    15.4170
  563.1180  -999.2500   281.6710    34.1170      .2620    15.9960
  563.2704  -999.2500   279.2290    36.2180      .2470    15.7040
  563.4228  -999.2500   284.1530    39.0200      .2740    15.7040
  563.5752  -999.2500   279.8460    39.5200      .2960    15.4170
  563.7276  -999.2500   280.8970    41.2210      .2970    14.8590
  563.8800  -999.2500   292.4300    41.2210      .2880    14.3220
  564.0324  -999.2500   308.8110    41.5210      .2930    14.1910
  564.1848  -999.2500   318.2380    39.9200      .3120    14.5880
  564.3372  -999.2500   316.5270    38.6190      .3190    14.7230
  564.4896  -999.2500   308.4240    36.3180      .3060    14.8590
  564.6420  -999.2500   297.6580    34.4170      .2690    14.8590
  564.7944  -999.2500   283.0780    31.9160      .2470    14.5880
  564.9468  -999.2500   271.2970    28.4140      .2330    14.7230
  565.0992  -999.2500   268.5260    28.2140      .2360    14.7230
  565.2516  -999.2500   275.1770    30.2150      .2690    14.7230
  565.4040  -999.2500   288.7560    34.0170      .2990    14.8590
  565.5564  -999.2500   301.3140    38.3190      .3080    13.6770
  565.7088  -999.2500   308.3480    44.6220      .3060    12.5890
  565.8612  -999.2500   314.3060    49.6250      .3220    11.9120
  566.0136  -999.2500   320.3260    54.8270      .3650    12.0230
  566.1660  -999.2500   327.8260    56.9290      .3600    12.3590
  566.3184  -999.2500   335.1670    56.5280      .3470    12.4740
  566.4708  -999.2500   335.1740    56.3280      .3520    12.7060
  566.6232  -999.2500   330.2690    54.5270      .3430    13.1830
  566.7756  -999.2500   324.4320    55.9280      .3290    13.6770
  566.9280  -999.2500   320.7690    58.4290      .3180    14.0600
  567.0804  -999.2500   318.4290    57.9290      .3240    14.4540
  567.2328  -999.2500   313.2360    52.4260      .3020    14.9970
  567.3852  -999.2500   310.3160    48.9240      .2650    15.8490
  567.5376  -999.2500   310.4140    45.6230      .2870    17.3780
  567.6900  -999.2500   314.4380    45.5230      .3110    19.2310
  567.8424  -999.2500   320.6370    46.8230      .3060    19.9530
  567.9948  -999.2500   313.6200    45.7230      .2590    19.7700
  568.1472  -999.2500   291.6080    43.6220      .1950    19.2310
  568.2996  -999.2500   266.8100    42.8210      .1760    19.7700
  568.4520  -999.2500   251.7440    42.0210      .2060    21.2810
  568.6044  -999.2500   254.6490    39.0200      .2440    22.2840
  568.7568  -999.2500   268.6450    36.5180      .2660    21.6770
  568.9092  -999.2500   281.2910    33.9170      .2520    20.7010
  569.0616  -999.2500   288.8440    35.0180      .2380    19.4090
  569.2140  -999.2500   293.5420    36.0180      .2360    17.8650
  569.3664  -999.2500   293.1280    38.1190      .2590    17.5390
  569.5188  -999.2500   291.3740    41.6210      .2640    17.2190
  569.6712  -999.2500   299.4660    43.5220      .2760    15.9960
  569.8236  -999.2500   315.9420    42.5210      .3030    15.8490
  569.9760  -999.2500   329.9900    42.9210      .3060    16.1440
  570.1284  -999.2500   341.6240    42.3210      .2950    15.2760
  570.2808  -999.2500   352.7150    41.5210      .3150    14.7230
  570.4332  -999.2500   353.3880    41.9210      .3450    14.4540
  570.5856  -999.2500   349.2140    43.4220      .3500    14.3220
  570.7380  -999.2500   347.3990    44.7220      .3500    14.1910
  570.8904  -999.2500   345.4630    46.0230      .3580    14.0600
  571.0428  -999.2500   346.6560    45.7230      .3530    13.6770
  571.1952  -999.2500   350.1640    47.8240      .3260    13.0620
  571.3476  -999.2500   353.7630    51.3260      .3170    12.2460
  571.5000  -999.2500   350.4130    53.5270      .3350    11.4820
  571.6524  -999.2500   341.0710    57.5290      .3460    11.2720
  571.8048  -999.2500   347.7860    61.2310      .3660    11.3760
  571.9572  -999.2500   370.3100    63.2320      .3940    11.5880
  572.1096  -999.2500   381.6500    56.4280      .4010    11.9120
  572.2620  -999.2500   370.8060    44.5220      .3340    12.2460
  572.4144  -999.2500   341.9360    38.0190      .2550    12.7060
  572.5668  -999.2500   304.4060    36.8180      .2390    14.3220
  572.7192  -999.2500   281.6590    36.4180      .2530    16.9040
