~VERSION INFORMATION
VERS.                                                 2.0:   CWLS Log ASCII Standard-VERSION 2.0
WRAP.                                                  NO:   One line per depth step
~Well Information Block
STRT.M                                            15.0876:   Top Depth
STOP.M                                           669.0360:   Bottom Depth
STEP.M                                             .15240:   Depth Increment
NULL.                                            -999.250:   Null Value
FLD .                                               NATIH:   Field Name
WELL.                                      NATIH WSW-13H1:   NAME
EDF .                                              231.32:   ELEV DRILL FLOOR
EPD .                                                   0:   ELEV PERM DATUM
EGL .                                              226.75:   GROUND LEVEL
COMP.                          Petroleum Development Oman:   OPERATOR
PDAT.                                                 MSL:   PERM DATUM
COUN.                                             RIG05_1:   RIG NAME
SPUD.                                          1980/03/02:   SPUD DATE
LATI.                                         22.46529137:   SURF. LATITUDE
LONG.                                         56.71960289:   SURF. LONGITUDE
UTME.                                           471151.72:   SURF. UTM E
UTMN.                                          2484147.59:   SURF. UTM N
~PARAMETER INFORMATION (log)
LNAM.                                              PUBLIC:   NAME
LTYP.                                              JOINED:   LOG TYPE
LSRV.                                            CLEAN UP:   SERVICE
LSOU.                                              TARGET:   LOG SOURCE
LVSN.                                                   1:   LOG VERSION
BHIS.                                                   R:   BRIEF HISTORY
TDD .M                                             694.94:   FINAL TD DRILLER
TDL .M                                             665.68:   FINAL TD LOGGER
FHIS.                                             RAW-LAS:   FULL HISTORY
~Curve Information Block
#MNEM.UNIT                                        API CODE    No Description
#=========                                        ========    == ===========
DEPT.M                                       00 001 00 00:     1  DEPTH
DEN.G/C3                                                 :     2  Bulk Density
DT.US/M                                                  :     3  Sonic (Compressional)
GR.API                                                   :     4  Gamma Ray
NEU.V/V                                                  :     5  Neutron Porosity in Limestone Units
RES_DEP.OHMM                                             :     6  Resistivity Deep
~ASCII
# ...
  238.2012     2.2350   361.8720    15.3940      .4340     5.2660
  238.3536     2.2160   369.9560    14.6940      .4520     5.4130
  238.5060     2.2550   367.4370    14.4940      .4550     6.3920
  238.6584     2.2640   353.6070    14.9940      .4620     6.8810
  238.8108     2.2760   333.9330    15.6940      .4590     6.5710
  238.9632     2.2990   314.5510    16.8950      .4370     7.6170
  239.1156     2.3300   300.3990    16.2950      .4030     8.7480
  239.2680     2.3400   292.8960    15.7950      .3830     9.5050
  239.4204     2.3100   291.4630    15.9950      .3850    10.2330
  239.5728     2.3010   293.7590    16.1950      .3670    11.0170
  239.7252     2.3250   297.1640    16.0950      .3580    11.4320
  239.8776     2.3450   298.6630    15.8950      .3540    11.7530
  240.0300     2.3520   298.8680    15.7950      .3680    11.7530
  240.1824     2.3120   298.5850    15.7950      .3600    12.3080
  240.3348     2.3320   293.8390    16.1950      .3550    13.7490
  240.4872     2.3570   285.8800    15.6940      .3660    16.2340
  240.6396     2.3880   275.8000    14.9940      .3710    18.1350
  240.7920     2.4210   262.3350    14.9940      .3680    19.7060
  240.9444     2.4400   249.6380    14.6940      .3510    20.6360
  241.0968     2.4570   241.7150    14.3940      .3350    18.9910
  241.2492     2.4650   239.3150    14.0930      .3230    16.2340
  241.4016     2.4340   242.9850    13.3930      .3210    13.6230
  241.5540     2.3820   254.4800    12.9930      .3300    11.8620
  241.7064     2.3380   272.9710    14.2930      .3470     9.8630
  241.8588     2.2910   293.5750    16.0950      .3680     8.1250
  242.0112     2.2360   314.8900    18.1960      .4030     7.2730
  242.1636     2.1990   338.0120    19.8970      .4260     6.4510
  242.3160     2.1770   361.7590    21.6990      .4360     5.8820
  242.4684     2.1280   385.3050    23.1000      .4690     5.6170
  242.6208     2.0690   405.9030    25.1010      .4740     5.3640
  242.7732     2.0480   420.0690    26.4020      .4680     5.1690
  242.9256     2.0380   428.2450    28.5040      .4560     4.9820
  243.0780     2.0400   433.5230    28.7040      .4580     4.7570
  243.2304     2.0310   436.8200    29.6040      .4600     4.7140
  243.3828     2.0330   438.2920    28.1030      .4640     4.7570
  243.5352     2.0330   438.8160    26.8020      .4720     4.7140
  243.6876     2.0260   435.0640    28.2040      .4690     4.7140
  243.8400     2.0490   415.2540    27.7030      .4530     4.7570
  243.9924     2.0250   381.1820    27.9030      .4570     4.7140
  244.1448     1.9900   358.6020    28.4040      .4470     4.8010
  244.2972     1.9790   350.2880    28.5040      .4570     4.7140
  244.4496     1.9700   341.5200    28.4040      .4740     4.6700
  244.6020     1.9840   329.1700    27.2030      .4780     4.7140
  244.7544     1.9970   325.8900    25.8020      .4700     4.8460
  244.9068     1.9690   333.4700    25.2010      .4810     5.1690
  245.0592     1.9760   335.2900    25.8020      .4540     5.7220
  245.2116     1.9600   327.0480    27.8030      .4470     6.5710
  245.3640     1.9630   315.5980    27.5030      .4360     7.2730
  245.5164     1.9690   305.9740    28.1030      .4350     7.7590
  245.6688     1.9260   297.7810    27.6030      .4330     7.5470
  245.8212     2.0010   290.4760    27.6030      .4400     7.1400
  245.9736     2.0610   292.7780    26.8020      .4550     7.1400
  246.1260     2.0570   302.0530    26.6020      .4600     6.8810
  246.2784     2.0150   301.0520    25.9020      .4690     6.9450
  246.4308     1.9890   293.8990    23.8000      .4770     7.0100
  246.5832     1.9050   304.6300    23.3000      .4990     6.6940
  246.7356     1.8480   337.0250    22.5990      .5390     6.5710
  246.8880     1.8070   376.1330    22.1990      .5570     6.2170
  247.0404     1.7910   410.7240    23.0000      .5460     5.8820
  247.1928     1.7910   430.8330    25.0010      .5210     6.0470
  247.3452     1.8480   436.5250    26.4020      .5040     6.5710
  247.4976     1.9250   428.7430    27.2030      .4930     7.0100
  247.6500     1.9850   401.9600    26.2020      .4840     7.9030
  247.8024     1.9970   363.8770    24.8010      .4650     8.9930
  247.9548     2.0100   337.1660    23.9000      .4550     8.9930
  248.1072     2.0470   322.2000    22.9000      .4580     8.9930
  248.2596     2.0820   311.0390    22.1990      .4580     8.7480
  248.4120     2.1120   305.9230    22.4990      .4500     8.5090
  248.5644     2.0660   307.9200    21.6990      .4480     8.1250
  248.7168     2.0430   314.2350    20.9980      .4440     7.6870
  248.8692     2.0530   323.9420    20.1980      .4450     7.5470
  249.0216     2.0520   338.0380    19.0970      .4500     7.3410
  249.1740     2.0250   354.2450    19.4970      .4600     7.0100
  249.3264     2.0240   365.5640    19.5970      .4770     6.8810
  249.4788     2.0290   368.2320    19.8970      .4830     6.9450
  249.6312     2.0260   366.9020    21.3990      .4770     7.1400
  249.7836     2.0530   371.8710    19.8970      .4900     7.5470
  249.9360     2.0620   388.6030    17.6960      .5070     8.4310
  250.0884     2.0630   405.1940    15.4940      .5100     8.9930
  250.2408     2.0860   407.6740    13.6930      .5040     9.1610
  250.3932     2.1140   400.6800    13.5930      .4960     9.4180
  250.5456     2.1340   393.7510    12.6920      .4810     9.8630
  250.6980     2.1420   390.3590    12.0920      .4470    10.2330
  250.8504     2.1370   389.3490    11.8920      .4370    10.3280
  251.0028     2.1240   385.8370    12.2920      .4120    10.2330
  251.1552     2.1110   378.9030    12.7920      .4320     9.8630
  251.3076     2.0870   374.7190    13.0930      .4480     9.3310
  251.4600     2.0730   372.8590    13.0930      .4600     8.8290
  251.6124     2.0640   369.7240    11.9920      .4600     8.2000
  251.7648     2.0900   364.8380    12.1920      .4610     7.8310
  251.9172     2.0810   356.5080    12.0920      .4780     7.6870
  252.0696     2.0480   342.6110    12.4920      .5010     7.6170
  252.2220     2.0320   335.0600    13.2930      .5020     7.4090
  252.3744     2.0410   344.8860    13.3930      .4930     7.4770
  252.5268     2.0400   358.5680    13.6930      .4840     7.4770
  252.6792     2.0480   366.7720    12.8920      .4650     7.4090
  252.8316     2.0620   367.0270    12.8920      .4530     7.4770
  252.9840     2.0730   361.0570    13.3930      .4530     7.8310
  253.1364     2.0900   354.8500    13.7930      .4470     8.2000
  253.2888     2.1020   349.9630    12.8920      .4390     8.4310
  253.4412     2.0950   346.3610    13.2930      .4500     8.5870
  253.5936     2.1090   346.2880    14.0930      .4570     8.5090
  253.7460     2.1390   349.3710    16.0950      .4700     8.1250
  253.8984     2.1440   354.4650    16.2950      .4650     7.6870
  254.0508     2.1580   362.0100    17.0960      .4750     7.3410
  254.2032     2.1620   369.7480    17.2960      .4950     7.0750
  254.3556     2.1530   377.0810    17.2960      .5000     6.8180
  254.5080     2.1340   389.4330    16.2950      .4820     6.6940
  254.6604     2.1290   403.9470    15.8950      .4630     6.4510
  254.8128     2.1310   404.5320    15.6940      .4570     6.1600
  254.9652     2.1150   392.5260    16.4950      .4710     5.9370
  255.1176     2.1020   384.7170    17.6960      .4920     5.6170
  255.2700     2.1000   383.9120    17.9960      .5000     5.2660
  255.4224     2.0930   384.8030    17.6960      .5120     5.0280
  255.5748     2.0890   385.4040    18.3960      .4950     4.8010
  255.7272     2.0800   385.3460    19.5970      .4860     4.5850
  255.8796     2.0700   383.8560    20.1980      .4930     4.5010
  256.0320     2.0770   380.3690    20.0980      .4890     4.4190
  256.1844     2.0730   375.0780    19.0970      .5000     4.3780
  256.3368     2.0640   369.3040    18.7970      .4910     4.3380
  256.4892     2.0740   365.1960    17.6960      .4510     4.2980
  256.6416     2.0930   363.8960    17.9960      .4470     4.2980
