~VERSION INFORMATION
VERS.                                                 2.0:   CWLS Log ASCII Standard-VERSION 2.0
WRAP.                                                  NO:   One line per depth step
~Well Information Block
STRT.M                                            15.0876:   Top Depth
STOP.M                                           669.0360:   Bottom Depth
STEP.M                                             .15240:   Depth Increment
NULL.                                            -999.250:   Null Value
FLD .                                               NATIH:   Field Name
WELL.                                      NATIH WSW-13H1:   NAME
EDF .                                              231.32:   ELEV DRILL FLOOR
EPD .                                                   0:   ELEV PERM DATUM
EGL .                                              226.75:   GROUND LEVEL
COMP.                          Petroleum Development Oman:   OPERATOR
PDAT.                                                 MSL:   PERM DATUM
COUN.                                             RIG05_1:   RIG NAME
SPUD.                                          1980/03/02:   SPUD DATE
LATI.                                         22.46529137:   SURF. LATITUDE
LONG.                                         56.71960289:   SURF. LONGITUDE
UTME.                                           471151.72:   SURF. UTM E
UTMN.                                          2484147.59:   SURF. UTM N
~PARAMETER INFORMATION (log)
LNAM.                                              PUBLIC:   NAME
LTYP.                                              JOINED:   LOG TYPE
LSRV.                                            CLEAN UP:   SERVICE
LSOU.                                              TARGET:   LOG SOURCE
LVSN.                                                   1:   LOG VERSION
BHIS.                                                   R:   BRIEF HISTORY
TDD .M                                             694.94:   FINAL TD DRILLER
TDL .M                                             665.68:   FINAL TD LOGGER
FHIS.                                             RAW-LAS:   FULL HISTORY
~Curve Information Block
#MNEM.UNIT                                        API CODE    No Description
#=========                                        ========    == ===========
DEPT.M                                       00 001 00 00:     1  DEPTH
DEN.G/C3                                                 :     2  Bulk Density
DT.US/M                                                  :     3  Sonic (Compressional)
GR.API                                                   :     4  Gamma Ray
NEU.V/V                                                  :     5  Neutron Porosity in Limestone Units
RES_DEP.OHMM                                             :     6  Resistivity Deep
~ASCII
# ...
  442.7220     2.0860   362.0030    13.0930      .4520     4.7570
  442.8744     2.1050   378.3290    11.6920      .4390     4.5430
  443.0268     2.1130   386.5450    10.6910      .4280     4.3380
  443.1792     2.0970   388.7560     9.9900      .4200     4.1420
  443.3316     2.0810   392.8810    10.2910      .4110     3.8830
  443.4840     2.0660   398.8120    12.0920      .4110     3.7770
  443.6364     2.0330   406.2790    12.8920      .4250     3.5740
  443.7888     2.0060   417.0500    13.4930      .4540     3.2890
  443.9412     1.9650   430.7720    13.1930      .4820     3.2890
  444.0936     1.9360   441.5120    13.6930      .4980     3.2590
  444.2460     1.9240   444.5270    15.1940      .4890     3.1410
  444.3984     1.9650   442.4700    15.7950      .4570     3.1700
  444.5508     2.0090   439.1990    16.4950      .4170     3.2590
  444.7032     2.0170   436.6890    17.3960      .4250     3.3500
  444.8556     2.0240   431.9370    16.8950      .4510     3.3500
  445.0080     2.0650   420.6850    16.0950      .4740     3.3810
  445.1604     2.1060   407.6330    16.0950      .4610     3.4440
  445.3128     2.1320   398.7250    16.6950      .4370     3.5410
  445.4652     2.1400   395.5220    17.3960      .4380     3.6400
  445.6176     2.1190   396.4080    16.9950      .4620     3.6400
  445.7700     2.1020   396.1790    17.0960      .4530     3.6400
  445.9224     2.1020   393.7120    18.3960      .4510     3.6400
  446.0748     2.1130   392.6110    18.3960      .4460     3.7080
  446.2272     2.1020   392.2460    18.1960      .4370     3.8120
  446.3796     2.1000   384.1600    17.3960      .4350     4.0290
  446.5320     2.1030   368.5490    16.9950      .4090     4.1810
  446.6844     2.1090   361.3620    17.2960      .3890     4.2980
  446.8368     2.1380   364.2730    17.6960      .3770     4.3780
  446.9892     2.1540   368.0720    19.5970      .3880     4.4190
  447.1416     2.1410   373.8230    22.1990      .4110     4.4600
  447.2940     2.0860   386.7820    25.4010      .4430     4.4600
  447.4464     2.0330   405.3280    27.0030      .4710     4.2980
  447.5988     2.0250   419.4540    28.9040      .4850     4.0670
  447.7512     2.0240   425.7420    30.1050      .4850     3.8830
  447.9036     2.0300   428.9340    31.6060      .4570     3.7420
  448.0560     2.0300   432.5020    31.4060      .4560     3.6070
  448.2084     2.0240   435.9910    30.0050      .4630     3.5080
  448.3608     2.0220   438.2330    29.2040      .4640     3.4760
  448.5132     2.0250   439.5870    29.3040      .4760     3.4760
  448.6656     2.0290   440.4150    29.2040      .4700     3.4760
  448.8180     2.0270   440.2430    30.3050      .4630     3.4440
  448.9704     2.0380   439.3520    30.2050      .4730     3.4440
  449.1228     2.0310   438.4870    29.8050      .4910     3.4440
  449.2752     2.0320   437.7590    30.2050      .5130     3.4760
  449.4276     2.0380   437.0520    30.6050      .5120     3.4760
  449.5800     2.0430   436.7870    31.0060      .4930     3.4440
  449.7324     2.0500   437.0950    31.0060      .4920     3.4440
  449.8848     2.0480   437.2350    28.9040      .4610     3.4760
  450.0372     2.0380   437.0890    28.2040      .4390     3.4120
  450.1896     2.0370   437.1150    29.6040      .4430     3.4120
  450.3420     2.0530   436.9740    29.4040      .4410     3.4440
  450.4944     2.0520   436.0180    29.6040      .4580     3.4760
  450.6468     2.0630   434.0490    30.0050      .4700     3.5410
  450.7992     2.0870   430.9410    28.5040      .4600     3.6070
  450.9516     2.0960   425.3610    26.2020      .4360     3.6740
  451.1040     2.1180   416.8730    24.3010      .4240     3.7420
  451.2564     2.1400   408.4710    21.5990      .3910     3.8470
  451.4088     2.1730   403.0080    19.8970      .3540     4.0290
  451.5612     2.2020   400.8220    20.4980      .3470     4.1810
  451.7136     2.2020   400.1140    21.8990      .3660     4.2980
  451.8660     2.2010   396.4600    23.2000      .3880     4.3780
  452.0184     2.2180   388.8810    21.5990      .3870     4.4190
  452.1708     2.2270   380.5050    19.6970      .3830     4.4190
  452.3232     2.2180   374.3800    18.2960      .3750     4.3780
  452.4756     2.2070   373.8900    18.1960      .3650     4.2590
  452.6280     2.2180   379.5130    17.5960      .3520     4.0670
  452.7804     2.1900   386.3450    16.6950      .3530     3.5410
  452.9328     2.1670   389.1900    17.2960      .3610     3.2290
  453.0852     2.1590   386.1630    17.6960      .3720     3.2590
  453.2376     2.1410   378.6190    17.8960      .3690     3.1120
  453.3900     2.1180   371.3480    18.7970      .3580     2.9440
  453.5424     2.1060   366.0960    20.9980      .3630     2.9170
  453.6948     2.0980   361.8180    23.2000      .3710     2.9170
  453.8472     2.1020   360.0090    24.6010      .3720     2.9170
  453.9996     2.0960   359.9870    27.6030      .3870     2.9170
  454.1520     2.0840   356.9150    32.2060      .3980     2.9440
  454.3044     2.0760   350.0790    34.9080      .4150     2.9710
  454.4568     2.0730   345.3640    35.0080      .4510     3.0270
  454.6092     2.0680   347.1420    35.9090      .4860     3.1120
  454.7616     2.0650   351.6920    37.1100      .4970     3.0830
  454.9140     2.0580   354.5780    37.3100      .5010     3.0270
  455.0664     2.0370   357.3930    37.8100      .4960     2.9710
  455.2188     2.0250   362.2720    37.4100      .4990     2.9170
  455.3712     2.0300   366.7430    38.9110      .4870     2.8640
  455.5236     2.0400   367.3070    38.7110      .4840     2.8110
  455.6760     2.0410   363.5090    39.0110      .4920     2.7850
  455.8284     2.0500   357.4930    37.8100      .4880     2.7850
  455.9808     2.0600   352.3570    37.6100      .4840     2.7340
  456.1332     2.0560   349.6020    35.9090      .4840     2.7090
  456.2856     2.0460   348.7410    36.1090      .4820     2.6600
  456.4380     2.0320   348.9900    36.2090      .4770     2.6110
  456.5904     2.0300   350.0770    35.7090      .4930     2.5870
  456.7428     2.0300   351.4600    36.0090      .5110     2.5400
  456.8952     2.0330   352.0030    37.0100      .5220     2.5400
  457.0476     2.0450   351.5820    37.3100      .5160     2.5400
  457.2000     2.0630   350.4480    37.1100      .5230     2.5400
  457.3524     2.0700   348.3420    38.1110      .5170     2.5400
  457.5048     2.0620   345.3420    37.8100      .4880     2.5160
  457.6572     2.0760   342.9490    37.7100      .4730     2.5160
  457.8096     2.0820   341.7190    37.3100      .4620     2.4930
  457.9620     2.0780   341.0350    36.9100      .4690     2.4930
  458.1144     2.0700   340.9700    36.2090      .4740     2.5160
  458.2668     2.0540   341.2720    35.5090      .4540     2.5400
  458.4192     2.0620   340.9770    35.1080      .4400     2.5870
  458.5716     2.0730   338.4420    34.1080      .4510     2.6350
  458.7240     2.0900   333.6720    30.6050      .4520     2.6840
  458.8764     2.1000   331.7380    28.1030      .4570     2.7340
  459.0288     2.1170   341.6400    25.7020      .4480     2.8370
  459.1812     2.1340   365.2460    24.8010      .4490     2.9710
  459.3336     2.1510   377.3620    24.1010      .4150     3.1700
  459.4860     2.1720   365.3020    21.5990      .3920     3.4440
  459.6384     2.1840   361.6470    19.9970      .3810     3.6740
  459.7908     2.1930   367.3990    19.4970      .3750     3.8830
  459.9432     2.1930   362.6680    19.4970      .3750     4.0670
  460.0956     2.2080   351.3860    19.1970      .3570     4.2980
  460.2480     2.2330   342.9960    20.0980      .3320     4.3780
  460.4004     2.2420   339.8490    21.6990      .3210     4.5010
  460.5528     2.2500   341.1210    22.6990      .3300     4.4600
  460.7052     2.2570   344.5640    23.1000      .3420     4.2190
  460.8576     2.2380   348.0720    24.8010      .3490     3.9550
  461.0100     2.2020   354.5370    25.9020      .3610     3.7080
  461.1624     2.1790   367.0610    27.8030      .3790     3.4120
