~VERSION INFORMATION
VERS.                                                 2.0:   CWLS Log ASCII Standard-VERSION 2.0
WRAP.                                                  NO:   One line per depth step
~Well Information Block
STRT.M                                              .6096:   Top Depth
STOP.M                                          1141.9332:   Bottom Depth
STEP.M                                             .15240:   Depth Increment
NULL.                                            -999.250:   Null Value
FLD .                                               NATIH:   Field Name
WELL.                                          NATIH-85H1:   NAME
EDF .                                              214.53:   ELEV DRILL FLOOR
EPD .                                                   0:   ELEV PERM DATUM
EGL .                                              209.96:   GROUND LEVEL
COMP.                          PETROLEUM DEVELOPMENT OMAN:   OPERATOR
PDAT.                                                 MSL:   PERM DATUM
COUN.                                             RIG05_3:   RIG NAME
SPUD.                                          1990/12/20:   SPUD DATE
LATI.                                         22.42686054:   SURF. LATITUDE
LONG.                                         56.67231194:   SURF. LONGITUDE
UTME.                                           466276.93:   SURF. UTM E
UTMN.                                          2479903.71:   SURF. UTM N
~PARAMETER INFORMATION (log)
LNAM.                                              PUBLIC:   NAME
LTYP.                                              JOINED:   LOG TYPE
LSRV.                                            CLEAN UP:   SERVICE
LSOU.                                               FUGRO:   LOG SOURCE
LVSN.                                                   1:   LOG VERSION
BHIS.                                                   R:   BRIEF HISTORY
TDD .M                                            1165.00:   FINAL TD DRILLER
TDL .M                                            1151.00:   FINAL TD LOGGER
FHIS.                                             RAW-LAS:   FULL HISTORY
~Curve Information Block
#MNEM.UNIT                                        API CODE    No Description
#=========                                        ========    == ===========
DEPT.M                                       00 001 00 00:     1  DEPTH
DEN.G/CC                                                 :     2  Bulk Density
DT.US/M                                                  :     3  Acoustic log
GR.API                                                   :     4  Gamma Ray
NEU.V/V                                                  :     5  Neutron Porosity in Limestone Units
RES_DEP.OHMM                                             :     6  Resistivity Deep
~ASCII
# ...
  911.6568     2.2323   538.0728     5.5848      .2534    61.0322
  911.8092     2.2312   543.8232     5.1737      .2339    60.4425
  911.9616     2.2318   550.6089     5.4261      .2280    57.7729
  912.1140     2.2570   553.8267     6.0166      .2253    55.8947
  912.2664     2.2369   561.6396     5.9579      .2324    54.7471
  912.4188     2.2009   568.5325     4.4545      .2382    55.1362
  912.5712     2.2060   570.9955     3.5097      .2604    56.0615
  912.7236     2.2391   576.7185     4.5725      .2641    55.9571
  912.8760     2.2393   585.9574     4.9605      .2324    53.2496
  913.0284     2.2217   585.9391     4.9598      .2153    50.0673
  913.1808     2.2103   544.0133     4.8408      .2086    48.2309
  913.3332     2.1534   451.6471     5.0770      .2287    49.6517
  913.4856     2.1270   415.5522     5.0763      .2589    53.6744
  913.6380     2.1580   435.4341     5.4304      .2871    60.8044
  913.7904     2.2006   433.5066     5.6656      .2747    67.3105
  913.9428     2.1974   418.9308     6.7286      .2731    70.4612
  914.0952     2.1998   405.0794     6.5011      .2529    69.8352
  914.2476     2.1907   404.3651     6.1470      .2577    66.7445
  914.4000     2.1690   402.0111     5.0594      .2591    62.7773
  914.5524     2.1849   399.0513     5.2859      .2893    61.4849
  914.7048     2.1548   399.1704     5.5220      .3085    63.2589
  914.8572     2.1355   400.3315     5.9005      .2831    63.6698
  915.0096     2.1534   407.3642     4.7211      .2737    62.8878
  915.1620     2.1877   417.7141     3.5403      .2695    61.4627
  915.3144     2.1824   423.2001     3.7753      .2889    59.0770
  915.4668     2.1728   430.8105     4.2215      .3097    57.8177
  915.6192     2.1340   438.2031     4.3395      .3023    58.6425
  915.7716     2.1445   436.8570     3.8678      .2947    59.0843
  915.9240     2.1328   426.5291     3.1820      .2829    57.6578
  916.0764     2.1267   422.6061     3.5385      .2846    56.0294
  916.2288     2.1156   426.8965     3.4241      .2866    55.3378
  916.3812     2.1100   430.1587     4.6097      .2746    54.5967
  916.5336     2.1402   430.2671     4.3728      .2815    55.1820
  916.6860     2.1724   430.4354     4.2533      .3225    56.4015
  916.8384     2.1503   434.6158     3.3085      .3217    56.3101
  916.9908     2.1456   439.6197     3.3085      .3562    56.8648
  917.1432     2.1417   437.0004     3.5288      .3243    57.8106
  917.2956     2.1235   429.1548     4.7109      .3314    58.9441
  917.4480     2.1333   422.5229     5.0668      .3313    60.0272
  917.6004     2.1414   422.9548     5.0849      .3487    60.5423
  917.7528     2.1554   425.5162     4.1398      .3583    57.5035
  917.9052     2.1350   436.1030     4.1398      .3543    52.9457
  918.0576     2.0709   447.6903     3.8697      .3422    49.1106
  918.2100     1.7980   443.0900     4.4620      .3341    46.3358
  918.3624     1.6087   441.5354     4.6985      .3227    45.0940
  918.5148     1.8290   439.3047     4.6143      .3144    46.2803
  918.6672     2.0371   431.2439     4.2587      .3099    47.6052
  918.8196     2.1219   423.9543     4.9706      .3040    47.5431
  918.9720     2.1234   422.7627     5.0889      .3014    47.2544
  919.1244     2.1230   421.9109     5.0896      .2839    46.3007
  919.2768     2.1622   417.6996     4.4977      .2710    45.1871
  919.4292     2.1797   419.7227     4.3794      .2681    44.9285
  919.5816     2.1741   424.0014     4.3801      .2818    45.2653
  919.7340     2.1729   421.2220     4.3809      .2780    45.7748
  919.8864     2.1854   424.0793     4.8559      .2395    47.0715
  920.0388     2.1869   436.0780     5.0934      .2172    48.2223
  920.1912     2.1938   442.5634     5.3303      .2093    49.1632
  920.3436     2.2180   437.7855     5.8302      .2065    49.7250
  920.4960     2.2336   431.4307     6.0661      .1982    49.5826
  920.6484     2.2738   429.1934     5.4725      .1974    49.3271
  920.8008     2.2649   431.0298     5.4691      .1873    48.3220
  920.9532     2.2479   435.3377     5.9404      .1930    47.1971
  921.1056     2.2717   438.7252     6.0587      .1742    44.9483
  921.2580     2.3186   438.8924     6.1523      .1662    42.8375
  921.4104     2.3042   438.7539     5.5609      .1547    39.9216
  921.5628     2.3183   435.4728     5.6801      .1361    37.6343
  921.7152     2.3604   443.4325     5.7984      .1360    35.0354
  921.8676     2.3726   460.1443     5.9176      .1345    33.4490
  922.0200     2.3672   476.5674     6.0351      .1403    32.2048
  922.1724     2.3788   482.3556     6.8650      .1377    31.2964
  922.3248     2.3708   486.6688     8.5206      .1292    30.9456
  922.4772     2.3919   493.6003     8.2984      .1278    29.9389
  922.6296     2.4074   481.4190     7.4697      .1170    28.4729
  922.7820     2.4315   479.6371     5.6931      .1175    27.4244
  922.9344     2.4412   484.8782     6.7979      .1101    26.6448
  923.0868     2.4394   486.3009     7.3826      .1156    26.0419
  923.2392     2.4403   490.0878     8.0903      .1146    25.4314
  923.3916     2.4318   499.4931     8.1491      .1280    24.8142
  923.5440     2.4089   511.1928     7.2203      .1351    24.2955
  923.6964     2.3995   514.6755     8.8737      .1448    25.0316
  923.8488     2.4000   518.6125     8.4013      .1501    27.3978
  924.0012     2.4013   529.9965     8.0310      .1560    31.0442
  924.1536     2.3351   541.4170     5.0785      .1555    35.3106
  924.3060     2.3233   544.2748     4.7243      .1799    39.0175
  924.4584     2.2453   553.1019     3.8972      .2049    40.0450
  924.6108     2.2324   562.8084     3.8972      .2414    38.3045
  924.7632     2.2094   568.9059     3.5254      .2453    36.6286
  924.9156     2.2016   579.0004     3.6434      .2558    35.1251
  925.0680     2.2013   587.4091     4.2330      .2478    35.3589
  925.2204     2.1703   581.5242     4.0143      .2704    37.3740
  925.3728     2.2177   568.1941     5.3128      .2522    39.0808
  925.5252     2.2553   562.9186     5.1931      .2438    39.6729
  925.6776     2.2346   557.6431     5.8998      .2513    38.8378
  925.8300     2.1581   552.3676     5.0728      .2752    37.8943
  925.9824     2.1393   547.0922     5.3086      .2970    38.0237
  926.1348     2.1398   541.8167     5.4246      .3026    39.0559
  926.2872     2.1310   536.5412     6.0304      .2777    40.0028
  926.4396     2.1297   531.2657     5.5586      .2735    41.6839
  926.5920     2.1312   525.9902     5.6765      .2866    43.2459
  926.7444     2.1279   520.7147     5.4221      .2773    45.2035
  926.8968     2.1545   515.4393     6.9523      .2549    46.0781
  927.0492     2.1929   510.1638     7.4211      .2515    45.6924
  927.2016     2.2295   504.8883     7.7974      .2511    42.5759
  927.3540     2.2057   499.6128     6.7362      .2527    39.2350
  927.5064     2.1900   494.3373     5.9073      .2395    38.3635
  927.6588     2.1814   489.0618     5.7638      .2550    38.7645
  927.8112     2.1895   483.7863     6.0013      .2755    39.5523
  927.9636     2.2085   478.5108     7.1864      .2825    39.7351
  928.1160     2.2112   473.2354     7.5450      .2667    40.4237
  928.2684     2.2094   467.9599     8.3159      .2699    40.3656
  928.4208     2.1940   462.6844     7.6133      .2810    40.7987
  928.5732     2.1916   457.4089     6.3181      .3108    42.9145
  928.7256     2.1628   452.1334     6.0226      .3036    44.3461
  928.8780     2.1890   446.8579     5.5520      .3071    45.1095
  929.0304     2.1834   441.5825     6.3791      .2774    45.3350
  929.1828     2.1706   436.3070     5.5554      .2872    44.1237
  929.3352     2.1619   431.0315     5.3100      .2729    42.0322
  929.4876     2.1592   425.7560     6.1384      .3029    39.5888
  929.6400     2.1559   420.4805     6.6124      .3055    37.5161
  929.7924     2.1385   415.2050     7.6879      .2991    36.4798
  929.9448     2.1287   426.0991     7.3759      .2959    36.3472
  930.0972     2.1353   448.7231     6.7838      .2785    36.7840
