~VERSION INFORMATION
VERS.                                                 2.0:   CWLS Log ASCII Standard-VERSION 2.0
WRAP.                                                  NO:   One line per depth step
~Well Information Block
STRT.M                                              .6096:   Top Depth
STOP.M                                          1141.9332:   Bottom Depth
STEP.M                                             .15240:   Depth Increment
NULL.                                            -999.250:   Null Value
FLD .                                               NATIH:   Field Name
WELL.                                          NATIH-85H1:   NAME
EDF .                                              214.53:   ELEV DRILL FLOOR
EPD .                                                   0:   ELEV PERM DATUM
EGL .                                              209.96:   GROUND LEVEL
COMP.                          PETROLEUM DEVELOPMENT OMAN:   OPERATOR
PDAT.                                                 MSL:   PERM DATUM
COUN.                                             RIG05_3:   RIG NAME
SPUD.                                          1990/12/20:   SPUD DATE
LATI.                                         22.42686054:   SURF. LATITUDE
LONG.                                         56.67231194:   SURF. LONGITUDE
UTME.                                           466276.93:   SURF. UTM E
UTMN.                                          2479903.71:   SURF. UTM N
~PARAMETER INFORMATION (log)
LNAM.                                              PUBLIC:   NAME
LTYP.                                              JOINED:   LOG TYPE
LSRV.                                            CLEAN UP:   SERVICE
LSOU.                                               FUGRO:   LOG SOURCE
LVSN.                                                   1:   LOG VERSION
BHIS.                                                   R:   BRIEF HISTORY
TDD .M                                            1165.00:   FINAL TD DRILLER
TDL .M                                            1151.00:   FINAL TD LOGGER
FHIS.                                             RAW-LAS:   FULL HISTORY
~Curve Information Block
#MNEM.UNIT                                        API CODE    No Description
#=========                                        ========    == ===========
DEPT.M                                       00 001 00 00:     1  DEPTH
DEN.G/CC                                                 :     2  Bulk Density
DT.US/M                                                  :     3  Acoustic log
GR.API                                                   :     4  Gamma Ray
NEU.V/V                                                  :     5  Neutron Porosity in Limestone Units
RES_DEP.OHMM                                             :     6  Resistivity Deep
~ASCII
# ...
  893.0640  -999.2500  -999.2500    21.8906  -999.2500  -999.2500
  893.2164  -999.2500  -999.2500    19.4219  -999.2500  -999.2500
  893.3688  -999.2500  -999.2500    17.5469  -999.2500  -999.2500
  893.5212  -999.2500  -999.2500    20.2969  -999.2500  -999.2500
  893.6736  -999.2500  -999.2500    22.1250  -999.2500  -999.2500
  893.8260  -999.2500  -999.2500    26.3906  -999.2500  -999.2500
  893.9784  -999.2500  -999.2500    24.9062  -999.2500  -999.2500
  894.1308  -999.2500  -999.2500    27.1250  -999.2500  -999.2500
  894.2832  -999.2500  -999.2500    26.0469  -999.2500  -999.2500
  894.4356  -999.2500  -999.2500    27.4219  -999.2500  -999.2500
  894.5880  -999.2500  -999.2500    24.2812  -999.2500  -999.2500
  894.7404  -999.2500  -999.2500    24.2500  -999.2500  -999.2500
  894.8928  -999.2500  -999.2500    22.2031  -999.2500  -999.2500
  895.0452  -999.2500  -999.2500    22.2031  -999.2500  -999.2500
  895.1976  -999.2500  -999.2500    19.9531  -999.2500  -999.2500
  895.3500  -999.2500  -999.2500    19.3594  -999.2500  -999.2500
  895.5024  -999.2500  -999.2500    17.9844  -999.2500  -999.2500
  895.6548  -999.2500  -999.2500    19.3750  -999.2500  -999.2500
  895.8072  -999.2500  -999.2500    23.1719  -999.2500  -999.2500
  895.9596  -999.2500  -999.2500    25.0156  -999.2500  -999.2500
  896.1120  -999.2500  -999.2500    24.3281  -999.2500  -999.2500
  896.2644  -999.2500  -999.2500    21.3906  -999.2500  -999.2500
  896.4168  -999.2500  -999.2500    20.6875  -999.2500  -999.2500
  896.5692  -999.2500  -999.2500    18.1562  -999.2500  -999.2500
  896.7216  -999.2500  -999.2500    19.4844  -999.2500  -999.2500
  896.8740  -999.2500  -999.2500    17.6875  -999.2500  -999.2500
  897.0264  -999.2500  -999.2500    17.0469  -999.2500  -999.2500
  897.1788  -999.2500  -999.2500    14.3203  -999.2500  -999.2500
  897.3312  -999.2500  -999.2500    17.6719  -999.2500  -999.2500
  897.4836  -999.2500  -999.2500    19.9375  -999.2500  -999.2500
  897.6360  -999.2500  -999.2500    21.5625  -999.2500  -999.2500
  897.7884  -999.2500  -999.2500    19.7031  -999.2500  -999.2500
  897.9408  -999.2500  -999.2500    16.0625  -999.2500  -999.2500
  898.0932  -999.2500  -999.2500    13.8203  -999.2500  -999.2500
  898.2456  -999.2500  -999.2500    15.9219  -999.2500  -999.2500
  898.3980  -999.2500  -999.2500    23.8125  -999.2500  -999.2500
  898.5504  -999.2500  -999.2500    32.1766  -999.2500  -999.2500
  898.7028  -999.2500  -999.2500    39.5167  -999.2500  -999.2500
  898.8552  -999.2500  -999.2500    39.2855  -999.2500  -999.2500
  899.0076  -999.2500   467.5107    35.2623  -999.2500  -999.2500
  899.1600  -999.2500   464.0798    27.8309  -999.2500  -999.2500
  899.3124  -999.2500   461.6190    25.1093  -999.2500  -999.2500
  899.4648  -999.2500   458.7343    25.5874  -999.2500  -999.2500
  899.6172  -999.2500   459.1780    32.0660  -999.2500  -999.2500
  899.7696  -999.2500   475.8913    39.5284  -999.2500  -999.2500
  899.9220  -999.2500   476.5797    44.8410      .4449     3.1626
  900.0744  -999.2500   468.5367    48.4982      .3213     3.0114
  900.2268  -999.2500   464.5700    51.6577      .2975     2.8482
  900.3792  -999.2500   462.1838    52.1308      .2946     2.7021
  900.5316  -999.2500   460.2814    53.1947      .3131     2.5590
  900.6840  -999.2500   451.6821    51.3208      .2973     2.4940
  900.8364  -999.2500   442.8517    55.8053      .3021     2.3450
  900.9888  -999.2500   449.1329    53.2125      .3219     2.2486
  901.1412  -999.2500   464.2397    53.6855      .3447     2.2179
  901.2936  -999.2500   475.1208    48.2549      .3519     2.1126
  901.4460  -999.2500   465.8844    51.2024      .3551     2.0238
  901.5984  -999.2500   442.9458    48.3710      .3797     1.9149
  901.7508  -999.2500   501.1235    47.0635      .4294     1.6858
  901.9032  -999.2500   600.5116    39.6274      .4971     1.4914
  902.0556  -999.2500   610.9506    40.4406      .5580     1.3211
  902.2080  -999.2500   598.5793    39.2437      .5896     1.2359
  902.3604  -999.2500   583.3557    41.1304      .7603     1.1924
  902.5128  -999.2500   578.4294    36.7980      .8170     1.2758
  902.6652  -999.2500   565.1051    37.6403      .6786     1.3463
  902.8176  -999.2500   548.5701    38.5794      .6256     1.3531
  902.9700  -999.2500   530.7759    42.7173      .6783     1.2953
  903.1224  -999.2500   522.5297    46.1736      .6596     1.3046
  903.2748  -999.2500   522.6296    46.5282      .6818     1.2876
  903.4272  -999.2500   525.0847    47.8966      .6993     1.2131
  903.5796  -999.2500   532.3702    43.0162      .8456     1.2331
  903.7320  -999.2500   528.1813    41.0066      .7282     1.1998
  903.8844  -999.2500   509.1108    41.9432      .5778     1.2297
  904.0368  -999.2500   477.8825    48.3149      .5571     1.4230
  904.1892  -999.2500   451.6147    55.3883      .4941     1.7359
  904.3416  -999.2500   443.7704    57.9668      .5009     2.1388
  904.4940  -999.2500   432.1806    57.3257      .4010     2.6376
  904.6464  -999.2500   424.9510    55.5895      .3683     2.9583
  904.7988  -999.2500   429.8143    52.7876      .3284     2.9376
  904.9512  -999.2500   423.4005    53.8098      .2994     2.8096
  905.1036  -999.2500   425.8694    56.7680      .3094     2.4958
  905.2560  -999.2500   421.9719    58.7913      .3091     2.3019
  905.4084  -999.2500   427.7580    60.1816      .3536     2.2110
  905.5608  -999.2500   437.9507    61.2648      .3487     2.2297
  905.7132  -999.2500   432.5982    62.7819      .3545     2.2423
  905.8656  -999.2500   429.8300    59.3571      .3392     2.1780
  906.0180  -999.2500   435.5666    55.2892      .3354     2.1718
  906.1704  -999.2500   444.8595    53.1624      .3528     1.9981
  906.3228  -999.2500   449.1371    56.4692      .3884     1.8235
  906.4752  -999.2500   461.0662    55.1776      .4015     1.6883
  906.6276  -999.2500   470.5312    54.4687      .3940     1.5762
  906.7800  -999.2500   477.5989    51.7772      .4046     1.4761
  906.9324  -999.2500   485.7654    53.6686      .4526     1.4815
  907.0848  -999.2500   477.1390    52.8499      .4262     1.7342
  907.2372  -999.2500   469.8162    52.8499      .5222     2.2598
  907.3896  -999.2500   454.8796    54.0320      .5082     3.0179
  907.5420  -999.2500   430.8820    51.4677      .4977     5.3142
  907.6944  -999.2500   415.8710    41.7659      .5064     7.9594
  907.8468  -999.2500   413.0205    27.1075      .4874     9.3820
  907.9992  -999.2500   410.1903    15.2498      .3990    11.6935
  908.1516  -999.2500   414.2997     9.5764      .3083    15.3678
  908.3040  -999.2500   433.6417     6.5028      .2610    20.1768
  908.4564     2.1731   450.4861     5.9459      .2647    23.0731
  908.6088     2.1925   459.7573     5.9459      .2620    33.6771
  908.7612     2.1949   474.5022     5.4723      .2526    39.7866
  908.9136     2.2229   486.7913     5.4381      .2344    43.5267
  909.0660     2.2778   501.9077     6.8559      .2135    50.0817
  909.2184     2.2717   533.4584     8.0402      .2120    52.0219
  909.3708     2.2786   537.3867     8.6313      .2021    52.4943
  909.5232     2.2835   511.3583     7.4500      .1896    53.3795
  909.6756     2.2838   516.8423     7.3304      .1864    54.0700
  909.8280     2.2815   517.6891     7.0940      .1913    54.4442
  909.9804     2.2671   512.1124     8.0375      .2074    55.8440
  910.1328     2.2951   511.9186     7.9775      .2197    56.9921
  910.2852     2.3022   511.0472     7.8581      .2146    56.9518
  910.4376     2.2973   505.1443     7.7399      .2052    56.9792
  910.5900     2.3091   504.1084     7.6792      .2000    57.3499
  910.7424     2.2888   504.5393     7.4429      .1943    58.1668
  910.8948     2.3050   505.5523     7.5597      .1833    60.7721
  911.0472     2.2877   510.9933     6.9692      .1779    62.4004
  911.1996     2.2709   515.8320     6.3752      .1786    63.4454
  911.3520     2.2750   520.9438     4.9555      .2056    62.9799
  911.5044     2.2565   531.4497     5.4643      .2312    60.9362
