~VERSION INFORMATION
VERS.                                                 2.0:   CWLS Log ASCII Standard-VERSION 2.0
WRAP.                                                  NO:   One line per depth step
~Well Information Block
STRT.M                                              .6096:   Top Depth
STOP.M                                          1141.9332:   Bottom Depth
STEP.M                                             .15240:   Depth Increment
NULL.                                            -999.250:   Null Value
FLD .                                               NATIH:   Field Name
WELL.                                          NATIH-85H1:   NAME
EDF .                                              214.53:   ELEV DRILL FLOOR
EPD .                                                   0:   ELEV PERM DATUM
EGL .                                              209.96:   GROUND LEVEL
COMP.                          PETROLEUM DEVELOPMENT OMAN:   OPERATOR
PDAT.                                                 MSL:   PERM DATUM
COUN.                                             RIG05_3:   RIG NAME
SPUD.                                          1990/12/20:   SPUD DATE
LATI.                                         22.42686054:   SURF. LATITUDE
LONG.                                         56.67231194:   SURF. LONGITUDE
UTME.                                           466276.93:   SURF. UTM E
UTMN.                                          2479903.71:   SURF. UTM N
~PARAMETER INFORMATION (log)
LNAM.                                              PUBLIC:   NAME
LTYP.                                              JOINED:   LOG TYPE
LSRV.                                            CLEAN UP:   SERVICE
LSOU.                                               FUGRO:   LOG SOURCE
LVSN.                                                   1:   LOG VERSION
BHIS.                                                   R:   BRIEF HISTORY
TDD .M                                            1165.00:   FINAL TD DRILLER
TDL .M                                            1151.00:   FINAL TD LOGGER
FHIS.                                             RAW-LAS:   FULL HISTORY
~Curve Information Block
#MNEM.UNIT                                        API CODE    No Description
#=========                                        ========    == ===========
DEPT.M                                       00 001 00 00:     1  DEPTH
DEN.G/CC                                                 :     2  Bulk Density
DT.US/M                                                  :     3  Acoustic log
GR.API                                                   :     4  Gamma Ray
NEU.V/V                                                  :     5  Neutron Porosity in Limestone Units
RES_DEP.OHMM                                             :     6  Resistivity Deep
~ASCII
# ...
  967.4352     2.3820   444.0872    28.4788      .1366    37.6025
  967.5876     2.4126   452.4803    26.9450      .1385    41.0431
  967.7400     2.4409   459.6409    26.2586      .1450    43.7384
  967.8924     2.4288   459.6841    24.6045      .1485    45.3145
  968.0448     2.3759   459.4765    24.6530      .1531    47.3277
  968.1972     2.4012   456.8495    25.0029      .1456    46.4722
  968.3496     2.4026   455.0950    25.5829      .1352    48.8264
  968.5020     2.3473   451.9049    23.6296      .1279    63.9963
  968.6544     2.4308   443.8169    17.1146      .1273    62.8467
  968.8068     2.4688   441.6205    14.8708      .1164    52.6021
  968.9592     2.4208   438.1329    15.4581      .1083    51.2048
  969.1116     2.4534   435.1376    18.8928      .1210    49.1094
  969.2640     2.5483   441.6264    18.7747      .1471    45.8679
  969.4164     2.4805   447.7493    18.3535      .1619    48.5785
  969.5688     2.5569   449.8060    17.7631      .1433    46.1805
  969.7212     2.5801   451.8534    17.8839      .1307    43.2309
  969.8736     2.5020   453.6434    17.3634      .1391    46.9622
  970.0260     2.4678   452.9858    16.4186      .1508    47.2884
  970.1784     2.4432   452.1402    14.8806      .1519    45.6349
  970.3308     2.4499   450.9429    16.0616      .1490    42.4713
  970.4832     2.4393   449.1868    16.8853      .1527    41.1042
  970.6356     2.3639   445.7044    17.5893      .1590    43.7249
  970.7880     2.3619   449.0680    18.2906      .1556    50.7589
  970.9404     2.3890   453.2867    18.7261      .1382    68.2838
  971.0928     2.3614   454.4626    20.2538      .1494    84.7418
  971.2452     2.3528   456.3397    19.4215      .1648    93.3533
  971.3976     2.3498   458.2351    19.2097      .1677   101.0958
  971.5500     2.3936   452.0714    19.5633      .1506   104.2924
  971.7024     2.3806   451.9080    19.0859      .1375    97.3705
  971.8548     2.4326   458.4223    19.4136      .1285    92.3500
  972.0072     2.4595   455.4454    20.8047      .1214    89.0013
  972.1596     2.4096   453.8444    24.0927      .1260    76.7592
  972.3120     2.3473   454.4219    25.3631      .1416    71.1136
  972.4644     2.2920   458.9579    22.7960      .1555    76.5584
  972.6168     2.0516   464.1389    19.0480      .1758    75.0204
  972.7692     2.1197   465.3138    17.3351      .1885    61.7268
  972.9216     2.3173   463.4271    18.9860      .1787    50.5062
  973.0740     2.2891   463.3327    20.0446      .1660    42.3046
  973.2264     2.0827   460.3614    19.4360      .1626    38.9286
  973.3788     2.0124   456.0034    17.4412      .1695    39.5788
  973.5312     2.1724   454.0126    18.0415      .1599    39.1958
  973.6836     2.2252   456.5189    17.8409      .1566    37.5201
  973.8360     2.2422   458.6257    17.2523      .1530    39.0758
  973.9884     2.2749   457.0634    14.8927      .1546    41.6575
  974.1408     2.0578   453.0644    15.0109      .1575    52.3510
  974.2932     1.6718   452.0837    16.1931      .1595    74.7869
  974.4456     1.5431   455.3202    15.4904      .1782    92.0475
  974.5980     1.6870   457.1268    13.1261      .2245    92.3176
  974.7504     1.9946   456.1901     9.3530      .2170    82.8170
  974.9028     2.2091   455.2514     9.1144      .1959    74.6102
  975.0552     2.3290   457.0426    10.8632      .1651    71.3644
  975.2076     2.4104   455.9789    12.0385      .1557    72.9888
  975.3600     2.3754   454.8800    11.5654      .1540    79.6714
  975.5124     2.4416   455.7433    12.1864      .1408    94.4014
  975.6648     2.4072   454.2071    14.7896      .1304   105.6313
  975.8172     2.3313   453.6363    17.0396      .1252   119.9203
  975.9696     2.3777   448.9745    15.9746      .1205   134.6355
  976.1220     2.4135   439.1773    16.5663      .1187   129.4545
  976.2744     2.4651   435.7785    16.2113      .1131   117.8899
  976.4268     2.4596   436.1888    20.1161      .1095    95.9906
  976.5792     2.3899   438.5672    24.8547      .1049    78.9635
  976.7316     2.2853   438.3556    27.6986      .1151    68.1843
  976.8840     2.1190   436.5250    28.7682      .1360    68.8096
  977.0364     1.9855   439.9583    26.5188      .1493    77.1218
  977.1888     2.2636   444.3898    26.8698      .1556    92.5014
  977.3412     2.3743   446.8917    26.9929      .1385   105.6997
  977.4936     2.4659   444.0231    27.4709      .1274   101.4907
  977.6460     2.4592   441.8279    28.9779      .1132    89.0360
  977.7984     2.4143   445.2853    31.9451      .1218    76.4720
  977.9508     2.2946   450.0374    33.2480      .1306    74.2424
  978.1032     2.2256   453.6078    31.5126      .1394    72.1191
  978.2556     2.1324   455.5323    27.1240      .1423    75.9874
  978.4080     2.2252   451.6270    23.0566      .1382    87.2391
  978.5604     2.3568   445.6969    23.2978      .1309    99.5049
  978.7128     2.3729   444.6136    25.9035      .1106   128.0351
  978.8652     2.3814   444.5390    29.5070      .0990   153.2330
  979.0176     2.3786   441.9432    31.5215      .0984   147.2917
  979.1700     2.4468   440.7459    38.9835      .0941   129.5283
  979.3224     2.4694   442.7629    47.0456      .0919   112.7410
  979.4748     2.4260   441.1519    59.3698      .0933    93.4114
  979.6272     2.3615   441.1094    55.2105      .1024    83.9539
  979.7796     2.4041   439.3843    50.3236      .1044    66.7134
  979.9320     2.5178   433.8869    40.4687      .0949    63.9479
  980.0844     2.5012   433.4633    39.3974      .0948    63.6155
  980.2368     2.4822   433.2729    37.4249      .0981    59.4535
  980.3892     2.4430   425.9369    37.9831      .1011    69.0624
  980.5416     2.4688   424.4317    38.7840      .0895    84.4501
  980.6940     2.5025   424.6952    49.8133      .0859    98.6000
  980.8464     2.4742   428.8645    57.8401      .0910   131.4951
  980.9988     2.4269   436.7006    62.4955      .1079   166.8575
  981.1512     2.4328   441.6029    56.7116      .1200   194.8784
  981.3036     2.4309   442.5756    45.7390      .1255   161.3668
  981.4560     2.4221   445.2914    39.9032      .1136   102.1160
  981.6084     2.4586   443.2467    34.1284      .1017    79.7032
  981.7608     2.4922   436.6826    33.0608      .0954    66.2539
  981.9132     2.4829   437.7656    30.5819      .0909    53.0483
  982.0656     2.4921   439.3587    31.6713      .0931    53.6460
  982.2180     2.4658   439.2747    32.3688      .0998    49.3969
  982.3704     2.4351   435.4557    30.4842      .0977    42.4073
  982.5228     2.4766   427.9344    28.2099      .0976    44.2061
  982.6752     2.5201   426.1006    30.5876      .0945    48.1583
  982.8276     2.5119   431.3283    36.3744      .1000    56.8667
  982.9800     2.4741   433.3000    45.5769      .1082    64.0976
  983.1324     2.4264   434.5872    56.1944      .1121    74.2122
  983.2848     2.4290   438.0539    62.0993      .1202    71.3237
  983.4372     2.4167   437.5334    54.8932      .1330    72.4823
  983.5896     2.4689   436.2027    42.9711      .1261    74.6185
  983.7420     2.5089   432.2625    30.9725      .1050    65.4434
  983.8944     2.5020   426.7331    27.5510      .0920    61.5568
  984.0468     2.5314   422.5621    27.0735      .0852    58.2890
  984.1992     2.5149   421.4192    32.6469      .0902    61.1377
  984.3516     2.4881   428.2549    39.1360      .1043    71.8180
  984.5040     2.3451   432.9788    42.7864      .1223    80.1814
  984.6564     2.1830   437.9039    40.9332      .1373    61.8972
  984.8088     2.2191   443.5338    37.5063      .1513    48.4460
  984.9612     2.3459   450.7881    32.8683      .1618    40.1198
  985.1136     2.3847   452.6607    32.6435      .1521    39.9288
  985.2660     2.4404   451.9385    37.6121      .1403    45.0798
  985.4184     2.4167   452.2032    43.0499      .1449    54.0880
  985.5708     2.3751   451.3188    44.4671      .1451    64.7108
  985.7232     2.4312   450.2602    43.4047      .1215    55.0844
  985.8756     2.4741   445.5218    41.0910      .0966    47.9806
