~VERSION INFORMATION
VERS.                                                 2.0:   CWLS Log ASCII Standard-VERSION 2.0
WRAP.                                                  NO:   One line per depth step
~Well Information Block
STRT.M                                            15.0876:   Top Depth
STOP.M                                           669.0360:   Bottom Depth
STEP.M                                             .15240:   Depth Increment
NULL.                                            -999.250:   Null Value
FLD .                                               NATIH:   Field Name
WELL.                                      NATIH WSW-13H1:   NAME
EDF .                                              231.32:   ELEV DRILL FLOOR
EPD .                                                   0:   ELEV PERM DATUM
EGL .                                              226.75:   GROUND LEVEL
COMP.                          Petroleum Development Oman:   OPERATOR
PDAT.                                                 MSL:   PERM DATUM
COUN.                                             RIG05_1:   RIG NAME
SPUD.                                          1980/03/02:   SPUD DATE
LATI.                                         22.46529137:   SURF. LATITUDE
LONG.                                         56.71960289:   SURF. LONGITUDE
UTME.                                           471151.72:   SURF. UTM E
UTMN.                                          2484147.59:   SURF. UTM N
~PARAMETER INFORMATION (log)
LNAM.                                              PUBLIC:   NAME
LTYP.                                              JOINED:   LOG TYPE
LSRV.                                            CLEAN UP:   SERVICE
LSOU.                                              TARGET:   LOG SOURCE
LVSN.                                                   1:   LOG VERSION
BHIS.                                                   R:   BRIEF HISTORY
TDD .M                                             694.94:   FINAL TD DRILLER
TDL .M                                             665.68:   FINAL TD LOGGER
FHIS.                                             RAW-LAS:   FULL HISTORY
~Curve Information Block
#MNEM.UNIT                                        API CODE    No Description
#=========                                        ========    == ===========
DEPT.M                                       00 001 00 00:     1  DEPTH
DEN.G/C3                                                 :     2  Bulk Density
DT.US/M                                                  :     3  Sonic (Compressional)
GR.API                                                   :     4  Gamma Ray
NEU.V/V                                                  :     5  Neutron Porosity in Limestone Units
RES_DEP.OHMM                                             :     6  Resistivity Deep
~ASCII
# ...
  219.6084     2.0900   322.2990    23.2000      .4790     7.4770
  219.7608     2.0930   320.4340    24.5010      .4800     7.2060
  219.9132     2.0920   320.4410    24.2010      .4850     6.9450
  220.0656     2.0920   327.0900    24.0000      .4940     6.9450
  220.2180     2.1050   334.8070    24.9010      .4910     6.8810
  220.3704     2.1020   326.0320    26.0020      .5020     6.8180
  220.5228     2.0970   306.8160    27.6030      .5050     6.8180
  220.6752     2.0880   296.7940    28.1030      .4890     6.8180
  220.8276     2.0740   302.0970    27.1030      .4730     6.7550
  220.9800     2.0650   320.1490    25.5010      .4820     6.7550
  221.1324     2.0650   339.6930    23.9000      .4920     6.6940
  221.2848     2.0540   345.6040    24.7010      .4870     6.5110
  221.4372     2.0720   343.0440    25.2010      .4750     6.3330
  221.5896     2.0840   346.9200    25.9020      .4780     6.3330
  221.7420     2.0940   353.2110    25.1010      .4690     6.3330
  221.8944     2.1090   357.4410    24.3010      .4650     6.3330
  222.0468     2.0960   360.4040    24.8010      .4810     6.3330
  222.1992     2.0860   362.4410    25.7020      .4930     6.2750
  222.3516     2.0810   362.0450    27.2030      .4900     6.1030
  222.5040     2.0780   357.8000    26.9030      .4720     6.1600
  222.6564     2.0730   353.4600    26.4020      .4510     6.3330
  222.8088     2.0590   354.6290    24.3010      .4500     6.5110
  222.9612     2.0500   360.4110    22.4990      .4720     6.8180
  223.1136     2.0480   364.5150    21.0980      .5150     6.9450
  223.2660     2.0380   363.6940    21.0980      .5350     7.0100
  223.4184     2.0310   359.8460    21.2990      .5090     7.1400
  223.5708     2.0360   356.6620    20.9980      .4990     7.3410
  223.7232     2.0560   355.5480    20.5980      .5220     7.6170
  223.8756     2.0720   355.3440    20.1980      .5300     7.9030
  224.0280     2.0870   353.8510    19.6970      .5360     8.2000
  224.1804     2.0910   350.8150    19.0970      .5360     8.5870
  224.3328     2.1020   348.8210    18.0960      .5370     8.8290
  224.4852     2.1050   349.4800    17.5960      .5070     8.9930
  224.6376     2.1200   351.8130    16.7950      .4730     9.0760
  224.7900     2.1190   354.1610    16.0950      .4690     9.1610
  224.9424     2.1050   357.2270    15.7950      .4710     9.1610
  225.0948     2.1020   364.8380    14.2930      .4640     9.1610
  225.2472     2.1020   379.4240    13.6930      .4760     9.1610
  225.3996     2.1060   394.4500    14.4940      .4900     8.9930
  225.5520     2.1000   401.2380    14.9940      .5030     8.8290
  225.7044     2.0900   402.4180    14.8940      .5080     8.5870
  225.8568     2.0890   403.7710    14.4940      .5130     8.4310
  226.0092     2.0810   405.3100    13.6930      .5030     8.5090
  226.1616     2.0790   406.2330    13.3930      .4920     8.6670
  226.3140     2.0940   406.6270    13.2930      .4770     8.9930
  226.4664     2.1090   402.8730    12.3920      .4550     9.4180
  226.6188     2.1360   391.5720    11.2910      .4430     9.7720
  226.7712     2.1760   376.6020    10.6910      .4320    10.1390
  226.9236     2.2180   362.1320    11.5920      .4290    10.3280
  227.0760     2.2260   352.0570    12.9930      .4320    10.4240
  227.2284     2.2070   352.2060    14.4940      .4360    10.1390
  227.3808     2.1830   360.6730    14.7940      .4250     9.5050
  227.5332     2.1600   372.0780    14.2930      .4230     8.8290
  227.6856     2.1200   385.1080    13.9930      .4340     8.3530
  227.8380     2.0910   397.9040    14.8940      .4450     7.9760
  227.9904     2.0810   407.4260    15.8950      .4420     7.6870
  228.1428     2.0840   412.8570    15.7950      .4440     7.4090
  228.2952     2.0980   414.0530    15.5940      .4600     7.2060
  228.4476     2.1200   408.9600    16.6950      .4600     7.0750
  228.6000     2.1490   395.5920    17.8960      .4330     7.0100
  228.7524     2.1950   377.3660    19.1970      .4020     7.0100
  228.9048     2.2550   359.5350    17.8960      .3600     7.0750
  229.0572     2.3190   346.2510    16.2950      .3350     7.3410
  229.2096     2.3120   338.8770    15.2940      .3210     7.6870
  229.3620     2.3010   333.2450    14.7940      .3140     8.5090
  229.5144     2.3120   325.4710    14.7940      .3140     9.2450
  229.6668     2.3420   314.3770    15.0940      .3070     9.1610
  229.8192     2.3780   300.0140    14.2930      .2950     9.5050
  229.9716     2.3960   285.2980    13.9930      .2910    10.8160
  230.1240     2.4170   273.5330    13.5930      .2900    12.3080
  230.2764     2.4170   266.9900    14.2930      .2980    14.2660
  230.4288     2.4060   265.4090    14.1930      .3070    15.6460
  230.5812     2.3920   265.4700    14.5940      .3080    16.2340
  230.7336     2.3840   264.3800    14.8940      .3030    15.6460
  230.8860     2.3870   262.9680    13.7930      .2810    15.0780
  231.0384     2.3950   263.6250    14.1930      .2740    14.8030
  231.1908     2.3920   268.4040    14.1930      .2730    14.8030
  231.3432     2.3770   275.4930    13.2930      .2790    14.5320
  231.4956     2.3700   279.5190    12.5920      .2810    14.3990
  231.6480     2.3920   278.0120    12.6920      .2820    14.8030
  231.8004     2.4000   273.4680    13.2930      .2820    15.0780
  231.9528     2.3730   269.4550    13.6930      .2940    14.6670
  232.1052     2.3710   267.6770    14.9940      .3150    14.1350
  232.2576     2.3710   267.1990    14.8940      .3180    14.2660
  232.4100     2.3630   268.1900    14.3940      .3310    13.4980
  232.5624     2.3690   270.8140    13.7930      .3300    12.6530
  232.7148     2.3590   273.3610    13.6930      .3180    11.9720
  232.8672     2.3610   276.4220    13.6930      .3170    11.9720
  233.0196     2.3400   280.3190    12.9930      .3150    12.0830
  233.1720     2.3410   284.7080    12.8920      .3220    11.7530
  233.3244     2.3450   289.2940    12.6920      .3320    11.5380
  233.4768     2.3330   293.1780    12.6920      .3430    10.4240
  233.6292     2.3180   294.6910    12.8920      .3490     9.2450
  233.7816     2.3460   292.1190    12.8920      .3370     9.1610
  233.9340     2.3690   290.8440    14.3940      .3300    12.3080
  234.0864     2.3740   293.6320    14.8940      .3260    14.8030
  234.2388     2.3630   296.1570    15.1940      .3380    14.0050
  234.3912     2.3160   295.2410    16.3950      .3470    16.6900
  234.5436     2.3420   289.6220    17.3960      .3520    16.2340
  234.6960     2.3370   281.9710    17.2960      .3420    13.4980
  234.8484     2.3610   276.9470    14.9940      .3140    11.4320
  235.0008     2.3520   274.3660    13.7930      .3060     9.9540
  235.1532     2.3100   275.3110    12.8920      .3060     9.4180
  235.3056     2.2670   289.7390    12.8920      .3240     9.7720
  235.4580     2.1990   322.4300    13.0930      .3590     9.7720
  235.6104     2.1050   356.7310    12.8920      .4080     9.4180
  235.7628     2.0380   372.7430    13.7930      .4290     8.4310
  235.9152     2.0830   366.2940    14.8940      .4030     7.6170
  236.0676     2.2560   342.0980    15.2940      .3660     8.0500
  236.2200     2.3700   313.8630    13.8930      .3430     9.5930
  236.3724     2.3880   292.9380    14.2930      .3190    11.3270
  236.5248     2.3840   278.4160    16.9950      .3150    12.4220
  236.6772     2.3880   270.9520    19.0970      .3130    12.7710
  236.8296     2.3880   272.8550    19.5970      .3110    11.7530
  236.9820     2.3670   279.6960    18.7970      .3150    10.2330
  237.1344     2.3270   289.6220    18.8970      .3290     9.1610
  237.2868     2.3080   301.9770    19.2970      .3540     8.0500
  237.4392     2.2870   314.1760    17.4960      .3740     7.0100
  237.5916     2.2480   323.1290    17.8960      .3810     6.1600
  237.7440     2.2390   328.7410    19.0970      .3820     5.6170
  237.8964     2.2390   336.7860    18.6970      .3940     5.4130
  238.0488     2.2400   349.1400    16.6950      .4050     5.3140
