~VERSION INFORMATION
VERS.                                                 2.0:   CWLS Log ASCII Standard-VERSION 2.0
WRAP.                                                  NO:   One line per depth step
~Well Information Block
STRT.M                                            15.0876:   Top Depth
STOP.M                                           669.0360:   Bottom Depth
STEP.M                                             .15240:   Depth Increment
NULL.                                            -999.250:   Null Value
FLD .                                               NATIH:   Field Name
WELL.                                      NATIH WSW-13H1:   NAME
EDF .                                              231.32:   ELEV DRILL FLOOR
EPD .                                                   0:   ELEV PERM DATUM
EGL .                                              226.75:   GROUND LEVEL
COMP.                          Petroleum Development Oman:   OPERATOR
PDAT.                                                 MSL:   PERM DATUM
COUN.                                             RIG05_1:   RIG NAME
SPUD.                                          1980/03/02:   SPUD DATE
LATI.                                         22.46529137:   SURF. LATITUDE
LONG.                                         56.71960289:   SURF. LONGITUDE
UTME.                                           471151.72:   SURF. UTM E
UTMN.                                          2484147.59:   SURF. UTM N
~PARAMETER INFORMATION (log)
LNAM.                                              PUBLIC:   NAME
LTYP.                                              JOINED:   LOG TYPE
LSRV.                                            CLEAN UP:   SERVICE
LSOU.                                              TARGET:   LOG SOURCE
LVSN.                                                   1:   LOG VERSION
BHIS.                                                   R:   BRIEF HISTORY
TDD .M                                             694.94:   FINAL TD DRILLER
TDL .M                                             665.68:   FINAL TD LOGGER
FHIS.                                             RAW-LAS:   FULL HISTORY
~Curve Information Block
#MNEM.UNIT                                        API CODE    No Description
#=========                                        ========    == ===========
DEPT.M                                       00 001 00 00:     1  DEPTH
DEN.G/C3                                                 :     2  Bulk Density
DT.US/M                                                  :     3  Sonic (Compressional)
GR.API                                                   :     4  Gamma Ray
NEU.V/V                                                  :     5  Neutron Porosity in Limestone Units
RES_DEP.OHMM                                             :     6  Resistivity Deep
~ASCII
# ...
  405.5364     2.1260   367.4200    15.0940      .4440     5.7750
  405.6888     2.1450   365.5780    15.5940      .4220     5.5650
  405.8412     2.1590   363.1410    16.7950      .3940     5.4130
  405.9936     2.1850   359.3670    15.8950      .3820     5.1690
  406.1460     2.2200   354.4420    16.0950      .3750     5.0280
  406.2984     2.2310   349.2840    16.0950      .3660     4.9820
  406.4508     2.2550   346.0070    15.5940      .3430     4.9820
  406.6032     2.2630   344.7280    15.2940      .3430     5.1220
  406.7556     2.2580   343.8530    15.5940      .3340     5.2660
  406.9080     2.2560   341.6130    16.1950      .3240     5.2660
  407.0604     2.2580   338.0060    14.2930      .3240     4.8910
  407.2128     2.2610   335.2580    14.4940      .3290     4.2980
  407.3652     2.2510   335.1300    15.1940      .3260     4.2590
  407.5176     2.2620   336.3980    15.2940      .3270     4.2980
  407.6700     2.2520   340.1100    14.8940      .3390     3.9920
  407.8224     2.2470   348.1090    15.3940      .3500     4.1040
  407.9748     2.2170   359.5840    15.5940      .3660     4.3380
  408.1272     2.2030   371.4280    16.2950      .3790     4.7140
  408.2796     2.1660   374.8090    16.4950      .4050     5.0280
  408.4320     2.1460   364.5230    15.0940      .4370     5.3140
  408.5844     2.1340   346.2930    13.3930      .4450     5.7750
  408.7368     2.1840   328.5640    12.5920      .4260     6.9450
  408.8892     2.2280   318.0160    12.7920      .3960     8.5090
  409.0416     2.2470   315.9160    13.3930      .3690    10.1390
  409.1940     2.2470   316.2080    13.5930      .3830    11.1200
  409.3464     2.2210   312.9040    13.1930      .3910    11.4320
  409.4988     2.1980   308.1730    13.6930      .3950    10.6180
  409.6512     2.1920   306.2640    14.0930      .4070     9.5930
  409.8036     2.1870   307.0390    14.2930      .4030     9.1610
  409.9560     2.2110   312.0720    13.4930      .3990     8.9930
  410.1084     2.2360   321.4930    13.3930      .4000     8.6670
  410.2608     2.2290   329.8920    13.6930      .4090     8.2000
  410.4132     2.2510   333.5060    14.6940      .4180     7.5470
  410.5656     2.2500   332.8420    15.8950      .4270     6.8180
  410.7180     2.2420   330.7320    15.8950      .4270     6.2750
  410.8704     2.2470   330.6450    16.2950      .4120     5.8820
  411.0228     2.2400   337.1120    16.7950      .3830     5.5650
  411.1752     2.2340   350.5910    18.1960      .3760     5.4130
  411.3276     2.2020   359.7370    20.0980      .3830     5.3140
  411.4800     2.1690   354.9060    21.6990      .4040     5.3140
  411.6324     2.1460   342.5740    21.0980      .4260     5.6170
  411.7848     2.1350   329.5940    20.2980      .4300     6.5110
  411.9372     2.1500   315.0460    21.0980      .4390     6.5110
  412.0896     2.1620   308.5850    21.5990      .4410     6.5710
  412.2420     2.1690   315.8840    18.5970      .4370     7.7590
  412.3944     2.1820   323.4600    16.0950      .4000     8.3530
  412.5468     2.2270   317.8390    15.0940      .3780     8.8290
  412.6992     2.2940   306.8150    14.5940      .3640     9.1610
  412.8516     2.2960   302.8480    15.3940      .3560     9.4180
  413.0040     2.2790   306.8060    15.6940      .3600     9.4180
  413.1564     2.2680   313.7040    15.8950      .3790     9.5050
  413.3088     2.2500   318.1230    17.0960      .3940     9.4180
  413.4612     2.2440   318.1170    17.1950      .3810     9.2450
  413.6136     2.2760   316.1060    16.8950      .3650     9.1610
  413.7660     2.2980   316.0330    16.2950      .3670     9.1610
  413.9184     2.2720   320.3060    14.3940      .3730     9.1610
  414.0708     2.2590   327.6300    13.8930      .3890     8.9930
  414.2232     2.2450   334.6930    13.7930      .4120     8.5870
  414.3756     2.2320   338.8110    14.4940      .4360     7.9760
  414.5280     2.2210   339.5590    14.1930      .4380     7.3410
  414.6804     2.2020   337.9090    14.5940      .4430     6.8180
  414.8328     2.1880   336.1410    15.6940      .4320     6.4510
  414.9852     2.1860   337.0600    16.2950      .4170     6.2750
  415.1376     2.1930   341.4740    17.6960      .4150     6.1600
  415.2900     2.1630   346.2700    18.8970      .4240     6.1030
  415.4424     2.1510   348.0340    18.8970      .4180     6.0470
  415.5948     2.1630   344.7530    18.5970      .3990     5.8820
  415.7472     2.1850   338.2430    17.8960      .3830     5.8820
  415.8996     2.2200   333.4450    19.0970      .3820     5.9370
  416.0520     2.2190   333.1080    19.4970      .3720     5.8820
  416.2044     2.2070   335.1140    19.4970      .3720     5.8280
  416.3568     2.2250   336.3500    18.9970      .3810     5.7750
  416.5092     2.2160   337.8720    21.0980      .3890     5.8280
  416.6616     2.2020   340.5640    22.5990      .3970     5.8280
  416.8140     2.2030   342.8160    22.3990      .4020     5.8820
  416.9664     2.2160   342.7740    22.1990      .4100     5.9920
  417.1188     2.2190   338.7280    21.3990      .4030     5.9370
  417.2712     2.2510   331.2830    21.2990      .3910     5.8820
  417.4236     2.2660   324.8110    21.4990      .3700     5.9370
  417.5760     2.2560   322.1480    22.2990      .3740     6.0470
  417.7284     2.2460   321.8560    23.0000      .3700     6.1600
  417.8808     2.2600   322.5790    23.0000      .3410     6.3330
  418.0332     2.2660   323.8770    23.1000      .3430     6.5110
  418.1856     2.2550   324.1490    22.6990      .3600     6.4510
  418.3380     2.2550   321.6760    22.6990      .3600     6.2170
  418.4904     2.2630   317.0380    21.9990      .3650     6.1030
  418.6428     2.2960   311.0220    20.1980      .3670     6.1030
  418.7952     2.3020   305.8940    21.3990      .3530     6.2750
  418.9476     2.3310   304.5100    22.4990      .3410     6.4510
  419.1000     2.3400   305.6930    22.9000      .3280     6.6940
  419.2524     2.3670   307.4010    22.2990      .3190     6.8180
  419.4048     2.3450   308.0220    22.0990      .3350     6.8180
  419.5572     2.3070   306.7740    22.6990      .3540     6.8180
  419.7096     2.2960   304.5740    22.0990      .3750     6.8180
  419.8620     2.3020   302.2520    21.3990      .3930     6.6940
  420.0144     2.3160   301.1820    20.4980      .4120     6.5710
  420.1668     2.3080   303.2170    19.7970      .4170     6.4510
  420.3192     2.3130   309.3740    19.8970      .4040     6.2170
  420.4716     2.2880   318.8590    19.4970      .3970     5.9920
  420.6240     2.2640   327.8300    19.3970      .3910     5.7220
  420.7764     2.2320   335.7150    18.4970      .4070     5.2170
  420.9288     2.2200   347.0710    17.4960      .4250     4.8010
  421.0812     2.2030   363.9940    16.8950      .4530     4.8910
  421.2336     2.1550   384.1900    18.3960      .4680     4.7140
  421.3860     2.1120   403.0230    19.9970      .4820     4.4190
  421.5384     2.0780   416.0750    20.0980      .4810     4.2190
  421.6908     2.0390   423.1780    19.7970      .4910     4.0670
  421.8432     2.0180   426.1660    19.6970      .5030     3.9920
  421.9956     2.0270   426.6920    21.0980      .5120     3.9190
  422.1480     2.0300   426.7840    23.1000      .4880     3.8830
  422.3004     2.0320   427.2840    23.1000      .4750     3.8830
  422.4528     2.0400   427.3410    21.9990      .4620     3.9190
  422.6052     2.0310   425.6160    20.8980      .4780     3.9920
  422.7576     2.0340   422.2170    21.0980      .4830     4.0670
  422.9100     2.0400   418.8090    19.9970      .4900     4.1810
  423.0624     2.0480   416.5730    18.0960      .4740     4.2980
  423.2148     2.0560   415.9210    18.0960      .4550     4.4190
  423.3672     2.0580   416.0930    18.1960      .4540     4.5430
  423.5196     2.0610   415.5140    18.2960      .4490     4.6700
  423.6720     2.0650   412.2890    16.7950      .4650     4.7570
  423.8244     2.0700   404.7320    15.4940      .4680     4.8460
  423.9768     2.0860   394.1610    15.7950      .4410     4.9360
