~VERSION INFORMATION
VERS.                                                 2.0:   CWLS Log ASCII Standard-VERSION 2.0
WRAP.                                                  NO:   One line per depth step
~Well Information Block
STRT.M                                            15.0876:   Top Depth
STOP.M                                           669.0360:   Bottom Depth
STEP.M                                             .15240:   Depth Increment
NULL.                                            -999.250:   Null Value
FLD .                                               NATIH:   Field Name
WELL.                                      NATIH WSW-13H1:   NAME
EDF .                                              231.32:   ELEV DRILL FLOOR
EPD .                                                   0:   ELEV PERM DATUM
EGL .                                              226.75:   GROUND LEVEL
COMP.                          Petroleum Development Oman:   OPERATOR
PDAT.                                                 MSL:   PERM DATUM
COUN.                                             RIG05_1:   RIG NAME
SPUD.                                          1980/03/02:   SPUD DATE
LATI.                                         22.46529137:   SURF. LATITUDE
LONG.                                         56.71960289:   SURF. LONGITUDE
UTME.                                           471151.72:   SURF. UTM E
UTMN.                                          2484147.59:   SURF. UTM N
~PARAMETER INFORMATION (log)
LNAM.                                              PUBLIC:   NAME
LTYP.                                              JOINED:   LOG TYPE
LSRV.                                            CLEAN UP:   SERVICE
LSOU.                                              TARGET:   LOG SOURCE
LVSN.                                                   1:   LOG VERSION
BHIS.                                                   R:   BRIEF HISTORY
TDD .M                                             694.94:   FINAL TD DRILLER
TDL .M                                             665.68:   FINAL TD LOGGER
FHIS.                                             RAW-LAS:   FULL HISTORY
~Curve Information Block
#MNEM.UNIT                                        API CODE    No Description
#=========                                        ========    == ===========
DEPT.M                                       00 001 00 00:     1  DEPTH
DEN.G/C3                                                 :     2  Bulk Density
DT.US/M                                                  :     3  Sonic (Compressional)
GR.API                                                   :     4  Gamma Ray
NEU.V/V                                                  :     5  Neutron Porosity in Limestone Units
RES_DEP.OHMM                                             :     6  Resistivity Deep
~ASCII
# ...
  275.3868     2.2240   370.9110    10.1910      .4080    12.8890
  275.5392     2.2200   370.2970    10.6910      .3960    13.1290
  275.6916     2.2430   366.1380    11.3910      .3850    12.8890
  275.8440     2.2360   363.5270    12.0920      .4030    13.1290
  275.9964     2.2250   365.8110    13.8930      .4250    12.7710
  276.1488     2.2110   371.8350    14.1930      .4360    12.1950
  276.3012     2.2000   379.2830    13.9930      .4320    11.6450
  276.4536     2.1830   385.9860    13.5930      .4430    10.9160
  276.6060     2.1670   391.1030    13.5930      .4340    10.3280
  276.7584     2.1660   394.7520    13.9930      .4410     9.7720
  276.9108     2.1660   397.1940    14.2930      .4520     9.3310
  277.0632     2.1460   399.4300    13.6930      .4710     8.7480
  277.2156     2.1220   404.1400    13.6930      .4660     7.9030
  277.3680     2.1020   410.6030    15.1940      .4700     7.5470
  277.5204     2.0840   411.4580    15.3940      .4800     7.2060
  277.6728     2.0820   405.0850    15.3940      .4630     6.9450
  277.8252     2.0780   399.3370    15.2940      .4630     6.7550
  277.9776     2.0620   395.2950    15.0940      .4660     6.5110
  278.1300     2.0530   389.3010    15.7950      .4680     6.3920
  278.2824     2.0620   379.1220    15.1940      .4730     6.3330
  278.4348     2.0800   366.8530    15.6940      .4910     6.3330
  278.5872     2.0720   357.9050    15.9950      .4970     6.4510
  278.7396     2.0620   353.8860    15.7950      .4820     6.3920
  278.8920     2.0740   352.6740    15.0940      .4790     6.3330
  279.0444     2.0590   352.8590    14.7940      .4860     6.1030
  279.1968     2.0230   355.1890    14.9940      .5020     5.8280
  279.3492     2.0230   358.4480    15.8950      .4980     5.6690
  279.5016     2.0120   360.6250    15.5940      .5090     5.4640
  279.6540     2.0000   362.9320    14.3940      .5250     5.1690
  279.8064     2.0000   365.7600    14.1930      .5360     5.1220
  279.9588     2.0070   368.5840    15.2940      .5260     5.1690
  280.1112     2.0040   370.1900    16.9950      .5240     5.0750
  280.2636     2.0080   369.9060    18.1960      .5100     4.8910
  280.4160     1.9850   367.4970    18.3960      .5020     4.8460
  280.5684     1.9870   362.5820    17.6960      .4890     4.8460
  280.7208     1.9980   356.2540    17.3960      .4810     4.8910
  280.8732     2.0070   351.2500    17.4960      .4760     4.9820
  281.0256     2.0090   349.0070    17.0960      .4760     5.0750
  281.1780     2.0210   348.7900    15.0940      .4820     5.0750
  281.3304     2.0250   349.4440    14.4940      .4750     5.0750
  281.4828     2.0470   349.6530    14.3940      .4600     5.0280
  281.6352     2.0280   349.7390    15.2940      .4590     5.0750
  281.7876     2.0300   350.7540    15.2940      .4710     5.0750
  281.9400     2.0450   352.6880    13.9930      .4870     5.0750
  282.0924     2.0580   354.2260    13.5930      .4940     5.0750
  282.2448     2.0480   355.3190    13.4930      .5110     5.0750
  282.3972     2.0570   357.3780    13.1930      .5120     5.0750
  282.5496     2.0810   358.6200    13.0930      .4960     5.1220
  282.7020     2.0900   358.2620    12.8920      .4930     5.1690
  282.8544     2.0910   356.4570    12.8920      .4980     5.1220
  283.0068     2.1270   350.7640    13.3930      .4840     5.0750
  283.1592     2.1600   341.1670    14.7940      .4660     5.1220
  283.3116     2.1760   335.5460    16.3950      .4570     5.2170
  283.4640     2.1620   345.1120    17.8960      .4500     5.4640
  283.6164     2.1460   362.8310    18.4970      .4360     5.6690
  283.7688     2.1740   371.5970    18.8970      .4020     5.7750
  283.9212     2.2190   379.4600    19.0970      .3750     5.8820
  284.0736     2.2460   393.7420    19.3970      .3770     6.1600
  284.2260     2.2380   406.8810    19.7970      .3870     6.4510
  284.3784     2.2000   418.0830    19.9970      .4110     6.4510
  284.5308     2.1760   431.3330    19.4970      .4480     6.4510
  284.6832     2.1380   448.4790    20.5980      .4680     6.5110
  284.8356     2.0960   466.3000    22.0990      .4820     6.3920
  284.9880     2.0970   475.1470    21.7990      .4860     6.2750
  285.1404     2.1050   468.5380    21.9990      .4790     6.1030
  285.2928     2.1210   452.8590    21.3990      .4610     5.8820
  285.4452     2.1390   437.3800    20.2980      .4660     5.8280
  285.5976     2.1460   423.8490    21.3990      .4520     5.7220
  285.7500     2.1460   414.1170    21.9990      .4410     5.6170
  285.9024     2.1280   410.8780    21.3990      .4390     5.4640
  286.0548     2.1150   412.9060    20.6980      .4370     5.3640
  286.2072     2.1020   416.3300    20.2980      .4320     5.1690
  286.3596     2.1340   418.9630    18.0960      .4490     4.9820
  286.5120     2.1490   421.2980    16.6950      .4490     4.8910
  286.6644     2.1350   424.2170    17.6960      .4280     4.8460
  286.8168     2.1270   427.3390    18.1960      .4200     4.7140
  286.9692     2.1300   429.2140    18.2960      .4160     4.6270
  287.1216     2.1270   429.6110    20.1980      .4170     4.5430
  287.2740     2.1230   430.3630    21.1980      .4210     4.3780
  287.4264     2.1180   431.2030    21.7990      .4230     4.2980
  287.5788     2.0880   431.5830    24.0000      .4420     4.1810
  287.7312     2.0970   433.0420    24.1010      .4560     4.1040
  287.8836     2.0910   439.3120    23.7000      .4690     4.0670
  288.0360     2.0740   455.7010    23.4000      .4740     4.0290
  288.1884     2.0720   478.8740    22.6990      .4700     4.0290
  288.3408     2.0690   498.6520    24.0000      .4630     3.9190
  288.4932     2.0500   495.7400    25.4010      .4440     3.8120
  288.6456     2.0290   456.8220    26.7020      .4290     3.7420
  288.7980     1.9690   405.9750    28.3030      .4190     3.7770
  288.9504     1.8760   363.9370    29.0040      .4170     3.7770
  289.1028     1.7910   341.7160    28.2040      .4320     3.8120
  289.2552     1.6920   328.0150    27.3030      .4520     3.9190
  289.4076     1.6840   315.6580    26.7020      .4590     3.9190
  289.5600     1.7650   322.2980    26.7020      .4670     3.9550
  289.7124     1.8500   351.5520    26.1020      .4640     4.1420
  289.8648     1.9510   384.8890    26.3020      .4380     4.3780
  290.0172     2.0240   395.7120    25.8020      .4110     4.6700
  290.1696     2.0720   398.9080    25.4010      .4130     5.2660
  290.3220     2.1150   419.0460    25.7020      .4340     5.9370
  290.4744     2.1350   428.2410    26.6020      .4490     6.5710
  290.6268     2.1260   417.4120    27.4030      .4700     7.2060
  290.7792     2.1130   402.3460    28.5040      .4790     7.3410
  290.9316     2.1250   391.8160    29.7050      .4700     7.0750
  291.0840     2.1180   387.8730    28.7040      .4340     6.8180
  291.2364     2.1130   389.6850    28.2040      .4180     6.8180
  291.3888     2.1140   394.8920    28.6040      .4290     6.8180
  291.5412     2.0860   400.2780    27.7030      .4470     6.7550
  291.6936     2.0150   404.0100    27.0030      .4510     6.6940
  291.8460     2.0000   408.0750    28.3030      .4470     6.4510
  291.9984     1.9910   419.5190    29.3040      .4350     6.1600
  292.1508     2.0230   437.8040    31.3060      .4300     5.9920
  292.3032     2.0460   442.9720    31.6060      .4390     5.8820
  292.4556     2.0680   426.6350    28.6040      .4410     5.8820
  292.6080     2.0930   406.2030    28.0030      .4550     6.0470
  292.7604     2.0850   408.6680    28.6040      .4530     6.2750
  292.9128     2.0580   439.7860    29.2040      .4410     6.3330
  293.0652     2.0480   470.4140    30.0050      .4250     6.3330
  293.2176     2.0280   476.2820    29.1040      .4230     6.1600
  293.3700     1.9970   478.8810    28.1030      .4380     6.0470
  293.5224     1.9800   496.3440    28.7040      .4440     6.0470
  293.6748     1.9860   502.5210    29.7050      .4330     6.0470
  293.8272     1.9920   481.0940    29.3040      .4130     5.8820
