~VERSION INFORMATION
VERS.                                                 2.0:   CWLS Log ASCII Standard-VERSION 2.0
WRAP.                                                  NO:   One line per depth step
~Well Information Block
STRT.M                                            15.0876:   Top Depth
STOP.M                                           669.0360:   Bottom Depth
STEP.M                                             .15240:   Depth Increment
NULL.                                            -999.250:   Null Value
FLD .                                               NATIH:   Field Name
WELL.                                      NATIH WSW-13H1:   NAME
EDF .                                              231.32:   ELEV DRILL FLOOR
EPD .                                                   0:   ELEV PERM DATUM
EGL .                                              226.75:   GROUND LEVEL
COMP.                          Petroleum Development Oman:   OPERATOR
PDAT.                                                 MSL:   PERM DATUM
COUN.                                             RIG05_1:   RIG NAME
SPUD.                                          1980/03/02:   SPUD DATE
LATI.                                         22.46529137:   SURF. LATITUDE
LONG.                                         56.71960289:   SURF. LONGITUDE
UTME.                                           471151.72:   SURF. UTM E
UTMN.                                          2484147.59:   SURF. UTM N
~PARAMETER INFORMATION (log)
LNAM.                                              PUBLIC:   NAME
LTYP.                                              JOINED:   LOG TYPE
LSRV.                                            CLEAN UP:   SERVICE
LSOU.                                              TARGET:   LOG SOURCE
LVSN.                                                   1:   LOG VERSION
BHIS.                                                   R:   BRIEF HISTORY
TDD .M                                             694.94:   FINAL TD DRILLER
TDL .M                                             665.68:   FINAL TD LOGGER
FHIS.                                             RAW-LAS:   FULL HISTORY
~Curve Information Block
#MNEM.UNIT                                        API CODE    No Description
#=========                                        ========    == ===========
DEPT.M                                       00 001 00 00:     1  DEPTH
DEN.G/C3                                                 :     2  Bulk Density
DT.US/M                                                  :     3  Sonic (Compressional)
GR.API                                                   :     4  Gamma Ray
NEU.V/V                                                  :     5  Neutron Porosity in Limestone Units
RES_DEP.OHMM                                             :     6  Resistivity Deep
~ASCII
# ...
  517.0932  -999.2500  -999.2500    19.3100      .4100     2.3160
  517.2456  -999.2500  -999.2500    22.1110      .4340     2.3370
  517.3980  -999.2500  -999.2500    25.3130      .4350     2.2950
  517.5504  -999.2500  -999.2500    29.0140      .4460     2.2320
  517.7028  -999.2500  -999.2500    32.9170      .4570  -999.2500
  517.8552  -999.2500  -999.2500    34.6170      .4410  -999.2500
  518.0076  -999.2500  -999.2500    35.5180      .4450  -999.2500
  518.1600  -999.2500   196.4660    36.6180      .4480     3.2210
  518.3124  -999.2500   211.8510    42.0210      .4340     2.7800
  518.4648  -999.2500   243.7050    48.3240      .4490     3.5320
  518.6172  -999.2500   285.1250    51.6260      .4630     3.4040
  518.7696  -999.2500   327.1880    52.3260      .4420      .9120
  518.9220  -999.2500   358.7240    52.4260      .4390     1.0760
  519.0744  -999.2500   372.5530    52.1260      .4390     1.3930
  519.2268  -999.2500   373.3150    47.6240      .4270     2.2700
  519.3792  -999.2500   365.1490    44.4220      .4040     2.3770
  519.5316  -999.2500   353.6540    38.7190      .3810     2.3990
  519.6840  -999.2500   344.9350    32.8160      .3760     2.8580
  519.8364  -999.2500   339.6090    32.4160      .3650     2.2910
  519.9888  -999.2500   334.6520    32.9170      .3650     2.3120
  520.1412  -999.2500   330.0150    31.5160      .3590     2.3990
  520.2936  -999.2500   329.4950    32.7160      .3350     2.4660
  520.4460  -999.2500   334.3710    34.0170      .3260     2.4430
  520.5984  -999.2500   342.2060    33.4170      .3340     2.3990
  520.7508  -999.2500   347.8840    34.3170      .3360     2.1680
  520.9032  -999.2500   350.2310    35.1180      .3130     1.9410
  521.0556  -999.2500   357.5310    36.3180      .3030     1.7060
  521.2080  -999.2500   376.1950    37.2190      .3420     1.5420
  521.3604  -999.2500   411.4740    35.9180      .4130     1.3430
  521.5128  -999.2500   442.7780    35.5180      .4720     1.1800
  521.6652  -999.2500   431.7000    35.2180      .4890     1.0960
  521.8176  -999.2500   388.6120    37.7190      .4850     1.0380
  521.9700  -999.2500   360.6470    39.3200      .4700     1.0280
  522.1224  -999.2500   382.6210    39.9200      .4820     1.1070
  522.2748  -999.2500   422.3090    40.0200      .4950     1.2130
  522.4272  -999.2500   418.6990    39.2200      .5030     1.3430
  522.5796  -999.2500   371.3420    37.0190      .4870     1.5140
  522.7320  -999.2500   330.3540    36.9180      .4350     1.7380
  522.8844  -999.2500   313.1210    35.8180      .3470     2.0320
  523.0368  -999.2500   308.5840    35.3180      .2810     2.4660
  523.1892  -999.2500   300.3360    33.6170      .2680     2.8050
  523.3416  -999.2500   285.3960    29.3150      .2450     2.9920
  523.4940  -999.2500   261.2680    25.4130      .2290     3.1330
  523.6464  -999.2500   251.6790    23.8120      .2260     3.1620
  523.7988  -999.2500   278.2690    26.5130      .2490     2.7540
  523.9512  -999.2500   307.6220    29.1150      .2820     2.6300
  524.1036  -999.2500   318.9020    31.7160      .3070     2.7290
  524.2560  -999.2500   320.2680    30.3150      .3230     2.2910
  524.4084  -999.2500   318.9040    27.8140      .3280     2.0890
  524.5608  -999.2500   321.7650    28.9140      .3230     1.9950
  524.7132  -999.2500   335.1650    30.0150      .3150     1.9770
  524.8656  -999.2500   350.9830    31.2160      .3100     2.0700
  525.0180  -999.2500   366.9910    32.0160      .3190     2.1880
  525.1704  -999.2500   393.3040    31.2160      .3580     2.3330
  525.3228  -999.2500   399.2270    29.9150      .3710     2.4210
  525.4752  -999.2500   363.4410    29.1150      .3470     2.5120
  525.6276  -999.2500   312.9080    27.8140      .2860     2.6790
  525.7800  -999.2500   286.8500    27.2140      .2250     2.9380
  525.9324  -999.2500   291.6470    27.3140      .2290     3.1620
  526.0848  -999.2500   308.0010    28.9140      .2630     3.3420
  526.2372  -999.2500   322.9570    30.4150      .2880     3.3730
  526.3896  -999.2500   331.3480    30.5150      .2950     3.4040
  526.5420  -999.2500   333.0110    29.2150      .2950     3.4990
  526.6944  -999.2500   330.5310    30.5150      .2850     3.7330
  526.8468  -999.2500   325.6960    32.1160      .2720     3.9810
  526.9992  -999.2500   319.1560    35.0180      .2460     4.2070
  527.1516  -999.2500   311.1900    36.7180      .2160     4.3650
  527.3040  -999.2500   304.3980    40.0200      .2010     4.2070
  527.4564  -999.2500   301.3460    38.2190      .1960     3.6310
  527.6088  -999.2500   308.2910    34.2170      .1940     3.2810
  527.7612  -999.2500   337.9640    31.4160      .1980     2.8580
  527.9136  -999.2500   389.7100    33.2170      .2280     2.4890
  528.0660  -999.2500   445.1220    36.1180      .2940     1.9770
  528.2184  -999.2500   479.7690    38.2190      .3780     1.5420
  528.3708  -999.2500   488.2780    38.1190      .4070     1.2590
  528.5232  -999.2500   487.0340    37.7190      .4070     1.2710
  528.6756  -999.2500   487.7170    34.4170      .4240     1.2590
  528.8280  -999.2500   503.0800    32.1160      .4720     1.3930
  528.9804  -999.2500   500.5650    31.8160      .5270     1.5140
  529.1328  -999.2500   453.1240    33.6170      .5140     1.6600
  529.2852  -999.2500   398.4320    31.9160      .4440     1.8880
  529.4376  -999.2500   356.9740    30.4150      .2780     2.2910
  529.5900  -999.2500   321.4180    31.8160      .1770     3.2510
  529.7424  -999.2500   291.4530    30.0150      .1620     5.1050
  529.8948  -999.2500   267.5760    29.5150      .1440     7.4470
  530.0472  -999.2500   253.7540    30.4150      .1340     9.4620
  530.1996  -999.2500   259.5730    32.3160      .1420     9.9080
  530.3520  -999.2500   269.2950    33.4170      .1550     9.0360
  530.5044  -999.2500   273.6880    34.5170      .1640     7.7270
  530.6568  -999.2500   277.1350    35.9180      .1690     6.9820
  530.8092  -999.2500   281.4930    36.2180      .1800     6.4270
  530.9616  -999.2500   287.9180    35.6180      .1970     5.8080
  531.1140  -999.2500   292.0440    38.3190      .2080     4.6130
  531.2664  -999.2500   292.4220    40.1200      .2160     4.0550
  531.4188  -999.2500   295.7960    41.4210      .2330     3.6640
  531.5712  -999.2500   304.4980    41.8210      .2600     2.9650
  531.7236  -999.2500   318.7060    45.5230      .3100     2.6300
  531.8760  -999.2500   343.0170    45.3230      .3740     2.5120
  532.0284  -999.2500   374.0170    44.5220      .4000     2.4890
  532.1808  -999.2500   396.9150    42.9210      .3960     2.5590
  532.3332  -999.2500   413.7340    39.6200      .4170     2.7290
  532.4856  -999.2500   427.2940    36.3180      .3940     2.7800
  532.6380  -999.2500   419.5740    35.5180      .3150     2.9110
  532.7904  -999.2500   391.2190    33.7170      .2870     3.2810
  532.9428  -999.2500   351.1700    32.6160      .2890     3.4040
  533.0952  -999.2500   318.2510    33.1170      .2790     3.3110
  533.2476  -999.2500   322.3250    35.7180      .2800     3.3730
  533.4000  -999.2500   360.8360    38.7190      .3080     2.6550
  533.5524  -999.2500   425.9540    39.9200      .3420     2.1090
  533.7048  -999.2500   485.0410    41.1210      .3680     1.7220
  533.8572  -999.2500   510.6630    44.5220      .4110     1.5000
  534.0096  -999.2500   511.7070    46.0230      .4700     1.3680
  534.1620  -999.2500   506.9590    44.4220      .5230     1.2590
  534.3144  -999.2500   505.4150    42.8210      .5430     1.2360
  534.4668  -999.2500   507.4060    42.3210      .5350     1.2470
  534.6192  -999.2500   495.5530    41.7210      .5210     1.2940
  534.7716  -999.2500   467.7630    40.1200      .5050     1.3930
  534.9240  -999.2500   460.6620    39.5200      .4560     1.5700
  535.0764  -999.2500   447.7030    39.1200      .4260     1.8200
  535.2288  -999.2500   400.0440    38.2190      .4120     2.1880
  535.3812  -999.2500   367.2540    37.3190      .3970     2.6300
  535.5336  -999.2500   371.7800    35.4180      .3760     3.0200
