~VERSION INFORMATION
VERS.                                                 2.0:   CWLS Log ASCII Standard-VERSION 2.0
WRAP.                                                  NO:   One line per depth step
~Well Information Block
STRT.M                                              .6096:   Top Depth
STOP.M                                          1141.9332:   Bottom Depth
STEP.M                                             .15240:   Depth Increment
NULL.                                            -999.250:   Null Value
FLD .                                               NATIH:   Field Name
WELL.                                          NATIH-85H1:   NAME
EDF .                                              214.53:   ELEV DRILL FLOOR
EPD .                                                   0:   ELEV PERM DATUM
EGL .                                              209.96:   GROUND LEVEL
COMP.                          PETROLEUM DEVELOPMENT OMAN:   OPERATOR
PDAT.                                                 MSL:   PERM DATUM
COUN.                                             RIG05_3:   RIG NAME
SPUD.                                          1990/12/20:   SPUD DATE
LATI.                                         22.42686054:   SURF. LATITUDE
LONG.                                         56.67231194:   SURF. LONGITUDE
UTME.                                           466276.93:   SURF. UTM E
UTMN.                                          2479903.71:   SURF. UTM N
~PARAMETER INFORMATION (log)
LNAM.                                              PUBLIC:   NAME
LTYP.                                              JOINED:   LOG TYPE
LSRV.                                            CLEAN UP:   SERVICE
LSOU.                                               FUGRO:   LOG SOURCE
LVSN.                                                   1:   LOG VERSION
BHIS.                                                   R:   BRIEF HISTORY
TDD .M                                            1165.00:   FINAL TD DRILLER
TDL .M                                            1151.00:   FINAL TD LOGGER
FHIS.                                             RAW-LAS:   FULL HISTORY
~Curve Information Block
#MNEM.UNIT                                        API CODE    No Description
#=========                                        ========    == ===========
DEPT.M                                       00 001 00 00:     1  DEPTH
DEN.G/CC                                                 :     2  Bulk Density
DT.US/M                                                  :     3  Acoustic log
GR.API                                                   :     4  Gamma Ray
NEU.V/V                                                  :     5  Neutron Porosity in Limestone Units
RES_DEP.OHMM                                             :     6  Resistivity Deep
~ASCII
# ...
 1060.3992     2.3127   407.7792    42.4173      .3109     1.7820
 1060.5516     2.3078   404.3284    33.3809      .3467     2.3273
 1060.7040     2.5751   400.8775    21.6230      .2289     4.2550
 1060.8564     2.5310   397.4267    19.3065      .1516     4.6474
 1061.0088     2.4649   416.9252    16.5743      .1269     4.0308
 1061.1612     2.4333   453.3426    15.6213      .1367     3.6164
 1061.3136     2.4613   468.1670    14.4903      .1468     3.3415
 1061.4660     2.4534   477.8291    14.9682      .1449     2.9898
 1061.6184     2.4349   472.0217    13.6599      .1464     2.7593
 1061.7708     2.4658   462.9492    12.2351      .1412     2.5697
 1061.9232     2.4391   452.5897    10.8049      .1479     2.3226
 1062.0756     2.4018   415.4863    11.3968      .1529     2.1623
 1062.2280     2.3535   399.9396    11.0390      .1699     2.0598
 1062.3804     2.3200   398.2447    12.3424      .1845     1.8988
 1062.5328     2.2794   405.6857    11.8677      .1931     1.7814
 1062.6852     2.3020   422.7468    13.2687      .2013     1.5813
 1062.8376     2.3297   433.5634    11.8280      .2069     1.4782
 1062.9900     2.2740   437.7357    13.4942      .2220     1.4877
 1063.1424     2.2515   467.9918    12.3358      .2131     1.5624
 1063.2948     2.2959   504.0613    13.7844      .2036     1.6037
 1063.4472     2.3359   504.0166    12.9549      .1893     1.5662
 1063.5996     2.3510   486.6229    13.5471      .1759     1.4615
 1063.7520     2.2575   466.8710    12.2397      .1926     1.3183
 1063.9044     2.2568   477.0295    12.4327      .2151     1.2381
 1064.0568     2.3115   487.2806    13.0290      .2389     1.2542
 1064.2092     2.3202   482.7628    12.0782      .2397     1.3663
 1064.3616     2.2726   474.0634    10.9344      .2437     1.4297
 1064.5140     2.3062   464.7909     9.7476      .2340     1.5023
 1064.6664     2.2899   452.1080    10.7004      .2329     1.6175
 1064.8188     2.2480   441.4583     9.5110      .2193     1.5366
 1064.9712     2.2490   432.8329    10.4645      .2191     1.4281
 1065.1236     2.2397   434.0060     9.0376      .2114     1.3292
 1065.2760     2.2286   434.6754    10.2285      .2110     1.2312
 1065.4284     2.2056   439.8991     9.2750      .2325     1.2199
 1065.5808     2.2136   447.2643     8.6805      .2473     1.1795
 1065.7332     2.2363   449.7004     8.4427      .2555     1.2056
 1065.8856     2.2501   454.7567     7.8823      .2315     1.1487
 1066.0380     2.2597   464.1784     8.7133      .2049     1.1015
 1066.1904     2.2741   478.2516     9.1857      .2048     1.0306
 1066.3428     2.2476   489.2724    10.1027      .2062     1.1259
 1066.4952     2.2350   489.7710    10.1027      .2286     1.3990
 1066.6476     2.3216   491.4785     9.7849      .2185     1.9685
 1066.8000     2.4403   484.7563    10.8526      .1808     2.4386
 1066.9524     2.5624   475.2214    11.5622      .1304     3.2422
 1067.1048     2.4881   471.5130    11.5252      .1148     2.4000
 1067.2572     2.4390   474.2061    10.0989      .1237     1.6268
 1067.4096     2.3505   481.0536     8.9881      .1478     1.4066
 1067.5620     2.2894   492.9786     9.3431      .1744     1.2792
 1067.7144     2.2248   503.9467     9.1053      .2089     1.5269
 1067.8668     2.2520   507.1720     9.4557      .2178     2.0120
 1068.0192     2.3086   504.8772    10.0535      .1931     2.6182
 1068.1716     2.4892   502.6196    10.1741      .1609     2.8870
 1068.3240     2.4784   497.4542    10.3467      .1499     2.1007
 1068.4764     2.4084   494.6489    10.6585      .1500     1.5286
 1068.6288     2.3924   498.2595     9.8262      .1635     1.2298
 1068.7812     2.2722   504.5786     9.5882      .1893     1.0703
 1068.9336     2.2272   507.7094     9.0404      .2136     1.0288
 1069.0860     2.2574   503.9076    10.2178      .2255     1.0468
 1069.2384     2.2321   503.4602    10.2165      .2457     1.1135
 1069.3908     2.2362   506.0995    10.3355      .2559     1.2068
 1069.5432     2.2281   505.8935    11.0627      .2544     1.2503
 1069.6956     2.2579   498.0461    11.0627      .2281     1.2960
 1069.8480     2.2614   493.5541     9.5162      .2119     1.2264
 1070.0004     2.2551   497.8104     8.2310      .2010     1.2057
 1070.1528     2.2644   495.6687     9.4201      .2162     1.1861
 1070.3052     2.2656   497.3444    10.6064      .2303     1.2212
 1070.4576     2.2731   509.6495     9.9868      .2436     1.3030
 1070.6100     2.2729   506.2321     8.6762      .2346     1.3159
 1070.7624     2.2328   495.9931     8.3197      .2273     1.3046
 1070.9148     2.2593   491.1304     9.0315      .2199     1.2735
 1071.0672     2.2405   488.4607     8.2008      .2189     1.2351
 1071.2196     2.2644   490.3617     7.3689      .2212     1.2243
 1071.3720     2.2938   492.2626     7.1593      .2256     1.2538
 1071.5244     2.3144   494.1636     9.0610      .2252     1.2661
 1071.6768     2.2887   496.0645     9.8914      .2216     1.2838
 1071.8292     2.2778   497.9655     9.8632      .2255     1.3133
 1071.9816     2.2643   499.8665     8.3181      .2319     1.3298
 1072.1340     2.3193   501.7674     7.8430      .2386     1.3043
 1072.2864     2.3394   503.6684     7.7241      .2220     1.3552
 1072.4388     2.3384   505.5693     7.8132      .2135     1.3504
 1072.5912     2.3037   507.4703     8.2899      .2241     1.3367
 1072.7436     2.3029   509.3712     7.4569      .2326     1.3766
 1072.8960     2.3220   511.2722     7.6055      .2159     1.4085
 1073.0484     2.2770   513.1732     7.9621      .2062     1.4062
 1073.2008     2.3313   515.0741     8.1636      .2069     1.4505
 1073.3532     2.3270   516.9750     9.1144      .2028     1.5023
 1073.5056     2.3511   518.8760     8.7579      .1885     1.5448
 1073.6580     2.3415   520.7770    10.3382      .1950     1.5726
 1073.8104     2.3461   520.6019    10.8006      .1875     1.6531
 1073.9628     2.3810   515.9949    11.4878      .1725     1.7179
 1074.1152     2.3698   513.5394    11.5810      .1594     1.7951
 1074.2676     2.3679   508.8424    11.3337      .1627     1.9188
 1074.4200     2.3562   497.6791    11.2157      .1727     2.1171
 1074.5724     2.4018   489.7139    11.2497      .1769     2.3368
 1074.7248     2.3961   481.3933    10.4230      .1726     2.6828
 1074.8772     2.3755   473.3338     9.7133      .1595     3.3090
 1075.0296     2.4370   461.7211     8.2099      .1217     3.9639
 1075.1820     2.4739   446.8296     8.5627      .0967     5.0867
 1075.3344     2.5258   430.4119     9.6245      .0727     6.1494
 1075.4868     2.5197   415.9466    10.4003      .0659     6.5610
 1075.6392     2.5845   407.4867    12.3878      .0565     6.1550
 1075.7916     2.5950   403.6945    19.5848      .0551     4.2171
 1075.9440     2.6448   414.8208    27.8105      .0642     3.1405
 1076.0964     2.6345   431.2990    36.0601      .0945     2.5324
 1076.2488     2.6328   441.2626    35.9325      .1429     2.3945
 1076.4012     2.5954   451.4333    36.5690      .1878     2.7421
 1076.5536     2.5832   448.0788    27.5185      .2187     3.6300
 1076.7060     2.6236   440.0639    19.6294      .1653     5.5447
 1076.8584     2.6248   429.9714    11.6279      .1041     7.9886
 1077.0108     2.6041   412.9864     9.8547      .0690     9.6104
 1077.1632     2.5800   404.2713     9.7380      .0603     9.6792
 1077.3156     2.5992   403.2187     9.2240      .0668     9.7866
 1077.4680     2.5732   405.0551     9.8151      .0763     9.4375
 1077.6204     2.5086   405.7238    10.2859      .0870     9.1587
 1077.7728     2.5254   408.1763     9.5763      .0947     9.1518
 1077.9252     2.5341   407.8206     9.9326      .0945     8.8794
 1078.0776     2.4929   407.7229     9.3435      .0977     8.7442
 1078.2300     2.4994   411.0463     8.7533      .0959     8.7361
 1078.3824     2.5009   410.2289     8.6366      .0899     8.8180
 1078.5348     2.5063   406.4860     8.5198      .0916     9.1266
 1078.6872     2.5419   403.9969     9.9397      .0863     9.7722
 1078.8396     2.5535   402.6476    10.6516      .0760     9.6906
