~VERSION INFORMATION
VERS.                                                 2.0:   CWLS Log ASCII Standard-VERSION 2.0
WRAP.                                                  NO:   One line per depth step
~Well Information Block
STRT.M                                            15.0876:   Top Depth
STOP.M                                           669.0360:   Bottom Depth
STEP.M                                             .15240:   Depth Increment
NULL.                                            -999.250:   Null Value
FLD .                                               NATIH:   Field Name
WELL.                                      NATIH WSW-13H1:   NAME
EDF .                                              231.32:   ELEV DRILL FLOOR
EPD .                                                   0:   ELEV PERM DATUM
EGL .                                              226.75:   GROUND LEVEL
COMP.                          Petroleum Development Oman:   OPERATOR
PDAT.                                                 MSL:   PERM DATUM
COUN.                                             RIG05_1:   RIG NAME
SPUD.                                          1980/03/02:   SPUD DATE
LATI.                                         22.46529137:   SURF. LATITUDE
LONG.                                         56.71960289:   SURF. LONGITUDE
UTME.                                           471151.72:   SURF. UTM E
UTMN.                                          2484147.59:   SURF. UTM N
~PARAMETER INFORMATION (log)
LNAM.                                              PUBLIC:   NAME
LTYP.                                              JOINED:   LOG TYPE
LSRV.                                            CLEAN UP:   SERVICE
LSOU.                                              TARGET:   LOG SOURCE
LVSN.                                                   1:   LOG VERSION
BHIS.                                                   R:   BRIEF HISTORY
TDD .M                                             694.94:   FINAL TD DRILLER
TDL .M                                             665.68:   FINAL TD LOGGER
FHIS.                                             RAW-LAS:   FULL HISTORY
~Curve Information Block
#MNEM.UNIT                                        API CODE    No Description
#=========                                        ========    == ===========
DEPT.M                                       00 001 00 00:     1  DEPTH
DEN.G/C3                                                 :     2  Bulk Density
DT.US/M                                                  :     3  Sonic (Compressional)
GR.API                                                   :     4  Gamma Ray
NEU.V/V                                                  :     5  Neutron Porosity in Limestone Units
RES_DEP.OHMM                                             :     6  Resistivity Deep
~ASCII
# ...
  312.5724     2.0290   543.0710    32.1060      .5400     7.2730
  312.7248     2.0230   566.0240    29.7050      .5270     7.2730
  312.8772     2.0200   582.9080    28.7040      .4880     7.2060
  313.0296     2.0230   597.6320    30.5050      .4750     7.0100
  313.1820     2.0190   608.6750    30.9050      .4930     6.8810
  313.3344     2.0140   617.7500    30.3050      .4930     6.6320
  313.4868     2.0240   623.5640    28.9040      .4860     6.3920
  313.6392     2.0170   622.4670    29.6040      .4850     6.0470
  313.7916     2.0060   610.5850    29.2040      .4840     5.8280
  313.9440     1.9930   596.8290    29.7050      .4840     5.7750
  314.0964     1.9970   595.8690    30.4050      .4970     5.8280
  314.2488     2.0090   603.9960    30.2050      .4960     5.9370
  314.4012     2.0150   611.0090    30.0050      .5140     5.9920
  314.5536     2.0180   614.5680    28.6040      .5270     5.7750
  314.7060     2.0270   610.2080    28.9040      .5130     5.4130
  314.8584     2.0460   581.8680    29.7050      .5100     5.1220
  315.0108     2.0600   533.6800    29.3040      .4940     5.0280
  315.1632     2.0540   499.4750    29.6040      .4830     5.0750
  315.3156     2.0340   478.7150    30.6050      .4910     5.0750
  315.4680     2.0190   462.1150    29.9050      .5020     4.8910
  315.6204     2.0080   466.6470    30.4050      .5170     4.5850
  315.7728     2.0000   500.6600    29.6040      .5180     4.4190
  315.9252     2.0030   546.5130    28.9040      .5240     4.2980
  316.0776     2.0000   565.8220    30.1050      .5380     4.2190
  316.2300     1.9880   540.3560    30.2050      .5310     4.3780
  316.3824     1.9770   480.1280    30.1050      .5230     4.4600
  316.5348     1.9680   419.8000    28.6040      .5380     4.4190
  316.6872     1.9570   376.4860    27.9030      .5350     4.5850
  316.8396     1.9420   344.2550    29.3040      .5060     4.7140
  316.9920     1.9190   317.1590    30.5050      .4860     4.6700
  317.1444     1.9050   303.6930    30.3050      .4820     4.4600
  317.2968     1.8710   299.0970    30.2050      .4680     4.2980
  317.4492     1.8270   283.3720    28.6040      .4740     4.1040
  317.6016     1.7960   255.7310    28.0030      .4840     3.9920
  317.7540     1.7790   242.7800    28.4040      .4690     4.1040
  317.9064     1.8100   258.3030    28.9040      .4670     4.2980
  318.0588     1.8230   285.9470    27.8030      .4650     4.4190
  318.2112     1.8010   293.9560    28.4040      .4690     4.4600
  318.3636     1.7950   286.9220    29.1040      .4980     4.4600
  318.5160     1.7910   285.1170    30.9050      .4950     4.3780
  318.6684     1.8120   290.2080    31.8060      .4750     4.5430
  318.8208     1.8180   304.4000    28.2040      .4490     5.0280
  318.9732     1.8020   319.9700    27.7030      .4560     5.7220
  319.1256     1.7790   313.1930    30.1050      .4700     6.3330
  319.2780     1.7390   285.8680    30.5050      .4700     6.4510
  319.4304     1.7720   262.6060    29.9050      .4590     5.9920
  319.5828     1.8350   254.9550    29.0040      .4570     5.5650
  319.7352     1.8910   255.1560    27.8030      .4600     5.2660
  319.8876     1.9250   256.4820    26.2020      .4630     5.3640
  320.0400     1.9120   256.6290    26.8020      .4740     5.6170
  320.1924     1.8830   255.1460    27.1030      .4860     5.6690
  320.3448     1.8640   254.4730    27.6030      .4880     5.6690
  320.4972     1.8450   256.0510    27.8030      .4810     5.5140
  320.6496     1.8630   257.7530    28.7040      .4740     5.2170
  320.8020     1.8950   256.9080    29.0040      .4770     5.0280
  320.9544     1.9020   254.8190    29.6040      .4620     5.0280
  321.1068     1.9200   253.5650    29.9050      .4450     4.9820
  321.2592     1.9540   257.4790    29.0040      .4330     5.0750
  321.4116     1.9750   269.7630    27.4030      .4310     5.0750
  321.5640     1.9740   282.5050    27.5030      .4500     5.1220
  321.7164     1.9770   294.5560    26.9030      .4840     5.1690
  321.8688     1.9970   310.8150    26.5020      .5210     5.1220
  322.0212     2.0000   323.7810    27.0030      .5440     5.0280
  322.1736     1.9630   328.1300    25.3010      .5330     4.9360
  322.3260     1.9980   324.5860    25.7020      .5010     4.8910
  322.4784     2.0450   314.7120    25.8020      .4810     5.1220
  322.6308     2.0540   296.0220    25.9020      .4630     5.4640
  322.7832     2.0630   273.4540    25.0010      .4620     5.7220
  322.9356     2.0650   259.9450    24.8010      .4650     6.0470
  323.0880     2.0770   258.2060    25.4010      .4710     6.3920
  323.2404     2.0780   269.8990    26.4020      .4690     6.5710
  323.3928     2.0690   289.7290    26.0020      .4720     6.5110
  323.5452     2.0620   291.1900    25.8020      .4700     6.3330
  323.6976     2.0330   271.6760    27.8030      .4550     6.2170
  323.8500     1.9890   258.8830    29.5040      .4610     6.0470
  324.0024     1.9370   263.5870    30.0050      .4710     5.8280
  324.1548     1.8910   282.6560    30.2050      .4740     5.6690
  324.3072     1.8180   304.8790    30.9050      .4890     5.6170
  324.4596     1.7960   315.0080    32.1060      .5040     5.4640
  324.6120     1.7700   306.5880    33.0070      .5100     5.1690
  324.7644     1.7750   286.0570    33.4070      .5300     4.8010
  324.9168     1.8080   275.0340    33.6070      .5390     4.5430
  325.0692     1.8320   277.8340    31.9060      .5140     4.5010
  325.2216     1.8540   283.3720    30.9050      .4940     4.5430
  325.3740     1.8300   285.5360    30.7050      .4840     4.7140
  325.5264     1.8310   282.5660    29.9050      .4940     4.7140
  325.6788     1.8050   274.9860    30.1050      .5110     4.7140
  325.8312     1.7910   267.8960    30.3050      .5170     4.7140
  325.9836     1.8220   272.8980    30.2050      .5120     4.7140
  326.1360     1.8840   291.0630    31.4060      .4790     4.7570
  326.2884     1.9210   305.6330    30.8050      .4710     5.0750
  326.4408     1.9470   313.7080    29.9050      .4940     5.3640
  326.5932     1.9530   315.9030    28.5040      .4960     5.4130
  326.7456     1.9280   308.6360    28.7040      .4790     5.6170
  326.8980     1.9180   294.6330    28.0030      .4740     5.7750
  327.0504     1.9540   280.3100    26.2020      .4840     5.6170
  327.2028     1.9620   269.2790    23.1000      .4740     5.7220
  327.3552     1.9870   257.9470    22.2990      .4690     6.1030
  327.5076     2.0090   244.8730    22.9000      .4710     6.3330
  327.6600     2.0070   240.5650    23.6000      .4900     6.6940
  327.8124     2.0470   252.5480    23.5000      .4910     6.8180
  327.9648     2.0580   273.4720    24.0000      .5040     6.6940
  328.1172     2.0360   292.5310    23.7000      .4970     6.4510
  328.2696     1.9920   300.9710    22.3990      .4870     6.2750
  328.4220     1.9560   301.5850    22.2990      .5100     6.2170
  328.5744     1.9540   304.5800    23.2000      .5040     6.2750
  328.7268     1.9440   310.9350    24.2010      .4800     6.2750
  328.8792     1.9330   316.3970    23.2000      .4670     6.2170
  329.0316     1.9410   321.4550    22.9000      .4700     6.2750
  329.1840     1.9620   327.4130    23.3000      .4640     6.1030
  329.3364     2.0010   332.4880    22.1990      .4500     5.9920
  329.4888     2.0330   334.3380    20.5980      .4540     6.0470
  329.6412     2.0810   332.6870    20.3980      .4590     6.0470
  329.7936     2.1380   328.4790    19.7970      .4650     5.9370
  329.9460     2.1470   325.4000    20.6980      .4740     5.8280
  330.0984     2.1270   327.5110    20.1980      .4750     5.7750
  330.2508     2.0920   331.6600    20.6980      .4920     5.8280
  330.4032     2.0580   330.7650    21.6990      .5120     5.4640
  330.5556     2.0460   326.3420    23.2000      .5110     5.1690
  330.7080     2.0440   324.5830    23.3000      .5220     4.9360
  330.8604     2.0380   326.3300    21.6990      .5260     4.7570
  331.0128     2.0270   337.7130    22.3990      .5150     4.5850
