~VERSION INFORMATION
VERS.                                                 2.0:   CWLS Log ASCII Standard-VERSION 2.0
WRAP.                                                  NO:   One line per depth step
~Well Information Block
STRT.M                                              .6096:   Top Depth
STOP.M                                          1141.9332:   Bottom Depth
STEP.M                                             .15240:   Depth Increment
NULL.                                            -999.250:   Null Value
FLD .                                               NATIH:   Field Name
WELL.                                          NATIH-85H1:   NAME
EDF .                                              214.53:   ELEV DRILL FLOOR
EPD .                                                   0:   ELEV PERM DATUM
EGL .                                              209.96:   GROUND LEVEL
COMP.                          PETROLEUM DEVELOPMENT OMAN:   OPERATOR
PDAT.                                                 MSL:   PERM DATUM
COUN.                                             RIG05_3:   RIG NAME
SPUD.                                          1990/12/20:   SPUD DATE
LATI.                                         22.42686054:   SURF. LATITUDE
LONG.                                         56.67231194:   SURF. LONGITUDE
UTME.                                           466276.93:   SURF. UTM E
UTMN.                                          2479903.71:   SURF. UTM N
~PARAMETER INFORMATION (log)
LNAM.                                              PUBLIC:   NAME
LTYP.                                              JOINED:   LOG TYPE
LSRV.                                            CLEAN UP:   SERVICE
LSOU.                                               FUGRO:   LOG SOURCE
LVSN.                                                   1:   LOG VERSION
BHIS.                                                   R:   BRIEF HISTORY
TDD .M                                            1165.00:   FINAL TD DRILLER
TDL .M                                            1151.00:   FINAL TD LOGGER
FHIS.                                             RAW-LAS:   FULL HISTORY
~Curve Information Block
#MNEM.UNIT                                        API CODE    No Description
#=========                                        ========    == ===========
DEPT.M                                       00 001 00 00:     1  DEPTH
DEN.G/CC                                                 :     2  Bulk Density
DT.US/M                                                  :     3  Acoustic log
GR.API                                                   :     4  Gamma Ray
NEU.V/V                                                  :     5  Neutron Porosity in Limestone Units
RES_DEP.OHMM                                             :     6  Resistivity Deep
~ASCII
# ...
 1116.1776     2.3685   430.9066    17.4309      .1313     2.5874
 1116.3300     2.5126   441.0467    15.3954      .1153     2.8224
 1116.4824     2.5197   451.1318    14.7483      .1089     2.7693
 1116.6348     2.4733   448.5836    13.8300      .1082     2.2344
 1116.7872     2.4442   445.6407    12.2641      .1241     2.0017
 1116.9396     2.4491   442.2044    11.8336      .1352     1.8151
 1117.0920     2.3945   436.5573    13.8659      .1466     1.6950
 1117.2444     2.3618   436.3948    12.5543      .1625     1.3995
 1117.3968     2.3392   441.6255    12.6130      .1792     1.2368
 1117.5492     2.3548   443.3004    12.9734      .1985     1.2996
 1117.7016     2.2978   450.0210    13.1470      .2196     1.2009
 1117.8540     2.1961   466.8365    14.7472      .2402     1.1766
 1118.0064     2.2303   481.1891    14.8114      .2539     1.3175
 1118.1588     2.2946   487.0722    12.3312      .2394     1.2266
 1118.3112     2.3639   490.0113    12.6921      .2094     1.2197
 1118.4636     2.3622   486.0856    13.5475      .1993     1.3769
 1118.6160     2.3434   484.9679    14.9388      .2010     1.2906
 1118.7684     2.3375   483.4974    13.0529      .2076     1.3408
 1118.9208     2.3114   482.8919    14.8531      .2065     1.4092
 1119.0732     2.2741   480.3018    13.5742      .2163     1.1448
 1119.2256     2.3280   506.7072    14.9166      .2119     1.0965
 1119.3780     2.3375   537.9753    15.8844      .2095     1.0981
 1119.5304     2.2465   536.6291    13.1097      .2205     1.2311
 1119.6828     2.2164   510.1420    17.1257      .2428     1.7267
 1119.8352     2.2568   481.8453    18.1135      .2281     2.6380
 1119.9876     2.3528   468.1571    19.9188      .1875     3.0590
 1120.1400     2.3974   454.4690    19.2610      .1592     2.3243
 1120.2924     2.3844   440.7808    19.0891      .1536     1.9971
 1120.4448     2.3288   427.0926    17.5101      .1897     1.5933
 1120.5972     2.2611   413.4044    19.3366      .2497     1.2503
 1120.7496     2.2632   407.6373    15.6622      .2995     1.1993
 1120.9020     2.2754   424.2079    16.3776      .2751     1.0374
 1121.0544     2.1862   451.5142    14.8688      .2734      .9734
 1121.2068     2.1969   460.8453    14.5885      .2707     1.0491
 1121.3592     2.1685   455.8106    13.6395      .2833     1.2047
 1121.5116     2.2090   445.1915    14.3769      .2703     1.3090
 1121.6640     2.2457   426.6732    12.1010      .2677     1.4469
 1121.8164     2.2772   421.7989    17.1643      .2738     1.4834
 1121.9688     2.2580   434.6297    13.1615      .2606     1.4402
 1122.1212     2.2449   451.0815    11.6316      .2615     1.6344
 1122.2736     2.2085   466.6987     9.4637      .2443     1.5991
 1122.4260     2.2113   482.6945    13.8764      .2421     1.5318
 1122.5784     2.3122   503.8652    12.9855      .2292     1.5604
 1122.7308     2.2234   513.2748    11.7451      .2494     1.3987
 1122.8832     2.1937   511.1302    10.9506      .2689     1.2620
 1123.0356     2.2286   512.7516    10.1530      .2972     1.2334
 1123.1880     2.2291   524.2313    10.0713      .2890     1.1611
 1123.3404     2.1944   534.8219    11.3482      .2667     1.1439
 1123.4928     2.2274   534.1337    13.0776      .2450     1.1462
 1123.6452     2.2078   536.2349     9.5967      .2521     1.0657
 1123.7976     2.2144   544.4691    12.6366      .2475      .9754
 1123.9500     2.2424   548.1279    16.0435      .2613      .9469
 1124.1024     2.2067   517.4245    13.4793      .2728      .8863
 1124.2548     2.1751   475.8163    12.5683      .2913      .8769
 1124.4072     2.1929   462.4591    14.3568      .2683      .9646
 1124.5596     2.1953   453.7429    11.1459      .2557     1.0123
 1124.7120     2.1844   459.0144    11.5319      .2411     1.0667
 1124.8644     2.2203   459.6678    14.6323      .2376     1.2079
 1125.0168     2.2877   456.4652    12.6814      .2345     1.2965
 1125.1692     2.2870   451.2775    10.8937      .2341     1.2818
 1125.3216     2.2798   441.9006    10.9292      .2341     1.2468
 1125.4740     2.2559   436.6928    13.9350      .2345     1.3382
 1125.6264     2.2239   432.2706    14.3853      .2345     1.4462
 1125.7788     2.2292   426.2562    13.1070      .2348     1.4410
 1125.9312     2.3424   424.8147    11.2660      .2371     1.4223
 1126.0836     2.3755   423.2804    12.4840      .2367     1.2995
 1126.2360     2.2795   422.0065    10.3742      .2363     1.1138
 1126.3884     2.2555   422.4575     9.9436      .2363     1.1077
 1126.5408     2.2596   433.6749    13.4348      .2367     1.2800
 1126.6932     2.2160   446.7270     7.9155      .2371     1.3302
 1126.8456     2.2542   436.2538     9.7288      .2382     1.3080
 1126.9980     2.3062   429.1674    10.7450      .2405     1.2965
 1127.1504     2.3100   438.9793    12.5472      .2493     1.1842
 1127.3028     2.2255   449.2257     9.2820      .2542     1.0872
 1127.4552     2.1943   471.6367    11.8981      .2540     1.3139
 1127.6076     2.2120   490.1552    13.3102      .2534     1.5729
 1127.7600     2.2608   502.4447    10.0517      .2533     1.8636
 1127.9124     2.2831   509.0567    14.1565      .2527     2.8212
 1128.0648     2.3090   499.4928    12.4732      .2534     2.8925
 1128.2172     2.3991   481.1566    11.3650      .2531     2.6493
 1128.3696     2.4243   471.9047    13.1729      .2520     2.1649
 1128.5220     2.3317   468.9702    12.4439      .2521     1.9165
 1128.6744     2.2006   468.5615    13.4760      .2498     1.3682
 1128.8268     2.2355   469.3068    17.6773      .2500     1.2245
 1128.9792     2.2314   476.0096    15.5108      .2494     1.1105
 1129.1316     2.2053   482.1743    13.2344      .2474     1.2344
 1129.2840     2.3887   477.2272    14.3690      .2421     1.5349
 1129.4364     2.4382   468.6724     9.1905      .2435     1.9878
 1129.5888     2.3808   449.8191    11.2707      .2418     2.3127
 1129.7412     2.3830   432.8956    11.3346      .2402     2.6126
 1129.8936  -999.2500   441.8002    10.4195  -999.2500     2.5725
 1130.0460  -999.2500   450.8783    11.4817  -999.2500     2.4148
 1130.1984  -999.2500   454.5599     9.2968  -999.2500     2.0510
 1130.3508  -999.2500   459.4207    10.9612  -999.2500     1.5226
 1130.5032  -999.2500   462.0612    13.1566  -999.2500     1.1511
 1130.6556  -999.2500   465.8341    12.7240  -999.2500     1.0353
 1130.8080  -999.2500   490.3385    14.4062  -999.2500     1.0403
 1130.9604  -999.2500   513.7770    14.3665  -999.2500     1.2098
 1131.1128  -999.2500   512.3444    13.1474  -999.2500     1.5519
 1131.2652  -999.2500   509.9648    13.8108  -999.2500     1.6976
 1131.4176  -999.2500   506.9879     9.9003  -999.2500     1.6567
 1131.5700  -999.2500   507.2265     7.8622  -999.2500     1.5642
 1131.7224  -999.2500   506.4563    13.1650  -999.2500     1.2940
 1131.8748  -999.2500   507.3715     8.6787  -999.2500     1.2383
 1132.0272  -999.2500   516.2518    16.2631  -999.2500     1.3007
 1132.1796  -999.2500   523.9795    14.7996  -999.2500     1.4415
 1132.3320  -999.2500   519.1592    16.2525  -999.2500     1.6341
 1132.4844  -999.2500   520.1868    15.4683  -999.2500     1.7481
 1132.6368  -999.2500   524.9738    14.4759  -999.2500     1.7037
 1132.7892  -999.2500   513.2382    11.8034  -999.2500     1.4705
 1132.9416  -999.2500   498.3705    15.9905  -999.2500     1.4041
 1133.0940  -999.2500   495.6357    14.9667  -999.2500     1.4687
 1133.2464  -999.2500   493.2985    16.4748  -999.2500     1.4925
 1133.3988  -999.2500   493.6021    12.8187  -999.2500     1.7566
 1133.5512  -999.2500   495.4060    11.1768  -999.2500     1.9514
 1133.7036  -999.2500   494.1385    12.0297  -999.2500     1.5534
 1133.8560  -999.2500   494.5563    11.7885  -999.2500     1.3600
 1134.0084  -999.2500   498.0562    15.0844  -999.2500     1.3389
 1134.1608  -999.2500   499.3839    13.6668  -999.2500     1.2259
 1134.3132  -999.2500   502.0714    13.6477  -999.2500     1.2407
 1134.4656  -999.2500   503.2202    13.5693  -999.2500     1.3637
 1134.6180  -999.2500   508.7010    12.2928  -999.2500     1.3212
