~VERSION INFORMATION
VERS.                                                 2.0:   CWLS Log ASCII Standard-VERSION 2.0
WRAP.                                                  NO:   One line per depth step
~Well Information Block
STRT.M                                            15.0876:   Top Depth
STOP.M                                           669.0360:   Bottom Depth
STEP.M                                             .15240:   Depth Increment
NULL.                                            -999.250:   Null Value
FLD .                                               NATIH:   Field Name
WELL.                                      NATIH WSW-13H1:   NAME
EDF .                                              231.32:   ELEV DRILL FLOOR
EPD .                                                   0:   ELEV PERM DATUM
EGL .                                              226.75:   GROUND LEVEL
COMP.                          Petroleum Development Oman:   OPERATOR
PDAT.                                                 MSL:   PERM DATUM
COUN.                                             RIG05_1:   RIG NAME
SPUD.                                          1980/03/02:   SPUD DATE
LATI.                                         22.46529137:   SURF. LATITUDE
LONG.                                         56.71960289:   SURF. LONGITUDE
UTME.                                           471151.72:   SURF. UTM E
UTMN.                                          2484147.59:   SURF. UTM N
~PARAMETER INFORMATION (log)
LNAM.                                              PUBLIC:   NAME
LTYP.                                              JOINED:   LOG TYPE
LSRV.                                            CLEAN UP:   SERVICE
LSOU.                                              TARGET:   LOG SOURCE
LVSN.                                                   1:   LOG VERSION
BHIS.                                                   R:   BRIEF HISTORY
TDD .M                                             694.94:   FINAL TD DRILLER
TDL .M                                             665.68:   FINAL TD LOGGER
FHIS.                                             RAW-LAS:   FULL HISTORY
~Curve Information Block
#MNEM.UNIT                                        API CODE    No Description
#=========                                        ========    == ===========
DEPT.M                                       00 001 00 00:     1  DEPTH
DEN.G/C3                                                 :     2  Bulk Density
DT.US/M                                                  :     3  Sonic (Compressional)
GR.API                                                   :     4  Gamma Ray
NEU.V/V                                                  :     5  Neutron Porosity in Limestone Units
RES_DEP.OHMM                                             :     6  Resistivity Deep
~ASCII
# ...
  349.7580     1.9850   388.9010    20.9980      .5020     6.1600
  349.9104     1.9730   397.4800    21.9990      .5100     5.7220
  350.0628     1.9150   405.3910    22.1990      .5150     5.5140
  350.2152     1.9030   405.8650    22.5990      .5220     5.3140
  350.3676     1.9180   392.0100    22.1990      .5390     5.1220
  350.5200     1.9450   369.9360    22.4990      .5420     5.0750
  350.6724     1.9520   355.5250    24.0000      .5290     5.2170
  350.8248     1.9760   350.4040    23.8000      .5030     5.3640
  350.9772     2.0170   347.2210    23.6000      .4890     5.5650
  351.1296     2.0760   342.0300    22.9000      .4780     5.8280
  351.2820     2.1090   335.4300    21.1980      .4880     6.1600
  351.4344     2.1280   330.4360    18.9970      .5030     6.4510
  351.5868     2.1340   327.9170    19.0970      .5050     6.6940
  351.7392     2.1560   326.3340    19.8970      .5000     6.8180
  351.8916     2.1850   324.7920    20.4980      .4690     6.8180
  352.0440     2.1910   326.4620    19.8970      .4460     6.6320
  352.1964     2.1610   337.4990    18.9970      .4420     6.2750
  352.3488     2.1590   357.1140    17.9960      .4490     6.0470
  352.5012     2.1670   374.4890    17.8960      .4560     5.8820
  352.6536     2.1540   383.8660    16.9950      .4500     5.0280
  352.8060     2.1350   389.9350    16.2950      .4380     4.6270
  352.9584     2.0970   396.6050    16.9950      .4420     4.8010
  353.1108     2.0770   403.4800    15.8950      .4300     4.2980
  353.2632     2.0910   409.8240    16.3950      .4100     3.8830
  353.4156     2.0820   417.4930    17.4960      .4180     3.7080
  353.5680     2.0680   427.8350    17.5960      .4430     3.5410
  353.7204     2.0660   436.3500    17.2960      .4610     3.4440
  353.8728     2.0570   431.2540    17.1950      .4760     3.3190
  354.0252     2.0600   408.6420    16.4950      .4780     3.2590
  354.1776     2.0810   384.1040    17.1950      .4690     3.2590
  354.3300     2.1060   371.6900    18.7970      .4480     3.3810
  354.4824     2.1160   383.1770    20.3980      .4440     3.5740
  354.6348     2.1270   411.8480    19.7970      .4530     3.8470
  354.7872     2.1210   427.1040    19.0970      .4470     4.2190
  354.9396     2.1220   424.7180    17.6960      .4410     4.5430
  355.0920     2.1470   413.4330    16.1950      .4280     4.9360
  355.2444     2.1750   393.3190    16.2950      .4230     5.3640
  355.3968     2.2190   366.7040    16.1950      .4160     5.5650
  355.5492     2.2640   345.9700    15.2940      .3890     5.7220
  355.7016     2.2520   337.6580    15.6940      .3980     6.2750
  355.8540     2.2280   339.1790    17.1950      .4240     6.6940
  356.0064     2.2130   349.3350    19.1970      .4550     6.9450
  356.1588     2.1900   363.5290    20.0980      .4620     7.0750
  356.3112     2.1830   374.9760    20.3980      .4680     7.0750
  356.4636     2.1540   380.9120    21.7990      .4590     7.2060
  356.6160     2.1360   383.4090    22.1990      .4520     7.4770
  356.7684     2.1260   384.6460    22.5990      .4440     7.5470
  356.9208     2.1380   384.9750    23.4000      .4380     7.6170
  357.0732     2.1480   384.8330    24.8010      .4460     7.4090
  357.2256     2.1370   385.2170    24.0000      .4540     6.6940
  357.3780     2.1250   386.5600    23.7000      .4670     6.5110
  357.5304     2.1140   387.7890    24.2010      .4780     6.5710
  357.6828     2.1120   388.5130    24.6010      .4790     6.2750
  357.8352     2.1140   390.4110    24.5010      .4830     6.3330
  357.9876     2.0860   393.6560    24.9010      .4800     6.5710
  358.1400     2.0870   397.4790    23.8000      .4930     6.6940
  358.2924     2.0940   401.0580    24.2010      .5070     6.9450
  358.4448     2.0780   402.3900    23.4000      .5110     7.2730
  358.5972     2.0540   398.9820    21.6990      .5170     7.6170
  358.7496     2.0470   391.0690    21.2990      .4820     8.2000
  358.9020     2.0860   382.1870    19.4970      .4700     9.1610
  359.0544     2.1430   374.3010    18.3960      .4720    10.0460
  359.2068     2.1710   365.6210    17.6960      .4610    10.9160
  359.3592     2.1810   354.1190    16.2950      .4360    11.6450
  359.5116     2.2330   341.0830    14.7940      .3950    11.6450
  359.6640     2.2760   330.0970    14.1930      .3720    11.2230
  359.8164     2.2840   326.0430    14.7940      .3760    10.2330
  359.9688     2.2730   331.8120    16.0950      .3970     9.4180
  360.1212     2.2360   345.5440    18.8970      .4080     8.5870
  360.2736     2.2110   364.2220    21.2990      .4250     7.6170
  360.4260     2.1860   385.0660    23.0000      .4550     6.8180
  360.5784     2.1630   404.2110    24.0000      .4470     6.2170
  360.7308     2.1390   419.6720    24.0000      .4470     5.4640
  360.8832     2.1150   429.0090    25.0010      .4650     4.8910
  361.0356     2.1020   427.9720    26.4020      .4880     4.5010
  361.1880     2.0780   418.8820    27.0030      .4970     4.1810
  361.3404     2.0580   410.2780    28.8040      .4860     3.9190
  361.4928     2.0500   405.5360    30.0050      .4920     3.8470
  361.6452     2.0370   402.0460    30.0050      .5020     3.7420
  361.7976     2.0370   401.6550    30.6050      .4910     3.7080
  361.9500     2.0280   420.7270    29.8050      .5080     3.7080
  362.1024     2.0170   458.0800    28.9040      .5160     3.7080
  362.2548     2.0250   479.0460    27.7030      .5040     3.7080
  362.4072     2.0230   479.9250    28.7040      .4980     3.7770
  362.5596     2.0260   477.0490    28.7040      .4910     3.8830
  362.7120     2.0390   475.4140    28.7040      .4900     4.0290
  362.8644     2.0450   474.0680    30.2050      .4880     4.2190
  363.0168     2.0510   470.8430    29.3040      .4850     4.3780
  363.1692     2.0630   463.3490    28.4040      .5020     4.4190
  363.3216     2.0850   450.3220    26.7020      .4960     4.4600
  363.4740     2.1020   435.0640    28.7040      .4890     4.5010
  363.6264     2.0930   426.2420    30.9050      .4890     4.5850
  363.7788     2.0630   428.7910    33.3070      .4810     4.6270
  363.9312     2.0290   440.7110    35.6090      .4930     4.5850
  364.0836     2.0160   455.4000    35.9090      .5040     4.5010
  364.2360     2.0140   465.6810    35.3090      .4900     4.3380
  364.3884     2.0060   469.4570    33.5070      .4890     4.1810
  364.5408     2.0040   469.0570    32.2060      .5060     4.1420
  364.6932     2.0130   466.9390    32.1060      .5150     4.1420
  364.8456     2.0140   463.9000    31.6060      .5010     4.1420
  364.9980     2.0150   459.8460    30.8050      .4970     4.1420
  365.1504     2.0170   455.1840    30.5050      .5120     4.1420
  365.3028     2.0250   451.5960    30.1050      .5150     4.1810
  365.4552     2.0080   449.2650    28.9040      .5100     4.2190
  365.6076     2.0000   446.7220    28.1030      .5100     4.2980
  365.7600     2.0080   443.2070    28.7040      .5250     4.5010
  365.9124     1.9930   438.7690    26.9030      .5270     4.8010
  366.0648     1.9890   433.8560    23.6000      .5130     5.1220
  366.2172     1.9980   428.2310    20.7980      .5070     5.5140
  366.3696     1.9970   421.4220    19.3970      .5110     6.4510
  366.5220     2.0110   414.3390    18.2960      .4840     6.6320
  366.6744     2.0220   408.4160    17.3960      .4610     6.4510
  366.8268     2.0170   404.4600    18.2960      .4560     7.4090
  366.9792     2.0250   401.7140    18.9970      .4580     7.9760
  367.1316     2.0470   395.9890    20.4980      .4640     8.4310
  367.2840     2.0890   386.6210    21.7990      .4560     8.7480
  367.4364     2.1300   378.2740    20.3980      .4470     8.7480
  367.5888     2.1390   371.6260    19.2970      .4350     8.5090
  367.7412     2.1460   369.0100    19.9970      .4120     8.5090
  367.8936     2.1810   372.5160    20.1980      .3940     8.7480
  368.0460     2.1680   377.1640    19.0970      .3830     8.8290
  368.1984     2.1410   379.4480    18.2960      .3930     9.0760
