~VERSION INFORMATION
VERS.                                                 2.0:   CWLS Log ASCII Standard-VERSION 2.0
WRAP.                                                  NO:   One line per depth step
~Well Information Block
STRT.M                                              .6096:   Top Depth
STOP.M                                          1141.9332:   Bottom Depth
STEP.M                                             .15240:   Depth Increment
NULL.                                            -999.250:   Null Value
FLD .                                               NATIH:   Field Name
WELL.                                          NATIH-85H1:   NAME
EDF .                                              214.53:   ELEV DRILL FLOOR
EPD .                                                   0:   ELEV PERM DATUM
EGL .                                              209.96:   GROUND LEVEL
COMP.                          PETROLEUM DEVELOPMENT OMAN:   OPERATOR
PDAT.                                                 MSL:   PERM DATUM
COUN.                                             RIG05_3:   RIG NAME
SPUD.                                          1990/12/20:   SPUD DATE
LATI.                                         22.42686054:   SURF. LATITUDE
LONG.                                         56.67231194:   SURF. LONGITUDE
UTME.                                           466276.93:   SURF. UTM E
UTMN.                                          2479903.71:   SURF. UTM N
~PARAMETER INFORMATION (log)
LNAM.                                              PUBLIC:   NAME
LTYP.                                              JOINED:   LOG TYPE
LSRV.                                            CLEAN UP:   SERVICE
LSOU.                                               FUGRO:   LOG SOURCE
LVSN.                                                   1:   LOG VERSION
BHIS.                                                   R:   BRIEF HISTORY
TDD .M                                            1165.00:   FINAL TD DRILLER
TDL .M                                            1151.00:   FINAL TD LOGGER
FHIS.                                             RAW-LAS:   FULL HISTORY
~Curve Information Block
#MNEM.UNIT                                        API CODE    No Description
#=========                                        ========    == ===========
DEPT.M                                       00 001 00 00:     1  DEPTH
DEN.G/CC                                                 :     2  Bulk Density
DT.US/M                                                  :     3  Acoustic log
GR.API                                                   :     4  Gamma Ray
NEU.V/V                                                  :     5  Neutron Porosity in Limestone Units
RES_DEP.OHMM                                             :     6  Resistivity Deep
~ASCII
# ...
 1023.2136     2.3568   524.3539     4.3660      .1856     2.9789
 1023.3660     2.3646   517.8897     5.5116      .1698     2.9435
 1023.5184     2.3068   509.1046     5.8524      .1847     2.7734
 1023.6708     2.3136   509.3086     6.5819      .2022     2.7317
 1023.8232     2.3322   511.5750     5.9628      .2186     2.8502
 1023.9756     2.3044   513.8036     5.4851      .2105     2.8861
 1024.1280     2.3298   516.1493     4.2117      .2096     3.0489
 1024.2804     2.3312   516.1628     3.8555      .2124     3.3056
 1024.4328     2.3353   515.1809     2.9052      .2070     3.4557
 1024.5852     2.3113   512.0305     3.2113      .1945     3.3166
 1024.7376     2.3405   512.3452     3.9242      .1933     2.6431
 1024.8900     2.3435   518.5955     3.9246      .1934     1.9977
 1025.0424     2.2794   522.9716     4.6381      .2059     1.7927
 1025.1948     2.2557   525.2186     3.7548      .2295     1.6498
 1025.3472     2.2635   534.7825     3.8738      .2539     1.7216
 1025.4996     2.3248   540.8612     3.1603      .2446     1.9400
 1025.6520     2.3492   537.1725     3.2884      .2190     1.9826
 1025.8044     2.3597   534.3477     4.0030      .1940     1.7984
 1025.9568     2.3558   534.9729     3.6470      .1830     1.4833
 1026.1092     2.3099   539.9024     3.0945      .1880     1.3298
 1026.2616     2.2886   544.8691     3.0945      .2087     1.2739
 1026.4140     2.2401   545.6512     3.6071      .2333     1.2596
 1026.5664     2.2541   545.4296     4.5420      .2326     1.3444
 1026.7188     2.2839   543.6069     4.1842      .2222     1.3885
 1026.8712     2.2718   541.7842     3.9102      .2210     1.3863
 1027.0236     2.2581   539.9615     3.9403      .2415     1.3523
 1027.1760     2.2251   538.1389     3.8201      .2384     1.4156
 1027.3284     2.2006   536.3162     3.8177      .2501     1.5518
 1027.4808     2.2669   534.4935     3.7984      .2535     1.6401
 1027.6332     2.3333   532.6708     4.0270      .2487     1.5346
 1027.7856     2.3371   530.8481     3.6672      .2298     1.3722
 1027.9380     2.2374   529.0255     3.5438      .2262     1.1762
 1028.0904     2.2284   527.2028     4.0165      .2371     1.1451
 1028.2428     2.2085   525.3801     4.6075      .2522     1.1281
 1028.3952     2.2688   523.5574     4.6075      .2570     1.1914
 1028.5476     2.2721   521.7348     3.7799      .2546     1.2138
 1028.7000     2.2432   504.3138     4.1489      .2638     1.1568
 1028.8524     2.2798   483.4696     3.5584      .2683     1.1459
 1029.0048     2.2634   481.2376     4.1500      .2689     1.1465
 1029.1572     2.2836   481.4965     3.8991      .2520     1.1985
 1029.3096     2.2311   480.1726     4.1358      .2474     1.2079
 1029.4620     2.2569   475.4706     3.6294      .2453     1.2135
 1029.6144     2.3070   477.0587     3.5112      .2432     1.1704
 1029.7668     2.3164   481.9575     4.1028      .2453     1.1464
 1029.9192     2.2389   487.4769     4.2772      .2517     1.0842
 1030.0716     2.2403   486.8873     4.5142      .2761     1.1222
 1030.2240     2.2240   465.8860     4.2778      .2824     1.1659
 1030.3764     2.1802   440.9658     3.7236      .2919     1.1377
 1030.5288     2.1745   438.5442     3.3694      .2785     1.1311
 1030.6812     2.2261   433.4084     2.8961      .2535     1.1241
 1030.8336     2.2257   436.1761     3.4284      .2626     1.0623
 1030.9860     2.2417   443.2448     3.9007      .2701     1.0720
 1031.1384     2.2495   438.0525     4.9651      .2921     1.2015
 1031.2908     2.2081   428.7798     5.3195      .2938     1.3688
 1031.4432     2.2868   425.1994     4.6102      .2838     1.7389
 1031.5956     2.3011   421.6189     3.7401      .2371     2.4162
 1031.7480     2.3663   411.0204     3.2675      .2016     2.9979
 1031.9004     2.4252   399.5804     4.4477      .1732     2.6761
 1032.0528     2.4394   398.9963     5.5520      .1518     2.3060
 1032.2052     2.3618   399.5902     6.6148      .1621     1.8541
 1032.3576     2.3233   420.7531     6.9691      .1804     1.6365
 1032.5100     2.3248   450.8111     6.0243      .2014     1.5792
 1032.6624     2.3208   456.8705     6.0656      .2068     1.6088
 1032.8148     2.3141   458.1781     6.0644      .2174     1.7626
 1032.9672     2.3064   459.5012     7.4816      .2250     1.8792
 1033.1196     2.4197   460.0022     7.0849      .1922     1.9794
 1033.2720     2.4402   478.4089     6.6136      .1691     2.2571
 1033.4244     2.3128   503.8666     5.7842      .1583     2.3698
 1033.5768     2.3481   505.3766     6.6081      .1625     2.3992
 1033.7292     2.3894   506.8865     7.7951      .1667     2.3778
 1033.8816     2.3779   508.3965     8.9848      .1575     2.1985
 1034.0340     2.3083   509.9064     9.1129      .1659     1.8841
 1034.1864     2.2335   511.4164     8.8762      .1713     1.6603
 1034.3388     2.2343   512.9263     9.5899      .1932     1.5856
 1034.4912     2.2701   514.4362    10.0601      .1997     1.6618
 1034.6436     2.2737   515.9462    10.7666      .2023     1.9451
 1034.7960     2.3390   517.4561    10.6410      .1880     2.6519
 1034.9484     2.4123   513.7488     9.9287      .1576     3.4546
 1035.1008     2.4711   505.2678     8.7478      .1265     3.9148
 1035.2532     2.4654   492.1589     7.4474      .1053     3.5740
 1035.4056     2.4323   477.8965     8.9855      .1042     2.8936
 1035.5580     2.3931   479.7741    10.1652      .1269     2.5032
 1035.7104     2.3539   493.5155    12.0567      .1600     2.4554
 1035.8628     2.3518   508.0042    13.1206      .1727     2.4975
 1036.0152     2.3696   520.7375    14.1857      .1760     2.4482
 1036.1676     2.3341   535.2308    15.0107      .1705     2.3766
 1036.3200     2.3347   542.6893    13.8266      .1793     2.3448
 1036.4724     2.3622   542.9216    13.2355      .1858     2.3995
 1036.6248     2.3533   537.7272    12.2923      .1902     2.5606
 1036.7772     2.3600   530.1256    13.3557      .1808     2.6927
 1036.9296     2.3434   527.7724    13.1174      .1880     2.7777
 1037.0820     2.3207   526.6176    14.5360      .1810     2.7840
 1037.2344     2.3203   527.9529    13.4726      .1861     2.7922
 1037.3868     2.3407   527.0230    13.7089      .1741     2.8125
 1037.5392     2.4515   521.2298    14.7631      .1736     2.8484
 1037.6916     2.4166   514.2955    15.9421      .1585     2.8256
 1037.8440     2.3479   509.0390    16.4679      .1595     2.6883
 1037.9964     2.3750   506.7919    14.9169      .1632     2.5665
 1038.1488     2.3776   504.4043    13.9743      .1696     2.4056
 1038.3012     2.3070   505.0631    14.3888      .1763     2.3009
 1038.4536     2.2934   511.7866    14.7457      .1963     2.1933
 1038.6060     2.2610   515.7480    14.6317      .1937     2.1438
 1038.7584     2.2679   512.7041    14.4071      .1913     2.1214
 1038.9108     2.2759   514.0088    13.2488      .1888     2.0611
 1039.0632     2.3360   515.1616    14.3158      .1977     1.9863
 1039.2156     2.3110   516.4260    14.1321      .2114     1.9089
 1039.3680     2.2977   522.2506    14.5663      .2070     1.8453
 1039.5204     2.3175   527.0953    13.1464      .2054     1.8337
 1039.6728     2.3288   531.7819    13.2118      .1957     1.8916
 1039.8252     2.3392   532.4581    12.6613      .1952     1.9764
 1039.9776     2.4005   527.1466    13.1346      .1956     2.1299
 1040.1300     2.3795   523.4080    11.0047      .1889     2.2912
 1040.2824     2.3908   525.5478    10.5232      .1924     2.3957
 1040.4348     2.3654   525.1261    10.6393      .1979     2.3505
 1040.5872     2.3580   522.6279    13.2401      .1984     2.2087
 1040.7396     2.3332   521.3048    14.0744      .2123     2.0233
 1040.8920     2.3255   523.9365    13.8894      .2232     1.8763
 1041.0444     2.3208   523.5203    12.4720      .2294     1.7847
 1041.1968     2.3390   524.4674    13.4208      .2373     1.7541
 1041.3492     2.3681   533.5671    12.4247      .2423     1.7368
 1041.5016     2.3316   541.9771    13.1346      .2547     1.6987
 1041.6540     2.3459   543.7302    12.0697      .2514     1.6509
