~VERSION INFORMATION
VERS.                                                 2.0:   CWLS Log ASCII Standard-VERSION 2.0
WRAP.                                                  NO:   One line per depth step
~Well Information Block
STRT.M                                            15.0876:   Top Depth
STOP.M                                           669.0360:   Bottom Depth
STEP.M                                             .15240:   Depth Increment
NULL.                                            -999.250:   Null Value
FLD .                                               NATIH:   Field Name
WELL.                                      NATIH WSW-13H1:   NAME
EDF .                                              231.32:   ELEV DRILL FLOOR
EPD .                                                   0:   ELEV PERM DATUM
EGL .                                              226.75:   GROUND LEVEL
COMP.                          Petroleum Development Oman:   OPERATOR
PDAT.                                                 MSL:   PERM DATUM
COUN.                                             RIG05_1:   RIG NAME
SPUD.                                          1980/03/02:   SPUD DATE
LATI.                                         22.46529137:   SURF. LATITUDE
LONG.                                         56.71960289:   SURF. LONGITUDE
UTME.                                           471151.72:   SURF. UTM E
UTMN.                                          2484147.59:   SURF. UTM N
~PARAMETER INFORMATION (log)
LNAM.                                              PUBLIC:   NAME
LTYP.                                              JOINED:   LOG TYPE
LSRV.                                            CLEAN UP:   SERVICE
LSOU.                                              TARGET:   LOG SOURCE
LVSN.                                                   1:   LOG VERSION
BHIS.                                                   R:   BRIEF HISTORY
TDD .M                                             694.94:   FINAL TD DRILLER
TDL .M                                             665.68:   FINAL TD LOGGER
FHIS.                                             RAW-LAS:   FULL HISTORY
~Curve Information Block
#MNEM.UNIT                                        API CODE    No Description
#=========                                        ========    == ===========
DEPT.M                                       00 001 00 00:     1  DEPTH
DEN.G/C3                                                 :     2  Bulk Density
DT.US/M                                                  :     3  Sonic (Compressional)
GR.API                                                   :     4  Gamma Ray
NEU.V/V                                                  :     5  Neutron Porosity in Limestone Units
RES_DEP.OHMM                                             :     6  Resistivity Deep
~ASCII
# ...
  386.9436     2.0840   402.0770    22.9000      .4530     5.7220
  387.0960     2.0600   408.3940    22.5990      .4700     5.2170
  387.2484     2.0370   415.5580    20.8980      .5090     4.7570
  387.4008     2.0310   422.1840    19.8970      .5180     4.4600
  387.5532     2.0270   428.3980    19.6970      .4990     4.2190
  387.7056     2.0360   434.7840    19.1970      .4940     4.1810
  387.8580     2.0490   439.8600    18.9970      .4890     4.1810
  388.0104     2.0620   437.1090    18.2960      .4770     4.1420
  388.1628     2.0950   422.1620    16.2950      .4560     4.0670
  388.3152     2.1430   400.6960    17.2960      .4330     3.9920
  388.4676     2.1750   381.1090    18.4970      .4180     4.0290
  388.6200     2.1620   371.8780    19.8970      .4190     4.1810
  388.7724     2.1510   374.0240    19.9970      .4270     4.3380
  388.9248     2.1570   382.8570    19.4970      .4240     4.6700
  389.0772     2.1540   393.6440    17.1950      .4300     5.2660
  389.2296     2.1540   397.6380    16.7950      .4370     5.7750
  389.3820     2.1730   388.8310    15.3940      .4330     5.6170
  389.5344     2.1990   372.1680    14.1930      .4240     6.0470
  389.6868     2.2430   355.4260    13.6930      .4140     7.0100
  389.8392     2.2500   346.8200    14.0930      .4090     7.8310
  389.9916     2.2070   350.5370    14.5940      .4170     8.2760
  390.1440     2.1690   358.7720    15.2940      .4450     8.2760
  390.2964     2.1460   363.7480    15.3940      .4490     7.9760
  390.4488     2.1260   366.3590    15.2940      .4360     7.5470
  390.6012     2.1000   370.5860    14.5940      .4350     7.0750
  390.7536     2.0620   379.2390    14.5940      .4470     6.6320
  390.9060     2.0230   389.6900    16.2950      .4590     6.1600
  391.0584     2.0190   396.3930    16.8950      .4810     5.8820
  391.2108     2.0360   397.3290    16.7950      .4940     5.4640
  391.3632     2.0540   395.3150    16.9950      .4780     5.1690
  391.5156     2.0580   392.4840    17.2960      .4770     4.8910
  391.6680     2.0520   387.2170    18.6970      .4700     4.6270
  391.8204     2.0530   379.1620    20.6980      .4680     4.3780
  391.9728     2.0620   373.2580    22.4990      .4800     4.2190
  392.1252     2.0490   370.1450    23.8000      .4920     4.1040
  392.2776     2.0500   367.4200    23.7000      .5220     4.0290
  392.4300     2.0600   366.4070    24.6010      .5210     3.9920
  392.5824     2.0640   365.4260    25.9020      .5150     3.9920
  392.7348     2.0650   360.9190    27.7030      .5070     3.9920
  392.8872     2.0870   354.7370    28.4040      .5030     3.9920
  393.0396     2.1020   352.3950    27.3030      .4920     3.9550
  393.1920     2.1120   353.6550    27.3030      .4770     3.9190
  393.3444     2.1200   356.7120    27.1030      .4530     3.8830
  393.4968     2.1110   368.3760    27.5030      .4450     3.7770
  393.6492     2.1020   389.1910    26.5020      .4410     4.0290
  393.8016     2.0880   405.8810    27.1030      .4560     4.2190
  393.9540     2.0730   415.3960    25.4010      .4730     4.1040
  394.1064     2.0690   417.6150    21.1980      .4950     4.4190
  394.2588     2.0830   410.9190    18.8970      .4830     4.9820
  394.4112     2.1050   399.7040    16.8950      .4630     5.6170
  394.5636     2.1350   386.2030    15.2940      .4370     6.3330
  394.7160     2.1670   371.3690    15.4940      .4290     7.6170
  394.8684     2.1580   360.2430    15.6940      .4480     8.9930
  395.0208     2.1900   351.6770    15.2940      .4490    10.5210
  395.1732     2.2320   344.5070    16.0950      .4290    11.5380
  395.3256     2.2500   342.0210    16.7950      .4170    12.0830
  395.4780     2.2470   344.5120    14.9940      .4170    11.9720
  395.6304     2.2240   349.5700    14.4940      .4290    11.8620
  395.7828     2.2020   355.3760    15.6940      .4190    11.8620
  395.9352     2.2060   358.8240    14.9940      .4230    11.9720
  396.0876     2.2160   355.9480    13.1930      .4370    12.0830
  396.2400     2.2280   347.4770    12.6920      .4380    12.3080
  396.3924     2.2550   336.3280    11.5920      .4220    12.6530
  396.5448     2.2900   325.6250    11.0910      .3970    13.1290
  396.6972     2.2990   319.2480    11.2910      .3860    13.4980
  396.8496     2.3190   318.7780    11.5920      .3840    13.8770
  397.0020     2.3270   323.0480    11.7920      .3820    14.0050
  397.1544     2.3200   328.3730    11.3910      .3720    14.5320
  397.3068     2.2960   331.4810    11.5920      .3720    14.2660
  397.4592     2.2910   331.8910    12.1920      .3790    14.1350
  397.6116     2.2880   330.8720    11.3910      .3860    13.8770
  397.7640     2.2820   330.1550    11.4910      .3840    13.8770
  397.9164     2.2600   330.6920    11.4910      .3760    13.4980
  398.0688     2.2550   332.1630    12.0920      .3830    13.0090
  398.2212     2.2710   333.0870    12.5920      .3970    12.6530
  398.3736     2.2640   331.0300    12.7920      .4050    12.5370
  398.5260     2.2730   326.0460    11.9920      .4050    12.5370
  398.6784     2.2920   318.9790    11.3910      .3970    12.5370
  398.8308     2.3160   310.8350    10.7910      .3750    12.4220
  398.9832     2.3360   306.7100     9.9900      .3550    12.3080
  399.1356     2.3410   308.5230     9.6900      .3510    12.3080
  399.2880     2.3380   311.8950     9.8900      .3620    12.3080
  399.4404     2.3270   316.0500    10.6910      .3750    12.1950
  399.5928     2.3350   320.0700    11.2910      .3780    12.1950
  399.7452     2.3400   319.0020     9.9900      .3670    12.1950
  399.8976     2.3450   314.8450     9.5900      .3460    12.0830
  400.0500     2.3280   311.8840    10.0900      .3310    11.7530
  400.2024     2.3040   309.5600    11.1910      .3420    11.2230
  400.3548     2.2720   308.8770    12.4920      .3630    10.3280
  400.5072     2.2520   311.2900    13.9930      .3950     9.3310
  400.6596     2.2430   316.9920    14.6940      .4200     8.5870
  400.8120     2.2210   327.1470    15.3940      .4350     7.9030
  400.9644     2.1740   343.4800    15.2940      .4450     7.4090
  401.1168     2.1300   358.5290    15.5940      .4490     7.0750
  401.2692     2.1360   363.9250    15.4940      .4590     6.8180
  401.4216     2.1830   361.7470    16.1950      .4560     6.6320
  401.5740     2.2450   358.9550    16.1950      .4510     6.6940
  401.7264     2.2250   364.9230    16.0950      .4520     6.9450
  401.8788     2.1940   377.8720    16.2950      .4430     7.3410
  402.0312     2.1390   389.5770    16.2950      .4450     7.9760
  402.1836     2.1020   393.8520    15.2940      .4420     8.5870
  402.3360     2.1220   386.3390    16.0950      .4350     8.9930
  402.4884     2.1500   372.3330    15.3940      .4240     9.4180
  402.6408     2.1590   362.7810    14.9940      .4320     9.7720
  402.7932     2.1610   362.2290    15.7950      .4430    10.6180
  402.9456     2.1300   368.4370    16.1950      .4390    10.7170
  403.0980     2.1050   373.8490    16.4950      .4310    10.7170
  403.2504     2.1170   371.4020    17.8960      .4280    11.4320
  403.4028     2.1480   364.1600    17.6960      .4290    11.5380
  403.5552     2.1750   358.3890    17.6960      .4220    11.6450
  403.7076     2.2060   356.0040    16.9950      .4110    11.6450
  403.8600     2.2200   356.3180    17.0960      .4040    11.5380
  404.0124     2.2210   358.8090    17.5960      .4030    11.2230
  404.1648     2.1980   362.4020    16.9950      .4060    10.6180
  404.3172     2.1940   364.7600    16.1950      .4250    10.0460
  404.4696     2.1830   365.6710    15.1940      .4550     9.5930
  404.6220     2.1570   367.4390    14.3940      .4630     8.9930
  404.7744     2.1450   369.5520    14.4940      .4750     8.2000
  404.9268     2.1520   371.2750    14.1930      .4820     7.5470
  405.0792     2.1380   372.1020    14.1930      .4840     7.0100
  405.2316     2.1390   371.5850    15.0940      .4690     6.4510
  405.3840     2.1380   369.7570    14.8940      .4560     6.0470
