~VERSION INFORMATION
VERS.                                                 2.0:   CWLS Log ASCII Standard-VERSION 2.0
WRAP.                                                  NO:   One line per depth step
~Well Information Block
STRT.M                                            15.0876:   Top Depth
STOP.M                                           669.0360:   Bottom Depth
STEP.M                                             .15240:   Depth Increment
NULL.                                            -999.250:   Null Value
FLD .                                               NATIH:   Field Name
WELL.                                      NATIH WSW-13H1:   NAME
EDF .                                              231.32:   ELEV DRILL FLOOR
EPD .                                                   0:   ELEV PERM DATUM
EGL .                                              226.75:   GROUND LEVEL
COMP.                          Petroleum Development Oman:   OPERATOR
PDAT.                                                 MSL:   PERM DATUM
COUN.                                             RIG05_1:   RIG NAME
SPUD.                                          1980/03/02:   SPUD DATE
LATI.                                         22.46529137:   SURF. LATITUDE
LONG.                                         56.71960289:   SURF. LONGITUDE
UTME.                                           471151.72:   SURF. UTM E
UTMN.                                          2484147.59:   SURF. UTM N
~PARAMETER INFORMATION (log)
LNAM.                                              PUBLIC:   NAME
LTYP.                                              JOINED:   LOG TYPE
LSRV.                                            CLEAN UP:   SERVICE
LSOU.                                              TARGET:   LOG SOURCE
LVSN.                                                   1:   LOG VERSION
BHIS.                                                   R:   BRIEF HISTORY
TDD .M                                             694.94:   FINAL TD DRILLER
TDL .M                                             665.68:   FINAL TD LOGGER
FHIS.                                             RAW-LAS:   FULL HISTORY
~Curve Information Block
#MNEM.UNIT                                        API CODE    No Description
#=========                                        ========    == ===========
DEPT.M                                       00 001 00 00:     1  DEPTH
DEN.G/C3                                                 :     2  Bulk Density
DT.US/M                                                  :     3  Sonic (Compressional)
GR.API                                                   :     4  Gamma Ray
NEU.V/V                                                  :     5  Neutron Porosity in Limestone Units
RES_DEP.OHMM                                             :     6  Resistivity Deep
~ASCII
# ...
  182.4228     2.0730   374.8230    37.4100      .5050     3.3190
  182.5752     2.0640   367.2670    37.3100      .5050     3.2890
  182.7276     2.0610   361.2960    38.3110      .4920     3.2590
  182.8800     2.0590   353.7570    38.7110      .4980     3.2590
  183.0324     2.0540   348.3280    37.5100      .5090     3.2890
  183.1848     2.0410   346.3190    36.7100      .5120     3.2890
  183.3372     2.0380   344.0910    36.4090      .4970     3.3190
  183.4896     2.0320   341.9140    37.8100      .4920     3.3810
  183.6420     2.0390   340.0180    37.0100      .4780     3.4760
  183.7944     2.0490   337.4530    37.4100      .4700     3.7420
  183.9468     2.0620   334.1270    35.8090      .4710     3.7420
  184.0992     2.0650   330.5090    33.5070      .4630     3.7420
  184.2516     2.0720   327.1230    32.0060      .4500     3.9550
  184.4040     2.0820   323.8740    32.3060      .4480     4.0670
  184.5564     2.0890   320.3350    32.1060      .4490     4.1810
  184.7088     2.0800   318.0360    32.0060      .4430     4.2190
  184.8612     2.0930   318.9900    33.9080      .4320     4.2980
  185.0136     2.0970   321.5650    34.8080      .4310     4.2980
  185.1660     2.1000   323.2450    34.6080      .4360     4.2980
  185.3184     2.0970   324.0220    35.6090      .4550     4.2590
  185.4708     2.0880   325.3370    35.0080      .4620     4.1810
  185.6232     2.0740   328.1510    34.3080      .4660     4.0670
  185.7756     2.0650   332.6170    34.6080      .4500     4.0290
  185.9280     2.0660   338.2970    34.7080      .4530     3.9190
  186.0804     2.0600   344.4340    33.5070      .4630     3.8470
  186.2328     2.0610   350.1260    34.6080      .4680     3.7770
  186.3852     2.0680   354.2340    32.7070      .4710     3.7080
  186.5376     2.0640   358.1640    30.5050      .4690     3.6400
  186.6900     2.0620   373.2320    31.0060      .4640     3.6070
  186.8424     2.0560   412.6760    29.4040      .4590     3.5740
  186.9948     2.0620   459.6270    30.3050      .4680     3.5740
  187.1472     2.0700   484.5090    31.1060      .4850     3.5410
  187.2996     2.0680   490.8850    30.8050      .4930     3.5410
  187.4520     2.0700   493.1530    31.2060      .4930     3.5080
  187.6044     2.0760   495.3670    33.3070      .4820     3.5080
  187.7568     2.0780   496.8190    32.8070      .4610     3.5080
  187.9092     2.0760   496.9190    31.3060      .4410     3.5080
  188.0616     2.0810   495.9440    31.2060      .4400     3.5080
  188.2140     2.0900   494.1660    29.8050      .4470     3.5080
  188.3664     2.0980   491.7460    29.4040      .4560     3.5080
  188.5188     2.0940   489.2670    31.0060      .4660     3.5080
  188.6712     2.0890   487.0740    32.1060      .4420     3.5410
  188.8236     2.0860   485.1910    32.6070      .4250     3.6070
  188.9760     2.0880   483.5020    31.8060      .4230     3.7080
  189.1284     2.1020   481.4960    31.1060      .4280     3.7770
  189.2808     2.1020   478.8150    29.3040      .4310     3.9190
  189.4332     2.1030   475.9390    28.6040      .4300     4.1040
  189.5856     2.1120   472.3480    29.3040      .4330     4.2980
  189.7380     2.1130   467.4110    28.6040      .4370     4.5010
  189.8904     2.1110   461.8670    27.2030      .4300     4.7570
  190.0428     2.1140   455.0330    25.3010      .4240     4.9820
  190.1952     2.1170   446.4800    25.2010      .4280     5.1690
  190.3476     2.1370   437.9730    24.2010      .4420     5.4130
  190.5000     2.1570   431.7210    23.9000      .4470     5.6170
  190.6524     2.1700   427.6050    24.5010      .4220     5.7220
  190.8048     2.1540   425.9630    25.9020      .4180     5.7750
  190.9572     2.1530   426.4830    25.8020      .4170     5.8280
  191.1096     2.1470   427.0750    26.2020      .4070     5.9370
  191.2620     2.1350   424.8830    26.2020      .4000     6.1030
  191.4144     2.1370   418.0260    27.3030      .3890     6.3330
  191.5668     2.1390   407.2850    26.9030      .3870     6.5710
  191.7192     2.1220   395.7650    26.0020      .3910     6.8810
  191.8716     2.1240   387.8620    24.5010      .3980     7.2060
  192.0240     2.1370   384.9710    25.5010      .4100     7.4090
  192.1764     2.1310   386.1790    27.1030      .4210     7.7590
  192.3288     2.1300   389.6750    27.1030      .4270     8.0500
  192.4812     2.1240   391.6450    27.3030      .4080     8.2000
  192.6336     2.1230   390.7070    25.9020      .3940     8.1250
  192.7860     2.1230   388.5990    23.8000      .3730     7.6170
  192.9384     2.1280   388.3200    23.2000      .3650     6.9450
  193.0908     2.1310   391.4700    23.3000      .3690     7.0100
  193.2432     2.1210   397.0990    23.5000      .3940     6.8180
  193.3956     2.0960   403.6580    23.2000      .4050     6.3330
  193.5480     2.1020   409.9840    23.6000      .4130     6.1030
  193.7004     2.0900   415.2070    24.0000      .4300     6.2170
  193.8528     2.0780   419.5990    22.5990      .4620     6.2750
  194.0052     2.0330   423.2820    22.6990      .4790     6.1600
  194.1576     2.0180   424.7310    23.0000      .4850     6.1030
  194.3100     2.0450   424.4280    24.2010      .4710     6.2750
  194.4624     2.0750   421.7480    25.5010      .4630     6.5110
  194.6148     2.0410   412.1730    25.0010      .4660     6.6940
  194.7672     2.0160   390.1910    24.0000      .4740     6.9450
  194.9196     1.9810   361.7180    24.3010      .4530     7.2730
  195.0720     1.9290   341.8600    23.2000      .4270     7.4770
  195.2244     1.9080   341.2540    22.0990      .4180     7.9760
  195.3768     1.9190   362.7860    23.4000      .4280     8.6670
  195.5292     1.9610   388.6700    23.3000      .4260     9.5930
  195.6816     2.0290   397.3380    22.6990      .4390    10.8160
  195.8340     2.1220   391.2880    20.7980      .4280    11.6450
  195.9864     2.1850   379.5670    20.2980      .4210    12.4220
  196.1388     2.2190   367.1060    20.8980      .4230    12.7710
  196.2912     2.2360   357.3980    20.6980      .4030    12.5370
  196.4436     2.2440   352.4770    22.1990      .3730    12.0830
  196.5960     2.2420   354.9740    24.1010      .3680    11.5380
  196.7484     2.2040   364.8850    24.9010      .3830    10.4240
  196.9008     2.2010   378.7780    24.9010      .4000     9.4180
  197.0532     2.1810   391.8440    25.3010      .4210     8.5090
  197.2056     2.1140   401.4440    25.4010      .4500     7.3410
  197.3580     2.0940   407.5670    26.9030      .4420     6.3330
  197.5104     2.0570   411.4500    28.4040      .4360     5.9370
  197.6628     2.0620   415.9380    27.7030      .4390     5.9920
  197.8152     2.0260   420.1080    27.5030      .4370     5.8280
  197.9676     2.0000   420.9210    29.4040      .4420     5.8280
  198.1200     2.0290   418.9910    27.5030      .4320     5.8820
  198.2724     2.0040   417.0480    27.4030      .4260     5.9370
  198.4248     1.9690   417.2770    27.1030      .4040     6.1030
  198.5772     1.9490   419.3060    27.8030      .4060     6.1600
  198.7296     1.9530   419.9990    27.4030      .4220     5.8820
  198.8820     1.9690   417.0970    26.7020      .4460     5.6690
  199.0344     2.0230   411.3730    25.7020      .4640     5.6690
  199.1868     2.0120   406.6600    26.4020      .4520     5.7750
  199.3392     2.0450   406.1530    26.9030      .4310     5.9370
  199.4916     2.0740   409.8000    25.2010      .4290     6.0470
  199.6440     2.0700   414.9210    24.0000      .4250     5.8280
  199.7964     2.0650   417.8410    23.8000      .4280     5.4640
  199.9488     2.0550   417.9520    25.5010      .4320     5.2660
  200.1012     2.0290   417.1160    25.9020      .4340     5.2660
  200.2536     2.0810   416.8730    24.5010      .4380     5.2660
  200.4060     2.1340   418.0720    22.4990      .4590     5.5650
  200.5584     2.1310   420.4420    21.4990      .4630     5.9920
  200.7108     2.1740   420.5250    20.8980      .4480     6.4510
  200.8632     2.2460   412.5830    19.6970      .4120     6.8180
