~VERSION INFORMATION
VERS.                                                 2.0:   CWLS Log ASCII Standard-VERSION 2.0
WRAP.                                                  NO:   One line per depth step
~Well Information Block
STRT.M                                            15.0876:   Top Depth
STOP.M                                           669.0360:   Bottom Depth
STEP.M                                             .15240:   Depth Increment
NULL.                                            -999.250:   Null Value
FLD .                                               NATIH:   Field Name
WELL.                                      NATIH WSW-13H1:   NAME
EDF .                                              231.32:   ELEV DRILL FLOOR
EPD .                                                   0:   ELEV PERM DATUM
EGL .                                              226.75:   GROUND LEVEL
COMP.                          Petroleum Development Oman:   OPERATOR
PDAT.                                                 MSL:   PERM DATUM
COUN.                                             RIG05_1:   RIG NAME
SPUD.                                          1980/03/02:   SPUD DATE
LATI.                                         22.46529137:   SURF. LATITUDE
LONG.                                         56.71960289:   SURF. LONGITUDE
UTME.                                           471151.72:   SURF. UTM E
UTMN.                                          2484147.59:   SURF. UTM N
~PARAMETER INFORMATION (log)
LNAM.                                              PUBLIC:   NAME
LTYP.                                              JOINED:   LOG TYPE
LSRV.                                            CLEAN UP:   SERVICE
LSOU.                                              TARGET:   LOG SOURCE
LVSN.                                                   1:   LOG VERSION
BHIS.                                                   R:   BRIEF HISTORY
TDD .M                                             694.94:   FINAL TD DRILLER
TDL .M                                             665.68:   FINAL TD LOGGER
FHIS.                                             RAW-LAS:   FULL HISTORY
~Curve Information Block
#MNEM.UNIT                                        API CODE    No Description
#=========                                        ========    == ===========
DEPT.M                                       00 001 00 00:     1  DEPTH
DEN.G/C3                                                 :     2  Bulk Density
DT.US/M                                                  :     3  Sonic (Compressional)
GR.API                                                   :     4  Gamma Ray
NEU.V/V                                                  :     5  Neutron Porosity in Limestone Units
RES_DEP.OHMM                                             :     6  Resistivity Deep
~ASCII
# ...
  647.2428  -999.2500   257.3310    51.8260      .1570     7.6560
  647.3952  -999.2500   260.0160    56.2280      .1820     7.4470
  647.5476  -999.2500   275.7210    60.2300      .2170     9.1200
  647.7000  -999.2500   287.2690    63.4320      .2500     8.2410
  647.8524  -999.2500   291.9410    67.8340      .2470     6.4860
  648.0048  -999.2500   288.4650    66.8330      .2240     5.7020
  648.1572  -999.2500   281.2990    62.8310      .2130     5.7020
  648.3096  -999.2500   280.5660    61.1310      .2220     5.5460
  648.4620  -999.2500   285.5710    60.8300      .2430     5.4950
  648.6144  -999.2500   288.0830    55.7280      .2630     5.4950
  648.7668  -999.2500   289.5100    46.6230      .2630     5.3950
  648.9192  -999.2500   292.6490    40.3200      .2490     5.1050
  649.0716  -999.2500   298.5100    37.4190      .2490     5.1050
  649.2240  -999.2500   306.2140    37.1180      .2470     5.2000
  649.3764  -999.2500   306.0060    37.7190      .2440     5.2480
  649.5288  -999.2500   297.9100    36.3180      .2490     5.2480
  649.6812  -999.2500   291.2430    35.9180      .2580     5.5460
  649.8336  -999.2500   290.2580    34.2170      .2650     5.5980
  649.9860  -999.2500   290.4730    33.0160      .2620     5.4950
  650.1384  -999.2500   283.2350    32.0160      .2550     5.4450
  650.2908  -999.2500   270.3460    32.1160      .2500     5.2480
  650.4432  -999.2500   262.0950    30.5150      .2470     5.0120
  650.5956  -999.2500   265.2450    29.2150      .2620     4.8310
  650.7480  -999.2500   276.8340    27.2140      .2750     4.6560
  650.9004  -999.2500   289.9620    28.0140      .2850     4.4870
  651.0528  -999.2500   299.9940    27.8140      .2930     4.4460
  651.2052  -999.2500   306.4100    27.6140      .3020     4.5710
  651.3576  -999.2500   310.0870    28.4140      .3010     4.7420
  651.5100  -999.2500   309.2100    29.8150      .2980     4.9200
  651.6624  -999.2500   303.2040    31.4160      .2950     5.4950
  651.8148  -999.2500   290.7480    33.3170      .2770     5.5980
  651.9672  -999.2500   271.0560    36.9180      .2490     5.4950
  652.1196  -999.2500   250.1250    40.1200      .2290     6.3680
  652.2720  -999.2500   237.6880    40.5200      .2070     7.4470
  652.4244  -999.2500   238.6110    40.8200      .2090     7.5860
  652.5768  -999.2500   251.0170    42.5210      .2290     6.8550
  652.7292  -999.2500   264.4840    45.5230      .2590     5.8080
  652.8816  -999.2500   268.6350    48.3240      .2770     4.3650
  653.0340  -999.2500   269.5770    51.1250      .2720     3.6310
  653.1864  -999.2500   283.4360    50.9250      .2610     3.4990
  653.3388  -999.2500   303.6460    49.5250      .2800     3.4360
  653.4912  -999.2500   321.0900    47.1240      .3210     3.4360
  653.6436  -999.2500   333.4270    45.4230      .3820     3.6980
  653.7960  -999.2500   342.6020    43.1220      .4470     3.2810
  653.9484  -999.2500   339.1220    40.6200      .4670     2.9380
  654.1008  -999.2500   317.6560    41.8210      .4470     2.9110
  654.2532  -999.2500   302.8500    43.6220      .3450     2.7800
  654.4056  -999.2500   306.6330    45.0220      .2580     2.7290
  654.5580  -999.2500   322.3260    47.3240      .2610     2.8050
  654.7104  -999.2500   337.1390    45.5230      .2990     2.7290
  654.8628  -999.2500   343.2160    44.8220      .3370     2.5350
  655.0152  -999.2500   352.7630    45.7230      .3850     2.4430
  655.1676  -999.2500   376.0250    46.4230      .4070     2.3550
  655.3200  -999.2500   402.7890    46.2230      .4090     2.3120
  655.4724  -999.2500   412.9530    43.9220      .4090     2.5120
  655.6248  -999.2500   406.2460    44.1220      .4370     2.8310
  655.7772  -999.2500   392.4240    43.2220      .4440     3.1050
  655.9296  -999.2500   372.0710    43.5220      .4210     3.4040
  656.0820  -999.2500   358.8970    45.3230      .3570     3.8370
  656.2344  -999.2500   354.3090    46.3230      .2690     4.4460
  656.3868  -999.2500   336.9480    47.0230      .2410     4.4870
  656.5392  -999.2500   315.4000    48.5240      .2500     4.4460
  656.6916  -999.2500   309.3210    49.3250      .2580     4.9660
  656.8440  -999.2500   311.3150    48.4240      .2720     5.0580
  656.9964  -999.2500   310.1640    47.4240  -999.2500     4.8310
  657.1488  -999.2500   308.9240    45.5230  -999.2500     4.4870
  657.3012  -999.2500  -999.2500    45.2230  -999.2500     4.3250
  657.4536  -999.2500  -999.2500    44.5220  -999.2500     4.1300
  657.6060  -999.2500  -999.2500    45.5230  -999.2500     4.0930
  657.7584  -999.2500  -999.2500    43.4220  -999.2500     4.1690
  657.9108  -999.2500  -999.2500    42.5210  -999.2500     4.1690
  658.0632  -999.2500  -999.2500    43.2220  -999.2500     4.1690
  658.2156  -999.2500  -999.2500    44.1220  -999.2500     4.2460
  658.3680  -999.2500  -999.2500    45.6230  -999.2500     4.2460
  658.5204  -999.2500  -999.2500    47.1240  -999.2500     4.3250
  658.6728  -999.2500  -999.2500    47.0230  -999.2500     4.5290
  658.8252  -999.2500  -999.2500    45.2230  -999.2500     4.6560
  658.9776  -999.2500  -999.2500    43.6220  -999.2500     4.7420
  659.1300  -999.2500  -999.2500    44.6220  -999.2500     4.8750
  659.2824  -999.2500  -999.2500    43.8220  -999.2500     4.8750
  659.4348  -999.2500  -999.2500    44.5220  -999.2500     4.6990
  659.5872  -999.2500  -999.2500    47.2240  -999.2500     4.4460
  659.7396  -999.2500  -999.2500    48.0240  -999.2500     4.1690
  659.8920  -999.2500  -999.2500    45.9230  -999.2500     3.9810
  660.0444  -999.2500  -999.2500    43.0210  -999.2500     3.9450
  660.1968  -999.2500  -999.2500    43.1220  -999.2500     3.9450
  660.3492  -999.2500  -999.2500    44.2220  -999.2500     3.9450
  660.5016  -999.2500  -999.2500    44.1220  -999.2500     3.8730
  660.6540  -999.2500  -999.2500    41.0210  -999.2500     4.0180
  660.8064  -999.2500  -999.2500    41.2210  -999.2500     4.3250
  660.9588  -999.2500  -999.2500    40.9210  -999.2500     4.2850
  661.1112  -999.2500  -999.2500    42.0210  -999.2500     4.2850
  661.2636  -999.2500  -999.2500    41.0210  -999.2500     4.7420
  661.4160  -999.2500  -999.2500    43.6220  -999.2500     5.0120
  661.5684  -999.2500  -999.2500    46.0230  -999.2500     5.1520
  661.7208  -999.2500  -999.2500    45.7230  -999.2500     5.2480
  661.8732  -999.2500  -999.2500    45.0220  -999.2500     5.2480
  662.0256  -999.2500  -999.2500    44.1220  -999.2500     5.1050
  662.1780  -999.2500  -999.2500    44.1220  -999.2500     5.0120
  662.3304  -999.2500  -999.2500    44.1220  -999.2500     4.9200
  662.4828  -999.2500  -999.2500    44.1220  -999.2500     4.8310
  662.6352  -999.2500  -999.2500    44.1220  -999.2500     4.7860
  662.7876  -999.2500  -999.2500    44.1220  -999.2500     4.7420
  662.9400  -999.2500  -999.2500    44.1220  -999.2500     4.6990
  663.0924  -999.2500  -999.2500    44.1220  -999.2500     4.6130
  663.2448  -999.2500  -999.2500    44.1220  -999.2500     4.6130
  663.3972  -999.2500  -999.2500    44.1220  -999.2500     4.6130
  663.5496  -999.2500  -999.2500    44.1220  -999.2500     4.7860
  663.7020  -999.2500  -999.2500    44.1220  -999.2500     5.0120
  663.8544  -999.2500  -999.2500    44.1220  -999.2500     5.1050
  664.0068  -999.2500  -999.2500    44.1220  -999.2500     5.1520
  664.1592  -999.2500  -999.2500    44.3220  -999.2500     5.1050
  664.3116  -999.2500  -999.2500    43.8220  -999.2500     5.0120
  664.4640  -999.2500  -999.2500    42.6210  -999.2500     4.9660
  664.6164  -999.2500  -999.2500    43.4220  -999.2500     5.0120
  664.7688  -999.2500  -999.2500    45.2230  -999.2500     5.2000
  664.9212  -999.2500  -999.2500    47.1240  -999.2500     5.4450
  665.0736  -999.2500  -999.2500    47.5240  -999.2500     5.6490
  665.2260  -999.2500  -999.2500    47.3240  -999.2500     6.1380
  665.3784  -999.2500  -999.2500    45.8230  -999.2500     6.8550
  665.5308  -999.2500  -999.2500    44.3220  -999.2500     6.7300
  665.6832  -999.2500  -999.2500    43.9220  -999.2500     6.8550
