~VERSION INFORMATION
VERS.                                                 2.0:   CWLS Log ASCII Standard-VERSION 2.0
WRAP.                                                  NO:   One line per depth step
~Well Information Block
STRT.M                                              .6096:   Top Depth
STOP.M                                          1141.9332:   Bottom Depth
STEP.M                                             .15240:   Depth Increment
NULL.                                            -999.250:   Null Value
FLD .                                               NATIH:   Field Name
WELL.                                          NATIH-85H1:   NAME
EDF .                                              214.53:   ELEV DRILL FLOOR
EPD .                                                   0:   ELEV PERM DATUM
EGL .                                              209.96:   GROUND LEVEL
COMP.                          PETROLEUM DEVELOPMENT OMAN:   OPERATOR
PDAT.                                                 MSL:   PERM DATUM
COUN.                                             RIG05_3:   RIG NAME
SPUD.                                          1990/12/20:   SPUD DATE
LATI.                                         22.42686054:   SURF. LATITUDE
LONG.                                         56.67231194:   SURF. LONGITUDE
UTME.                                           466276.93:   SURF. UTM E
UTMN.                                          2479903.71:   SURF. UTM N
~PARAMETER INFORMATION (log)
LNAM.                                              PUBLIC:   NAME
LTYP.                                              JOINED:   LOG TYPE
LSRV.                                            CLEAN UP:   SERVICE
LSOU.                                               FUGRO:   LOG SOURCE
LVSN.                                                   1:   LOG VERSION
BHIS.                                                   R:   BRIEF HISTORY
TDD .M                                            1165.00:   FINAL TD DRILLER
TDL .M                                            1151.00:   FINAL TD LOGGER
FHIS.                                             RAW-LAS:   FULL HISTORY
~Curve Information Block
#MNEM.UNIT                                        API CODE    No Description
#=========                                        ========    == ===========
DEPT.M                                       00 001 00 00:     1  DEPTH
DEN.G/CC                                                 :     2  Bulk Density
DT.US/M                                                  :     3  Acoustic log
GR.API                                                   :     4  Gamma Ray
NEU.V/V                                                  :     5  Neutron Porosity in Limestone Units
RES_DEP.OHMM                                             :     6  Resistivity Deep
~ASCII
# ...
 1078.9920     2.5997   402.6800    12.6962      .0601     8.5924
 1079.1444     2.6262   408.7200    19.2093      .0580     5.7585
 1079.2968     2.6486   418.7097    27.1412      .0679     3.3113
 1079.4492     2.6338   433.1843    37.0551      .0933     2.0852
 1079.6016     2.5676   447.3015    43.5745      .1429     1.5375
 1079.7540     2.4129   456.2013    49.2571      .2328     1.3677
 1079.9064     2.3434   463.7345    50.3185      .3494     1.2523
 1080.0588     2.4576   475.4263    49.8181      .4093     1.1934
 1080.2112     2.4316   479.8900    49.5813      .4159     1.0953
 1080.3636     2.1946   470.2314    51.4795      .3949     1.0149
 1080.5160     1.7391   475.1155    53.8659      .4194      .9374
 1080.6684     1.9114   475.9372    56.8057      .4494      .9369
 1080.8208     2.4207   472.2396    56.6701      .4809      .9638
 1080.9732     2.4272   459.9438    57.2244      .4289      .9131
 1081.1256     2.1869   452.6006    55.2049      .4121      .9139
 1081.2780     1.8311   467.9469    56.7523      .4320      .8709
 1081.4304     1.9254   489.3063    55.6889      .4446      .8805
 1081.5828     2.0860   499.9221    55.6889      .4773      .9998
 1081.7352     1.9935   491.0971    56.1425      .4942     1.0703
 1081.8876     2.2016   479.7685    56.9789      .4864     1.2017
 1082.0400     2.4317   472.9378    60.6965      .4122     1.3543
 1082.1924     2.4851   465.9152    58.6723      .3731     1.4135
 1082.3448     2.5168   465.6884    55.9534      .3643     1.2836
 1082.4972     2.6258   470.4076    50.9271      .3495     1.2405
 1082.6496     2.5422   481.8721    50.7052      .3474     1.2716
 1082.8020     2.2135   484.3861    50.9336      .3310     1.4628
 1082.9544     2.4068   469.3566    45.8587      .2709     2.1920
 1083.1068     2.4353   473.7647    35.8070      .1360     3.6201
 1083.2592     2.5778   483.3260    24.9395      .0940     7.1000
 1083.4116     2.6380   482.0899    17.8467      .0695     9.5096
 1083.5640     2.6956   476.7828    16.5499      .0705     6.7543
 1083.7164     2.6712   483.5759    22.7028      .0741     3.8041
 1083.8688     2.6738   486.1864    32.5145      .0908     3.4063
 1084.0212     2.5626   477.6492    37.7880      .1556     3.4903
 1084.1736     2.5399   458.4518    29.8620      .1833     4.3719
 1084.3260     2.6160   437.4256    17.8017      .1111    11.1792
 1084.4784     2.6346   430.2424     9.0961      .0548    23.2343
 1084.6308     2.5531   421.5589     6.8469      .0335    24.7835
 1084.7832     2.5847   420.2781     7.6702      .0389    25.3031
 1084.9356     2.6496   423.0926     7.7883      .0450    26.7910
 1085.0880     2.5839   415.2751    10.2679      .0514    30.7263
 1085.2404     2.5639   409.3646    11.8017      .0416    27.8997
 1085.3928     2.5840   407.2679    14.5008      .0363     7.0960
 1085.5452     2.6502   410.7865    22.0383      .0475     4.0479
 1085.6976     2.6194   431.1913    29.2531      .0997     3.1047
 1085.8500     2.5669   458.9640    37.1971      .2466     2.8171
 1086.0024     2.5720   471.9041    34.0395      .2764     3.0881
 1086.1548     2.6523   465.1600    28.3712      .1464     5.4495
 1086.3072     2.6234   451.6805    20.5664      .0898     8.2255
 1086.4596     2.6642   431.2524    18.2022      .0627    10.1032
 1086.6120     2.6849   422.7909    18.3172      .0592     9.8350
 1086.7644     2.6883   428.9734    21.5177      .0655     4.2077
 1086.9168     2.6929   430.6388    29.3130      .0894     2.2631
 1087.0692     2.4229   426.8703    38.1822      .1410     2.0368
 1087.2216     2.2140   425.0674    44.5523      .2070     1.3562
 1087.3740     2.2452   434.4664    45.8594      .2709     1.3542
 1087.5264     2.5357   445.9166    47.1516      .4101     1.3655
 1087.6788     2.6163   451.0739    52.3603      .3809     1.4331
 1087.8312     2.5538   459.0374    54.7246      .3880     1.5361
 1087.9836     2.5200   466.0780    54.2278      .3637     1.4798
 1088.1360     2.5108   469.3511    51.3907      .3843     1.2466
 1088.2884     2.4517   523.2029    49.0264      .3741     1.0881
 1088.4408     1.3947   611.0624    52.2503      .4415      .8590
 1088.5932     1.4884   642.7394    51.5328      .4262      .7922
 1088.7456     1.6757   657.2073    53.2495      .5275      .7949
 1088.8980     1.8472   665.1655    49.5848      .6826      .8733
 1089.0504     1.5050   650.8647    50.7494      .7182      .9622
 1089.2028     1.6267   562.7366    52.5700      .6738     1.1975
 1089.3552     1.9913   526.6006    52.0897      .5307     1.3738
 1089.5076     2.3794   583.9326    54.3615      .4185     1.5048
 1089.6600     2.5664   587.6366    54.2433      .3505     1.3013
 1089.8124     2.4406   669.2881    56.3786      .3449     1.0227
 1089.9648     2.0281   754.9771    53.1703      .3781      .8518
 1090.1172     1.4153   770.1790    50.2164      .4260      .7970
 1090.2696     1.6333   752.5161    51.0260      .4505      .8592
 1090.4220     1.6676   730.4586    51.6303      .4946     1.1863
 1090.5744     1.8600   739.9341    50.1985      .4552     1.4833
 1090.7268     2.1131   732.2833    43.7032      .3709     1.3972
 1090.8792     2.1833   718.9722    40.8478      .3118     1.2216
 1091.0316     1.3266   698.9208    41.4380      .3072      .9088
 1091.1840     1.2246   635.3405    46.6095      .2991      .7444
 1091.3364     1.2992   532.1140    45.8603      .3521      .7282
 1091.4888     1.2267   485.2756    43.9970      .4439      .7449
 1091.6412     1.3579   492.5666    42.0288      .5773      .7755
 1091.7936     1.6009   502.8731    41.5124      .6138      .7921
 1091.9460     1.8319   506.2683    44.7057      .6202      .7969
 1092.0984     1.8883   496.7326    43.5303      .5710      .7850
 1092.2508     1.5216   484.0654    40.9218      .6383      .7531
 1092.4032     1.5394   465.9116    37.2457      .6528      .7342
 1092.5556     1.7221   446.6129    35.4481      .5662      .7536
 1092.7080     1.6946   443.2095    36.0829      .5176      .7611
 1092.8604     1.4145   437.3486    38.6120      .4636      .7824
 1093.0128     1.5334   422.6357    42.1608      .5090      .8766
 1093.1652     1.8188   431.7432    46.1235      .4986      .9896
 1093.3176     1.9411   443.8991    46.1913      .4073     1.0313
 1093.4700     2.2002   458.1259    44.3017      .3370     1.4339
 1093.6224     2.0422   468.6587    36.2407      .3846     2.0215
 1093.7748     2.1343   463.7718    25.5482      .3461     3.0705
 1093.9272     2.4857   447.2721    15.5099      .1794     7.9556
 1094.0796     2.5493   437.3818    12.1098      .1028    10.2406
 1094.2320     2.5468   427.4915    10.7489      .0784     9.1425
 1094.3844     2.5328   429.0320    12.4023      .0801     8.6007
 1094.5368     2.5463   444.8608    11.6933      .0853     8.6851
 1094.6892     2.5430   436.8394    11.4558      .0741     8.6592
 1094.8416     2.5817   416.1638    10.6824      .0628     8.2389
 1094.9940     2.5828   416.9365    15.3507      .0563     8.7007
 1095.1464     2.5974   417.7091    17.6102      .0535     9.5147
 1095.2988     2.6325   413.7987    19.1466      .0551     8.8932
 1095.4512     2.6539   410.1654    20.9122      .0555     5.6153
 1095.6036     2.6099   430.7397    28.6986      .0624     3.5355
 1095.7560     2.5937   458.7930    32.6595      .0853     3.3476
 1095.9084     2.5443   455.7111    32.1290      .1369     3.3802
 1096.0608     2.5420   444.1687    23.9739      .1962     4.5108
 1096.2132     2.5379   441.7058    18.0317      .1422     9.2587
 1096.3656     2.5531   435.5331    14.2526      .0983    11.2248
 1096.5180     2.5337   423.2086    13.7025      .0720    10.4587
 1096.6704     2.5743   415.0306    14.9208      .0669     9.2977
 1096.8228     2.5873   418.5643    15.6709      .0537     9.1299
 1096.9752     2.6317   412.9434    17.1713      .0457     9.0877
 1097.1276     2.6250   407.4398    18.6016      .0424     9.5582
 1097.2800     2.6400   409.2086    18.2199      .0415    11.3478
 1097.4324     2.6453   410.9773    18.3466      .0343    14.2851
