~VERSION INFORMATION
VERS.                                                 2.0:   CWLS Log ASCII Standard-VERSION 2.0
WRAP.                                                  NO:   One line per depth step
~Well Information Block
STRT.M                                            15.0876:   Top Depth
STOP.M                                           669.0360:   Bottom Depth
STEP.M                                             .15240:   Depth Increment
NULL.                                            -999.250:   Null Value
FLD .                                               NATIH:   Field Name
WELL.                                      NATIH WSW-13H1:   NAME
EDF .                                              231.32:   ELEV DRILL FLOOR
EPD .                                                   0:   ELEV PERM DATUM
EGL .                                              226.75:   GROUND LEVEL
COMP.                          Petroleum Development Oman:   OPERATOR
PDAT.                                                 MSL:   PERM DATUM
COUN.                                             RIG05_1:   RIG NAME
SPUD.                                          1980/03/02:   SPUD DATE
LATI.                                         22.46529137:   SURF. LATITUDE
LONG.                                         56.71960289:   SURF. LONGITUDE
UTME.                                           471151.72:   SURF. UTM E
UTMN.                                          2484147.59:   SURF. UTM N
~PARAMETER INFORMATION (log)
LNAM.                                              PUBLIC:   NAME
LTYP.                                              JOINED:   LOG TYPE
LSRV.                                            CLEAN UP:   SERVICE
LSOU.                                              TARGET:   LOG SOURCE
LVSN.                                                   1:   LOG VERSION
BHIS.                                                   R:   BRIEF HISTORY
TDD .M                                             694.94:   FINAL TD DRILLER
TDL .M                                             665.68:   FINAL TD LOGGER
FHIS.                                             RAW-LAS:   FULL HISTORY
~Curve Information Block
#MNEM.UNIT                                        API CODE    No Description
#=========                                        ========    == ===========
DEPT.M                                       00 001 00 00:     1  DEPTH
DEN.G/C3                                                 :     2  Bulk Density
DT.US/M                                                  :     3  Sonic (Compressional)
GR.API                                                   :     4  Gamma Ray
NEU.V/V                                                  :     5  Neutron Porosity in Limestone Units
RES_DEP.OHMM                                             :     6  Resistivity Deep
~ASCII
# ...
  610.0572  -999.2500   203.6480    25.3130      .0980    59.7040
  610.2096  -999.2500   213.6540    25.1120      .0840    71.1210
  610.3620  -999.2500   234.4870    25.2130      .0750    82.4140
  610.5144  -999.2500   232.3810    23.1110      .0680    87.0960
  610.6668  -999.2500   207.3560    24.1120      .0650    88.7160
  610.8192  -999.2500   190.8580    24.3120      .0640    87.9020
  610.9716  -999.2500   186.2870    26.4130      .0630    84.7230
  611.1240  -999.2500   183.6870    29.0140      .0560    85.5070
  611.2764  -999.2500   180.8850    28.9140      .0480   123.5950
  611.4288  -999.2500   177.6680    26.0130      .0410   201.3730
  611.5812  -999.2500   175.0030    22.9120      .0340   258.2260
  611.7336  -999.2500   172.9990    20.3100      .0300   272.8980
  611.8860  -999.2500   172.1950    18.4090      .0310   187.0680
  612.0384  -999.2500   173.0940    18.2090      .0350   148.5940
  612.1908  -999.2500   174.1640    19.3100      .0370   104.7130
  612.3432  -999.2500   174.6860    20.1100      .0360    86.2980
  612.4956  -999.2500   175.0340    20.4100      .0360    78.7050
  612.6480  -999.2500   174.1620    22.1110      .0360    79.4330
  612.8004  -999.2500   174.9650    23.1110      .0410    85.5070
  612.9528  -999.2500   179.8990    23.2120      .0540    89.5370
  613.1052  -999.2500   185.3710    23.1110      .0680    92.0450
  613.2576  -999.2500   186.9720    23.1110      .0700    77.2680
  613.4100  -999.2500   184.8970    22.5110      .0640    73.1140
  613.5624  -999.2500   180.2290    22.1110      .0600    69.8230
  613.7148  -999.2500   176.9730    21.6110      .0660    69.8230
  613.8672  -999.2500   179.0600    21.2110      .0680    65.4640
  614.0196  -999.2500   183.7500    22.0110      .0610    59.7040
  614.1720  -999.2500   188.4700    22.1110      .0610    75.1620
  614.3244  -999.2500   198.1850    22.8110      .0660    77.9830
  614.4768  -999.2500   208.8890    22.5110      .0780    61.9440
  614.6292  -999.2500   207.0800    23.1110      .0900    53.9510
  614.7816  -999.2500   200.1050    23.1110      .1090    51.5230
  614.9340  -999.2500   198.9010    24.0120      .1320    43.2510
  615.0864  -999.2500   202.4220    24.3120      .1380    44.0560
  615.2388  -999.2500   205.2350    23.8120      .1280    44.8750
  615.3912  -999.2500   209.9190    21.1110      .1330    44.0560
  615.5436  -999.2500   217.5850    19.5100      .1340    51.5230
  615.6960  -999.2500   219.6570    18.4090      .1240    55.4630
  615.8484  -999.2500   212.4500    16.7080      .1240    44.4630
  616.0008  -999.2500   207.2270    16.2080      .1350    32.5090
  616.1532  -999.2500   206.3330    18.5090      .1350    27.0400
  616.3056  -999.2500   210.0130    20.4100      .1220    25.5860
  616.4580  -999.2500   223.1710    21.5110      .1390    21.8780
  616.6104  -999.2500   236.9730    19.7100      .1890    18.0300
  616.7628  -999.2500   246.5390    19.6100      .2400    15.7040
  616.9152  -999.2500   257.7680    18.6090      .2690    14.5880
  617.0676  -999.2500   270.1300    19.0100      .2720    14.1910
  617.2200  -999.2500   282.1630    19.3100      .2830    14.3220
  617.3724  -999.2500   290.9490    20.4100      .3120    14.9970
  617.5248  -999.2500   292.0180    22.2110      .3180    15.8490
  617.6772  -999.2500   285.1140    21.1110      .2860    16.7490
  617.8296  -999.2500   272.0480    20.4100      .2420    18.0300
  617.9820  -999.2500   256.2300    19.4100      .2420    18.8800
  618.1344  -999.2500   232.7460    19.1100      .2410    19.2310
  618.2868  -999.2500   208.3660    19.7100      .2000    20.7010
  618.4392  -999.2500   203.5940    21.7110      .1920    21.8780
  618.5916  -999.2500   219.8230    20.4100      .2300    21.0860
  618.7440  -999.2500   244.1740    19.3100      .2650    19.9530
  618.8964  -999.2500   265.5950    20.8100      .2680    19.9530
  619.0488  -999.2500   273.5770    21.7110      .2630    20.1370
  619.2012  -999.2500   263.1670    22.5110      .2480    19.9530
  619.3536  -999.2500   241.8800    22.2110      .2250    19.9530
  619.5060  -999.2500   223.5750    20.4100      .2140    20.1370
  619.6584  -999.2500   214.2110    21.3110      .1860    20.3240
  619.8108  -999.2500   211.5210    23.8120      .1650    20.3240
  619.9632  -999.2500   212.3630    24.0120      .1710    20.1370
  620.1156  -999.2500   215.1540    23.6120      .1920    20.5120
  620.2680  -999.2500   222.0400    22.3110      .2060    19.7700
  620.4204  -999.2500   230.2160    22.6110      .2020    18.1970
  620.5728  -999.2500   233.1910    23.5120      .2030    17.3780
  620.7252  -999.2500   232.5870    23.1110      .2080    16.9040
  620.8776  -999.2500   229.4680    21.7110      .2030    16.2930
  621.0300  -999.2500   229.2270    21.6110      .1940    15.7040
  621.1824  -999.2500   236.0380    20.6100      .2070    15.5600
  621.3348  -999.2500   244.6900    20.3100      .2220    15.5600
  621.4872  -999.2500   245.3250    20.1100      .2250    15.5600
  621.6396  -999.2500   235.9010    20.0100      .2320    15.8490
  621.7920  -999.2500   228.9240    20.2100      .2470    16.4440
  621.9444  -999.2500   230.6720    20.1100      .2450    17.2190
  622.0968  -999.2500   233.9800    19.7100      .2350    18.3650
  622.2492  -999.2500   231.2460    18.1090      .2160    20.3240
  622.4016  -999.2500   215.4600    16.6080      .1840    21.2810
  622.5540  -999.2500   197.3680    16.4080      .1380    22.4910
  622.7064  -999.2500   189.6930    18.1090      .1100    24.8890
  622.8588  -999.2500   191.8450    20.0100      .1060    26.0620
  623.0112  -999.2500   196.7430    21.4110      .1040    26.7920
  623.1636  -999.2500   200.5890    21.2110      .1050    28.3140
  623.3160  -999.2500   204.0670    22.9120      .1150    28.3140
  623.4684  -999.2500   208.2520    24.2120      .1190    25.3510
  623.6208  -999.2500   208.1140    25.8130      .1230    22.0800
  623.7732  -999.2500   209.0030    25.3130      .1350    19.7700
  623.9256  -999.2500   219.6370    25.4130      .1430    17.8650
  624.0780  -999.2500   236.4560    23.8120      .1580    16.9040
  624.2304  -999.2500   253.8190    21.0100      .1870    16.2930
  624.3828  -999.2500   260.2420    19.3100      .2130    16.2930
  624.5352  -999.2500   255.4840    17.9090      .2310    15.9960
  624.6876  -999.2500   244.9120    17.8090      .2300    16.2930
  624.8400  -999.2500   234.1370    19.2100      .2170    17.0610
  624.9924  -999.2500   225.5450    20.1100      .2080    18.3650
  625.1448  -999.2500   215.6210    20.1100      .1860    20.1370
  625.2972  -999.2500   204.5120    20.1100      .1650    21.8780
  625.4496  -999.2500   195.4030    20.9100      .1490    24.4340
  625.6020  -999.2500   190.3680    21.2110      .1370    27.5420
  625.7544  -999.2500   192.9340    22.5110      .1290    30.2000
  625.9068  -999.2500   202.1040    23.2120      .1380    33.1130
  626.0592  -999.2500   212.0650    24.6120      .1560    32.5090
  626.2116  -999.2500   216.7900    27.7140      .1750    29.6480
  626.3640  -999.2500   214.8760    30.1150      .1680    28.8400
  626.5164  -999.2500   213.5160    31.1160      .1530    28.8400
  626.6688  -999.2500   216.3460    33.3170      .1490    28.3140
  626.8212  -999.2500   218.0210    31.7160      .1480    27.5420
  626.9736  -999.2500   219.3990    32.1160      .1560    27.5420
  627.1260  -999.2500   223.4950    32.0160      .1710    26.5460
  627.2784  -999.2500   228.3840    32.7160      .1730    24.8890
  627.4308  -999.2500   231.9690    32.9170      .1670    23.1210
  627.5832  -999.2500   234.2150    35.7180      .1700    19.2310
  627.7356  -999.2500   233.4310    37.3190      .1650    17.0610
  627.8880  -999.2500   228.4860    38.9190      .1520    16.5960
  628.0404  -999.2500   226.5950    38.5190      .1600    16.1440
  628.1928  -999.2500   235.1450    38.8190      .1850    15.4170
  628.3452  -999.2500   245.7110    41.0210      .2170    14.8590
  628.4976  -999.2500   254.0440    38.7190      .2200    14.0600
