~VERSION INFORMATION
VERS.                                                 2.0:   CWLS Log ASCII Standard-VERSION 2.0
WRAP.                                                  NO:   One line per depth step
~Well Information Block
STRT.M                                              .6096:   Top Depth
STOP.M                                          1141.9332:   Bottom Depth
STEP.M                                             .15240:   Depth Increment
NULL.                                            -999.250:   Null Value
FLD .                                               NATIH:   Field Name
WELL.                                          NATIH-85H1:   NAME
EDF .                                              214.53:   ELEV DRILL FLOOR
EPD .                                                   0:   ELEV PERM DATUM
EGL .                                              209.96:   GROUND LEVEL
COMP.                          PETROLEUM DEVELOPMENT OMAN:   OPERATOR
PDAT.                                                 MSL:   PERM DATUM
COUN.                                             RIG05_3:   RIG NAME
SPUD.                                          1990/12/20:   SPUD DATE
LATI.                                         22.42686054:   SURF. LATITUDE
LONG.                                         56.67231194:   SURF. LONGITUDE
UTME.                                           466276.93:   SURF. UTM E
UTMN.                                          2479903.71:   SURF. UTM N
~PARAMETER INFORMATION (log)
LNAM.                                              PUBLIC:   NAME
LTYP.                                              JOINED:   LOG TYPE
LSRV.                                            CLEAN UP:   SERVICE
LSOU.                                               FUGRO:   LOG SOURCE
LVSN.                                                   1:   LOG VERSION
BHIS.                                                   R:   BRIEF HISTORY
TDD .M                                            1165.00:   FINAL TD DRILLER
TDL .M                                            1151.00:   FINAL TD LOGGER
FHIS.                                             RAW-LAS:   FULL HISTORY
~Curve Information Block
#MNEM.UNIT                                        API CODE    No Description
#=========                                        ========    == ===========
DEPT.M                                       00 001 00 00:     1  DEPTH
DEN.G/CC                                                 :     2  Bulk Density
DT.US/M                                                  :     3  Acoustic log
GR.API                                                   :     4  Gamma Ray
NEU.V/V                                                  :     5  Neutron Porosity in Limestone Units
RES_DEP.OHMM                                             :     6  Resistivity Deep
~ASCII
# ...
 1004.6208     2.5301   413.4406    52.2021      .0812    50.9172
 1004.7732     2.5706   418.0501    51.9481      .0787    46.5147
 1004.9256     2.5245   418.4324    46.8380      .0770    28.5084
 1005.0780     2.4972   415.2223    44.8997      .0743    23.4029
 1005.2304     2.4885   412.7953    42.5323      .0835    19.5206
 1005.3828     2.4825   414.8460    40.5016      .0922    17.4438
 1005.5352     2.5020   415.3065    42.6436      .1010    17.4201
 1005.6876     2.4969   417.1853    43.9414      .1048    17.6931
 1005.8400     2.4832   418.7142    48.1125      .1100    18.9079
 1005.9924     2.4975   417.5680    51.7201      .1098    20.9519
 1006.1448     2.4951   417.8255    57.4491      .1048    24.2218
 1006.2972     2.4922   415.7833    59.2473      .0971    28.0394
 1006.4496     2.4968   425.0358    60.1772      .0927    27.7404
 1006.6020     2.5233   435.9892    62.9935      .0820    24.5411
 1006.7544     2.5713   428.3228    63.8205      .0721    21.5575
 1006.9068     2.5582   421.8339    58.8010      .0642    19.4132
 1007.0592     2.5330   417.6327    48.3870      .0671    17.4520
 1007.2116     2.5332   413.5644    43.3137      .0686    16.5539
 1007.3640     2.5559   413.1312    47.0427      .0655    17.0477
 1007.5164     2.5832   409.1088    53.0779      .0637    17.8254
 1007.6688     2.5602   404.2137    50.1098      .0656    16.1352
 1007.8212     2.5721   405.7633    43.4958      .0657    16.1062
 1007.9736     2.5767   405.3770    38.6442      .0592    16.0687
 1008.1260     2.5673   401.2504    39.9245      .0593    15.7312
 1008.2784     2.5664   397.5316    38.5052      .0593    16.1412
 1008.4308     2.5572   395.2094    34.8499      .0600    16.5699
 1008.5832     2.5548   397.9541    33.9555      .0533    16.2346
 1008.7356     2.5622   399.1462    32.5454      .0506    14.3256
 1008.8880     2.5306   398.3975    31.4910      .0548    13.1558
 1009.0404     2.5393   397.6488    28.2126      .0631    13.5224
 1009.1928     2.5151   395.6708    25.7298      .0704    13.8087
 1009.3452     2.4899   394.9710    21.7047      .0774    14.6173
 1009.4976     2.5603   397.6075    17.0127      .0803    16.0224
 1009.6500     2.4883   399.0229    15.2335      .0849    16.2121
 1009.8024     2.5403   399.7220    14.6440      .0764    14.9690
 1009.9548     2.5042   401.2821    15.5166      .0713    13.2335
 1010.1072     2.5481   403.0980    15.8846      .0637    13.0506
 1010.2596     2.6696   404.9139    18.8457      .0577    11.4200
 1010.4120     2.7588   406.7299    21.4528      .0542     8.0498
 1010.5644     2.7453   408.5458    27.0383      .0548     4.6645
 1010.7168     2.7008   418.7990    32.5193      .0680     3.0900
 1010.8692     2.7310   475.1182    39.1379      .1039     2.3678
 1011.0216     2.6838   538.9045    43.8052      .1712     2.1185
 1011.1740     2.6146   553.8546    41.6954      .2036     2.6256
 1011.3264     2.5709   554.5066    35.4456      .2233     3.9155
 1011.4788     2.6200   510.9082    25.9235      .1176     7.7627
 1011.6312     2.6327   454.3879    19.9645      .0492    15.5007
 1011.7836     2.4671   439.3134    16.7674      .0259     8.5763
 1011.9360     2.2724   431.9794    21.3935      .0264     4.4930
 1012.0884     2.4643   423.0738    27.4605      .0507     3.3397
 1012.2408     2.6749   424.8154    34.0824      .1017     2.9819
 1012.3932     2.5733   433.3479    33.9531      .1840     3.5162
 1012.5456     2.6006   435.3622    31.6894      .1743     5.3375
 1012.6980     2.6025   427.8223    25.1834      .1212     9.5561
 1012.8504     2.5778   419.8286    21.0309      .0712    16.0225
 1013.0028     2.5987   413.4945    19.2481      .0372    33.8937
 1013.1552     2.6905   407.1603    17.7293      .0184    42.7416
 1013.3076     2.7106   400.8262    16.5414      .0097    28.2390
 1013.4600     2.6954   397.9609    14.8917      .0077    14.3434
 1013.6124     2.6828   399.3992    19.0279      .0121     8.8295
 1013.7648     2.6862   413.7504    23.2998      .0255     6.0281
 1013.9172     2.6989   455.1701    28.3909      .0522     4.5088
 1014.0696     2.6464   488.4325    30.6185      .0846     3.5445
 1014.2220     2.6088   503.3719    32.9932      .1324     1.9538
 1014.3744     2.5524   507.5283    36.5570      .1803     1.0627
 1014.5268     2.5820   484.3497    38.9753      .2584      .7851
 1014.6792     1.8296   461.1710    37.6797      .4009      .7793
 1014.8316     1.6286   437.9923    35.1793      .4851      .9069
 1014.9840     1.9327   435.2463    33.1372      .4784     1.5413
 1015.1364     2.1322   458.0411    31.5832      .3656     3.1662
 1015.2888     2.6160   461.4043    28.3773      .1952     5.4102
 1015.4412     2.6716   440.4780    24.9344      .1155     8.1722
 1015.5936     2.6078   421.0378    23.7471      .0769     9.4655
 1015.7460     2.6109   418.5710    19.6529      .0678    13.1385
 1015.8984     2.6061   434.9988    16.4471      .0484    18.9962
 1016.0508     2.6486   451.4266    13.0060      .0298    24.8137
 1016.2032     2.6405   467.8544    13.6424      .0151    24.1094
 1016.3556     2.6801   484.2822    15.1859      .0169     7.2135
 1016.5080     2.6350   487.8650    17.4397      .0268     2.3284
 1016.6604     2.5844   475.3914    23.5151      .0604     1.7539
 1016.8128     1.7978   462.9178    29.6950      .1231     1.7027
 1016.9652     1.7766   450.4443    28.6547      .3012     2.0295
 1017.1176     2.3180   433.6891    25.2439      .2880     3.1136
 1017.2700     2.6179   423.5510    27.8574      .1751     2.7200
 1017.4224     2.4629   422.4112    37.4032      .1362     2.1294
 1017.5748     2.0301   417.3441    41.2891      .1656     2.1560
 1017.7272     2.0772   417.0589    35.1839      .2750     2.5031
 1017.8796     2.4317   411.2003    26.2066      .2563     5.5631
 1018.0320     2.6750   407.1678    20.9766      .1223     9.4636
 1018.1844     2.6723   410.1485    21.6129      .0675     6.2799
 1018.3368     2.6295   407.2161    30.1514      .0572     3.7223
 1018.4892     2.6084   406.2069    37.8528      .0731     3.4398
 1018.6416     2.4942   409.2950    40.9340      .1114     3.7779
 1018.7940     2.5090   416.3700    35.1078      .1496     4.3111
 1018.9464     2.5430   416.5140    29.8781      .1312     7.3241
 1019.0988     2.6319   405.8913    24.3098      .0777    11.6437
 1019.2512     2.6178   405.1391    19.9366      .0561    13.9506
 1019.4036     2.6286   426.8052    16.8741      .0444    19.9506
 1019.5560     2.6174   448.4254    15.0936      .0369    26.5640
 1019.7084     2.6241   452.0180    14.5313      .0276    20.7986
 1019.8608     2.6316   443.1716    15.0065      .0253    10.2097
 1020.0132     2.6429   418.5662    19.4105      .0323     4.7798
 1020.1656     2.6213   427.6386    29.2364      .0477     3.9559
 1020.3180     2.5376   445.3179    35.4202      .0830     3.9059
 1020.4704     2.5513   433.0903    33.6286      .1272     4.2327
 1020.6228     2.5972   438.5688    28.5248      .1476     5.6744
 1020.7752     2.6664   441.5898    22.9216      .0942     7.0904
 1020.9276     2.6067   433.3333    26.9626      .0618     7.3747
 1021.0800     2.5808   422.8323    28.0371      .0591     8.1606
 1021.2324     2.6029   422.6967    28.4229      .0730    10.1238
 1021.3848     2.6137   425.1280    23.3154      .0718    16.0429
 1021.5372     2.6036   421.1848    21.2939      .0645    15.8144
 1021.6896     2.5395   416.5036    25.8807      .0672    12.7293
 1021.8420     2.4884   412.0299    29.3291      .0808    10.2225
 1021.9944     2.5067   410.3873    26.4753      .0978     8.4515
 1022.1468     2.5301   413.6902    18.5500      .1036     5.0204
 1022.2992     2.5646   421.1881    11.6533      .1011     3.7975
 1022.4516     2.5102   436.8536     9.0361      .1113     2.9663
 1022.6040     2.4019   461.3162     7.4067      .1360     2.4679
 1022.7564     2.3219   485.5375     6.5753      .1938     2.4884
 1022.9088     2.3015   504.3259     5.2175      .2157     2.8043
 1023.0612     2.2934   517.8978     4.9615      .2115     2.8778
