~VERSION INFORMATION
VERS.                                                 2.0:   CWLS Log ASCII Standard-VERSION 2.0
WRAP.                                                  NO:   One line per depth step
~Well Information Block
STRT.M                                              .6096:   Top Depth
STOP.M                                          1141.9332:   Bottom Depth
STEP.M                                             .15240:   Depth Increment
NULL.                                            -999.250:   Null Value
FLD .                                               NATIH:   Field Name
WELL.                                          NATIH-85H1:   NAME
EDF .                                              214.53:   ELEV DRILL FLOOR
EPD .                                                   0:   ELEV PERM DATUM
EGL .                                              209.96:   GROUND LEVEL
COMP.                          PETROLEUM DEVELOPMENT OMAN:   OPERATOR
PDAT.                                                 MSL:   PERM DATUM
COUN.                                             RIG05_3:   RIG NAME
SPUD.                                          1990/12/20:   SPUD DATE
LATI.                                         22.42686054:   SURF. LATITUDE
LONG.                                         56.67231194:   SURF. LONGITUDE
UTME.                                           466276.93:   SURF. UTM E
UTMN.                                          2479903.71:   SURF. UTM N
~PARAMETER INFORMATION (log)
LNAM.                                              PUBLIC:   NAME
LTYP.                                              JOINED:   LOG TYPE
LSRV.                                            CLEAN UP:   SERVICE
LSOU.                                               FUGRO:   LOG SOURCE
LVSN.                                                   1:   LOG VERSION
BHIS.                                                   R:   BRIEF HISTORY
TDD .M                                            1165.00:   FINAL TD DRILLER
TDL .M                                            1151.00:   FINAL TD LOGGER
FHIS.                                             RAW-LAS:   FULL HISTORY
~Curve Information Block
#MNEM.UNIT                                        API CODE    No Description
#=========                                        ========    == ===========
DEPT.M                                       00 001 00 00:     1  DEPTH
DEN.G/CC                                                 :     2  Bulk Density
DT.US/M                                                  :     3  Acoustic log
GR.API                                                   :     4  Gamma Ray
NEU.V/V                                                  :     5  Neutron Porosity in Limestone Units
RES_DEP.OHMM                                             :     6  Resistivity Deep
~ASCII
# ...
  986.0280     2.4244   442.4223    41.0847      .0909    45.9705
  986.1804     2.5224   444.2936    44.1626      .0931    44.1685
  986.3328     2.5340   441.9995    50.1763      .0987    39.7251
  986.4852     2.4223   442.6055    49.3442      .1204    36.6848
  986.6376     2.3559   444.1015    40.8364      .1493    32.4140
  986.7900     2.4398   442.0624    33.3941      .1476    30.7303
  986.9424     2.4667   439.2728    38.8051      .1324    35.5014
  987.0948     2.4412   444.8753    49.4189      .1281    46.8750
  987.2472     2.4098   459.5785    64.4946      .1370    68.0511
  987.3996     2.3959   462.3076    71.2242      .1512    80.9456
  987.5520     2.3803   460.1820    67.6091      .1588    81.2835
  987.7044     2.3665   462.7627    55.8296      .1550    85.6986
  987.8568     2.4625   456.2297    52.4467      .1333    74.9444
  988.0092     2.4355   445.7933    49.7110      .1266    91.2323
  988.1616     2.4248   441.3841    46.4319      .1213   142.3207
  988.3140     2.5132   436.2839    34.5060      .1036   182.2946
  988.4664     2.5589   425.3417    30.4935      .0831   335.5952
  988.6188     2.5106   417.0632    30.9721      .0723   682.6591
  988.7712     2.4873   419.8113    35.6874      .0774   767.2281
  988.9236     2.4723   420.4576    37.4549      .0911   837.2828
  989.0760     2.4149   421.7670    34.7313      .0968  1232.6262
  989.2284     2.4019   426.8591    30.4844      .1023  1694.1665
  989.3808     2.4523   431.4110    27.3966      .1080  1853.1123
  989.5332     2.4453   435.9964    23.8520      .1147  1932.7344
  989.6856     2.4221   433.5927    19.9555      .1150  1997.8484
  989.8380     2.4229   431.1281    19.8572      .1088  1948.7568
  989.9904     2.4224   435.0505    28.8443      .0964  2038.6243
  990.1428     2.4511   442.7305    43.0520      .0968   937.5686
  990.2952     2.4975   454.7294    64.3449      .1064   125.6379
  990.4476     2.4318   463.6927    81.8563      .1328    40.9400
  990.6000     2.3345   473.5446    79.8331      .1757    32.6794
  990.7524     2.3581   475.9389    68.0060      .1918    24.9181
  990.9048     2.4678   468.7732    49.0892      .1580    25.6377
  991.0572     2.4506   459.3774    43.0631      .1354    35.0793
  991.2096     2.5109   445.6655    36.3326      .1114    49.3886
  991.3620     2.5048   433.6523    37.0565      .0920    70.8021
  991.5144     2.4607   421.0192    38.6076      .0861    65.1027
  991.6668     2.5142   412.8364    39.0869      .0806    46.7304
  991.8192     2.5069   421.7342    34.7044      .0818    33.7342
  991.9716     2.5033   432.0289    38.9684      .0856    33.7829
  992.1240     2.4794   442.4253    56.7587      .1050    41.7095
  992.2764     2.3683   459.3741    76.7320      .1383    66.0079
  992.4288     2.3342   478.4445    85.6951      .1852   185.3974
  992.5812     2.2877   490.3632    81.4889      .2231   266.1103
  992.7336     2.3407   489.8144    69.3070      .2056   158.9753
  992.8860     2.3790   477.9618    61.9649      .1701   142.4628
  993.0384     2.4086   470.0825    52.1179      .1444   124.1277
  993.1908     2.4616   464.9742    49.1539      .1339    82.7785
  993.3432     2.4285   461.4828    46.8059      .1335    68.3931
  993.4956     2.4254   465.1549    55.3520      .1334    63.6826
  993.6480     2.4244   469.7015    61.4798      .1423    48.5872
  993.8004     2.3833   470.7963    61.9531      .1508    49.4191
  993.9528     2.3627   472.9005    53.3535      .1777    48.5286
  994.1052     2.3534   476.1658    48.0607      .1798    38.7489
  994.2576     2.3796   476.9034    42.6965      .1777    38.5260
  994.4100     2.3816   470.4498    39.1491      .1577    31.5460
  994.5624     2.4395   461.5187    34.2966      .1404    24.8386
  994.7148     2.4455   458.4995    34.6791      .1208    26.4236
  994.8672     2.4868   454.1805    42.3415      .1159    26.6295
  995.0196     2.4646   448.3515    48.6049      .1235    27.2530
  995.1720     2.3569   454.4439    44.8262      .1519    38.0351
  995.3244     2.3535   468.7332    36.1776      .1685    43.1497
  995.4768     2.4393   481.5726    31.6794      .1661    38.0254
  995.6292     2.3619   491.6208    37.1131      .1660    51.6938
  995.7816     2.3087   495.5447    39.4003      .1867    54.2880
  995.9340     2.2746   496.2247    40.5416      .2153    42.6836
  996.0864     2.2084   495.2179    37.5862      .2411    36.6778
  996.2388     2.3052   494.2385    31.2605      .2100    23.2072
  996.3912     2.3717   491.0022    26.8109      .1787    14.7877
  996.5436     2.3673   484.5615    22.7917      .1586    12.8777
  996.6960     2.3754   472.9454    21.5106      .1604    13.8208
  996.8484     2.3568   460.2717    17.2570      .1710    15.3291
  997.0008     2.4163   457.6736    13.5924      .1655    20.0101
  997.1532     2.4423   456.8565    12.6444      .1450    27.6192
  997.3056     2.4258   452.7632    11.4646      .1296    25.4801
  997.4580     2.4317   445.9514    12.0520      .1300    23.2578
  997.6104     2.4870   442.0760    12.0498      .1350    23.1046
  997.7628     2.4557   440.8059    14.0566      .1358    21.5245
  997.9152     2.4083   455.3910    16.6579      .1424    21.8603
  998.0676     2.4020   456.1336    25.8763      .1437    26.1556
  998.2200     2.4271   461.7947    45.3597      .1481    34.7598
  998.3724     2.3752   477.1550    78.0697      .1619    52.7523
  998.5248     2.3499   492.6252   104.0446      .2013   126.9157
  998.6772     2.2612   512.9641   110.3998      .2263   280.2817
  998.8296     2.2839   536.5314    97.1602      .2463   444.4174
  998.9820     2.2880   555.0311    78.8742      .2452   515.7792
  999.1344     2.2315   564.7523    68.7502      .2524   346.0765
  999.2868     2.1871   565.5370    64.8548      .2552    71.7995
  999.4392     2.1595   560.9348    57.9932      .2791    26.2820
  999.5916     2.1639   538.8765    46.1823      .2745    19.9628
  999.7440     2.2881   507.3619    29.0381      .2219    16.8399
  999.8964     2.4294   494.5163    18.6404      .1692    16.5146
 1000.0488     2.4345   482.2233    15.0940      .1363    17.6112
 1000.2012     2.4633   464.4595    17.7528      .1259    18.1562
 1000.3536     2.4341   451.5567    23.0698      .1186    17.8373
 1000.5060     2.4284   446.0559    42.0900      .1265    19.6747
 1000.6584     2.4515   471.2533    74.7351      .1329    28.8582
 1000.8108     2.3805   500.8380   105.5737      .1581    48.4445
 1000.9632     2.2787   514.4054   112.4268      .2044   115.1820
 1001.1156     2.3073   524.4249   115.5564      .2271   295.6198
 1001.2680     2.3081   515.7614   127.3117      .2303   413.5523
 1001.4204     2.2638   506.4212   151.5336      .2377   454.2974
 1001.5728     2.1703   493.1346   152.2233      .2673   426.3914
 1001.7252     2.2066   492.1165   139.5612      .2880   364.7279
 1001.8776     2.2832   505.7005   120.5744      .2447   270.6390
 1002.0300     2.3521   513.1584   109.9563      .2024   152.9416
 1002.1824     2.3651   517.8336    94.6876      .1713   116.5269
 1002.3348     2.4240   510.7478    83.3795      .1511   106.9704
 1002.4872     2.4635   497.9248    83.8061      .1318   108.5826
 1002.6396     2.4512   496.8084   105.4609      .1306   132.8261
 1002.7920     2.3523   503.6831   123.1676      .1487   197.7443
 1002.9444     2.3586   510.4232   136.9316      .1810   193.5568
 1003.0968     2.3563   508.1278   124.7698      .1870   118.1514
 1003.2492     2.3654   495.6574   104.8192      .1701    99.1334
 1003.4016     2.4446   480.3160    81.3689      .1342    88.4309
 1003.5540     2.4928   465.5562    69.6154      .1060    85.3880
 1003.7064     2.4714   442.9468    72.4991      .0877    85.4185
 1003.8588     2.4579   423.5901    73.2883      .0740    68.0696
 1004.0112     2.5633   415.2513    65.2425      .0713    46.1196
 1004.1636     2.5000   412.4535    50.9318      .0711    37.6390
 1004.3160     2.5162   410.7383    42.2753      .0747    38.2857
 1004.4684     2.5103   409.7841    49.0150      .0807    40.4099
