~VERSION INFORMATION
VERS.                                                 2.0:   CWLS Log ASCII Standard-VERSION 2.0
WRAP.                                                  NO:   One line per depth step
~Well Information Block
STRT.M                                              .6096:   Top Depth
STOP.M                                          1141.9332:   Bottom Depth
STEP.M                                             .15240:   Depth Increment
NULL.                                            -999.250:   Null Value
FLD .                                               NATIH:   Field Name
WELL.                                          NATIH-85H1:   NAME
EDF .                                              214.53:   ELEV DRILL FLOOR
EPD .                                                   0:   ELEV PERM DATUM
EGL .                                              209.96:   GROUND LEVEL
COMP.                          PETROLEUM DEVELOPMENT OMAN:   OPERATOR
PDAT.                                                 MSL:   PERM DATUM
COUN.                                             RIG05_3:   RIG NAME
SPUD.                                          1990/12/20:   SPUD DATE
LATI.                                         22.42686054:   SURF. LATITUDE
LONG.                                         56.67231194:   SURF. LONGITUDE
UTME.                                           466276.93:   SURF. UTM E
UTMN.                                          2479903.71:   SURF. UTM N
~PARAMETER INFORMATION (log)
LNAM.                                              PUBLIC:   NAME
LTYP.                                              JOINED:   LOG TYPE
LSRV.                                            CLEAN UP:   SERVICE
LSOU.                                               FUGRO:   LOG SOURCE
LVSN.                                                   1:   LOG VERSION
BHIS.                                                   R:   BRIEF HISTORY
TDD .M                                            1165.00:   FINAL TD DRILLER
TDL .M                                            1151.00:   FINAL TD LOGGER
FHIS.                                             RAW-LAS:   FULL HISTORY
~Curve Information Block
#MNEM.UNIT                                        API CODE    No Description
#=========                                        ========    == ===========
DEPT.M                                       00 001 00 00:     1  DEPTH
DEN.G/CC                                                 :     2  Bulk Density
DT.US/M                                                  :     3  Acoustic log
GR.API                                                   :     4  Gamma Ray
NEU.V/V                                                  :     5  Neutron Porosity in Limestone Units
RES_DEP.OHMM                                             :     6  Resistivity Deep
~ASCII
# ...
 1097.5848     2.6493   419.3626    15.7454      .0291    17.5789
 1097.7372     2.6910   436.2102    14.4432      .0211    17.2211
 1097.8896     2.7078   448.0428    15.3936      .0186    12.9332
 1098.0420     2.6571   450.7358    18.8268      .0208    10.8857
 1098.1944     2.6848   455.2977    23.9174      .0311     8.0339
 1098.3468     2.6678   459.1031    27.0460      .0470     3.3447
 1098.4992     2.6761   453.9558    32.9654      .0659     2.4287
 1098.6516     2.1659   448.2520    35.2205      .0887     2.4836
 1098.8040     2.0582   445.8432    30.3127      .1341     2.7962
 1098.9564     2.3611   441.8467    20.7253      .1483     4.8490
 1099.1088     2.6275   436.5776    12.1974      .0860    11.2915
 1099.2612     2.6336   427.0869    13.0261      .0457    10.9808
 1099.4136     2.6059   408.5000    13.9996      .0321     8.3788
 1099.5660     2.5851   402.4480    16.6054      .0363     6.4441
 1099.7184     2.5732   405.5289    18.7364      .0439     5.2054
 1099.8708     2.5913   408.0553    22.6147      .0596     4.5142
 1100.0232     2.5276   403.6227    26.1681      .0815     4.0011
 1100.1756     2.4618   409.6797    26.0382      .0973     3.7603
 1100.3280     2.4454   420.3885    27.0893      .1038     3.8048
 1100.4804     2.4438   424.9516    27.5437      .1032     4.0190
 1100.6328     2.4436   425.6808    28.3712      .0984     4.2866
 1100.7852     2.4855   421.8346    27.8983      .0863     4.3333
 1100.9376     2.5151   420.2877    27.3073      .0831     3.9687
 1101.0900     2.4768   426.5195    28.4333      .0816     3.6366
 1101.2424     2.4304   438.9967    27.0186      .0919     3.7695
 1101.3948     2.4720   435.5347    24.0632      .0980     4.0819
 1101.5472     2.5371   430.4375    22.7008      .0958     4.1840
 1101.6996     2.5421   429.3138    21.0420      .0872     3.5139
 1101.8520     2.5346   436.8237    21.2849      .0848     2.4850
 1102.0044     2.4570   439.1190    19.9914      .1016     2.1642
 1102.1568     2.3406   449.6262    18.6062      .1280     2.0050
 1102.3092     2.3802   463.0902    16.4740      .1566     2.0388
 1102.4616     2.4785   461.4171    13.9891      .1348     2.6437
 1102.6140     2.4747   457.4055    12.7719      .1166     2.6681
 1102.7664     2.4652   455.4289    12.1542      .1110     2.1944
 1102.9188     2.5217   458.0248    13.4902      .1183     1.7254
 1103.0712     2.4670   456.1503    14.3151      .1341     1.3559
 1103.2236     2.3346   463.2044    16.4615      .1623     1.1413
 1103.3760     2.2679   460.8344    15.7070      .2099     1.1586
 1103.5284     2.2642   450.4089    15.8251      .2448     1.3626
 1103.6808     2.3148   447.8140    15.5589      .2260     1.4343
 1103.8332     2.3212   454.9875    14.4940      .1981     1.2988
 1103.9856     2.2921   460.0445    14.7302      .1904     1.3476
 1104.1380     2.1852   453.8830    14.7602      .2031     1.4270
 1104.2904     2.1856   455.9310    14.8824      .2280     1.6930
 1104.4428     2.3125   468.6267    13.5816      .1863     2.1022
 1104.5952     2.4624   466.8911    12.6368      .1416     2.0795
 1104.7476     2.4538   452.1405    13.9186      .1260     1.7174
 1104.9000     2.3698   455.2521    16.7578      .1490     1.5790
 1105.0524     2.1897   462.1577    19.2378      .1855     1.7194
 1105.2048     2.3057   457.1656    18.6843      .1884     2.4317
 1105.3572     2.4410   460.5862    19.4965      .1505     3.4694
 1105.5096     2.5550   484.3413    19.4811      .1181     3.4094
 1105.6620     2.5823   479.2004    24.2919      .1036     2.4694
 1105.8144     2.4964   439.5877    28.3913      .1128     1.8411
 1105.9668     2.4066   428.6389    31.9240      .1443     1.4805
 1106.1192     2.3780   436.0248    30.9799      .1879     1.5616
 1106.2716     2.3804   456.6000    28.7681      .1960     1.8693
 1106.4240     2.4106   467.6995    24.8969      .1943     1.8447
 1106.5764     2.4367   469.1260    22.4548      .1671     1.9075
 1106.7288     2.3821   471.7728    20.6989      .1510     2.0486
 1106.8812     2.3148   471.9142    20.0957      .1511     1.8114
 1107.0336     2.3655   473.6311    18.7380      .1511     1.9892
 1107.1860     2.4693   478.1387    17.5970      .1466     2.2924
 1107.3384     2.4157   485.0772    15.4687      .1461     2.1832
 1107.4908     2.3653   490.4454    22.7704      .1563     2.2706
 1107.6432     2.3593   491.7205    23.0446      .1628     2.2012
 1107.7956     2.4006   487.6877    18.8081      .1629     1.9130
 1107.9480     2.4209   486.2584    20.1533      .1506     1.5286
 1108.1004     2.3311   499.3343    19.8452      .1643     1.1264
 1108.2528     2.3110   516.4706    21.3488      .1865     1.0556
 1108.4052     2.3114   520.2996    24.0932      .2005     1.1084
 1108.5576     2.2785   522.8580    18.1629      .2172     1.3424
 1108.7100     2.3129   522.5880    16.0919      .1920     2.0433
 1108.8624     2.4227   499.2911    17.0088      .1650     2.7783
 1109.0148     2.5189   475.1640    21.9119      .1185     2.8867
 1109.1672     2.5363   464.2938    24.4466      .0995     2.4878
 1109.3196     2.6180   454.5555    32.8793      .0889     1.7951
 1109.4720     2.6010   445.2135    33.6516      .0999     1.5501
 1109.6244     2.5993   441.3015    33.8367      .1059     1.5222
 1109.7768     2.4442   441.2763    30.9225      .1249     1.6026
 1109.9292     2.3896   447.6973    34.3609      .1365     2.0543
 1110.0816     2.4283   446.8935    28.8001      .1408     2.2903
 1110.2340     2.3931   445.4914    31.8405      .1449     2.2383
 1110.3864     2.3270   449.6847    34.3516      .1537     2.0136
 1110.5388     2.3281   455.8955    28.4724      .1823     1.8781
 1110.6912     2.3685   472.1718    29.2836      .1953     1.7151
 1110.8436     2.4399   474.0834    27.2120      .1902     1.6193
 1110.9960     2.4969   465.1551    24.7761      .1707     1.6543
 1111.1484     2.4932   460.8197    25.1920      .1532     2.0103
 1111.3008     2.4286   455.9830    25.5711      .1515     2.2333
 1111.4532     2.4531   453.3990    26.5808      .1381     2.5622
 1111.6056     2.4016   447.5552    31.8865      .1335     2.6535
 1111.7580     2.3667   430.1349    34.9553      .1305     2.5933
 1111.9104     2.3616   405.9653    41.6938      .1344     2.5196
 1112.0628     2.5161   397.7770    32.3773      .1307     2.4857
 1112.2152     2.5497   401.5363    34.5797      .1242     2.5874
 1112.3676     2.5796   410.9315    34.2182      .1284     2.3272
 1112.5200     2.4375   433.3337    32.5977      .1374     2.2927
 1112.6724     2.4040   445.6439    24.2705      .1491     2.7870
 1112.8248     2.2933   440.0047    22.3004      .1661     2.8045
 1112.9772     2.3856   447.4733    20.3112      .1655     2.7190
 1113.1296     2.4531   439.3961    21.1245      .1586     3.1945
 1113.2820     2.4030   430.4445    16.3681      .1560     2.9163
 1113.4344     2.3670   438.9214    13.9183      .1598     2.3873
 1113.5868     2.4384   467.0120    14.9055      .1540     2.2567
 1113.7392     2.4366   485.2689    21.4498      .1453     2.1042
 1113.8916     2.3853   484.2227    20.4072      .1511     1.9944
 1114.0440     2.3322   481.3043    20.8269      .1697     2.2952
 1114.1964     2.3366   486.6266    19.8454      .1741     2.9841
 1114.3488     2.3856   483.8055    22.0050      .1584     3.6889
 1114.5012     2.4175   468.0186    23.8698      .1362     3.6131
 1114.6536     2.5022   460.7614    22.5287      .1227     2.8752
 1114.8060     2.4621   461.5628    27.6834      .1272     2.4232
 1114.9584     2.4088   472.5481    28.9655      .1402     2.0900
 1115.1108     2.3473   477.6617    27.2028      .1652     2.0874
 1115.2632     2.3494   460.7545    24.2212      .1747     2.4404
 1115.4156     2.4560   452.4001    25.6922      .1791     2.8322
 1115.5680     2.5290   454.4211    23.8570      .1447     2.5803
 1115.7204     2.5241   454.7026    18.5461      .1261     2.3860
 1115.8728     2.4631   447.7654    18.6644      .1142     2.4492
 1116.0252     2.3339   437.0642    16.1962      .1240     2.4823
