~VERSION INFORMATION
VERS.                                                 2.0:   CWLS Log ASCII Standard-VERSION 2.0
WRAP.                                                  NO:   One line per depth step
~Well Information Block
STRT.M                                            15.0876:   Top Depth
STOP.M                                           669.0360:   Bottom Depth
STEP.M                                             .15240:   Depth Increment
NULL.                                            -999.250:   Null Value
FLD .                                               NATIH:   Field Name
WELL.                                      NATIH WSW-13H1:   NAME
EDF .                                              231.32:   ELEV DRILL FLOOR
EPD .                                                   0:   ELEV PERM DATUM
EGL .                                              226.75:   GROUND LEVEL
COMP.                          Petroleum Development Oman:   OPERATOR
PDAT.                                                 MSL:   PERM DATUM
COUN.                                             RIG05_1:   RIG NAME
SPUD.                                          1980/03/02:   SPUD DATE
LATI.                                         22.46529137:   SURF. LATITUDE
LONG.                                         56.71960289:   SURF. LONGITUDE
UTME.                                           471151.72:   SURF. UTM E
UTMN.                                          2484147.59:   SURF. UTM N
~PARAMETER INFORMATION (log)
LNAM.                                              PUBLIC:   NAME
LTYP.                                              JOINED:   LOG TYPE
LSRV.                                            CLEAN UP:   SERVICE
LSOU.                                              TARGET:   LOG SOURCE
LVSN.                                                   1:   LOG VERSION
BHIS.                                                   R:   BRIEF HISTORY
TDD .M                                             694.94:   FINAL TD DRILLER
TDL .M                                             665.68:   FINAL TD LOGGER
FHIS.                                             RAW-LAS:   FULL HISTORY
~Curve Information Block
#MNEM.UNIT                                        API CODE    No Description
#=========                                        ========    == ===========
DEPT.M                                       00 001 00 00:     1  DEPTH
DEN.G/C3                                                 :     2  Bulk Density
DT.US/M                                                  :     3  Sonic (Compressional)
GR.API                                                   :     4  Gamma Ray
NEU.V/V                                                  :     5  Neutron Porosity in Limestone Units
RES_DEP.OHMM                                             :     6  Resistivity Deep
~ASCII
# ...
  479.9076     2.2430   346.3290    42.5140      .4080     1.9620
  480.0600     2.2310   345.1920    41.8130      .4150     1.9800
  480.2124     2.2240   345.2110    41.0130      .4240     1.9620
  480.3648     2.2220   344.9330    39.9120      .4320     1.9440
  480.5172     2.2220   343.8410    38.5110      .4200     1.9620
  480.6696     2.2200   341.4630    38.8110      .4250     1.9620
  480.8220     2.2110   339.2660    39.4110      .4360     1.9800
  480.9744     2.2250   339.1400    38.0110      .4500     2.0170
  481.1268     2.2390   341.1640    37.0100      .4390     2.0920
  481.2792     2.2350   342.3770    36.4090      .4260     2.1310
  481.4316     2.2430   334.2090    36.1090      .4100     2.1510
  481.5840     2.2600   313.0180    36.2090      .3970     2.1310
  481.7364     2.2650   297.8380    35.4090      .3860     2.1310
  481.8888     2.2790   302.9690    36.3090      .3740     2.1310
  482.0412     2.2960   315.6900    37.6100      .3730     2.1510
  482.1936     2.2990   331.1400    37.4100      .3820     2.1310
  482.3460     2.2710   348.1110    36.4090      .3910     2.0730
  482.4984     2.2480   359.6960    36.6100      .4060     1.9980
  482.6508     2.2400   363.9390    38.1110      .4230     1.9440
  482.8032     2.2460   363.8790    39.1110      .4210     1.8900
  482.9556     2.2480   360.3340    41.0130      .4210     1.8560
  483.1080     2.2510   353.6420    40.3120      .4250     1.8220
  483.2604     2.2470   346.9010    41.4130      .4460     1.8050
  483.4128     2.2350   343.1360    43.3140      .4630     1.7560
  483.5652     2.2180   342.9090    43.7150      .4580     1.7240
  483.7176     2.2050   344.7590    43.0140      .4530     1.7080
  483.8700     2.1910   348.1290    43.3140      .4630     1.6770
  484.0224     2.1710   351.1860    43.0140      .4660     1.6460
  484.1748     2.1640   351.0250    41.2130      .4600     1.6310
  484.3272     2.1550   348.1750    40.0120      .4450     1.6310
  484.4796     2.1550   344.8700    40.8130      .4380     1.6160
  484.6320     2.1580   341.5570    40.6120      .4330     1.6160
  484.7844     2.1600   337.6070    41.0130      .4240     1.6310
  484.9368     2.1660   333.3420    41.0130      .4160     1.6310
  485.0892     2.1610   329.2500    41.5130      .4170     1.6310
  485.2416     2.1680   324.8690    42.6140      .4250     1.6310
  485.3940     2.1710   321.1580    40.1120      .4200     1.6610
  485.5464     2.1740   319.4420    41.1130      .4230     1.6610
  485.6988     2.1870   319.4060    42.2140      .4230     1.6770
  485.8512     2.2000   321.3260    43.3140      .4310     1.6920
  486.0036     2.2100   324.9990    43.8150      .4350     1.7240
  486.1560     2.2110   329.0140    43.2140      .4380     1.7560
  486.3084     2.2110   335.7910    40.3120      .4350     1.8050
  486.4608     2.2100   356.4720    38.2110      .4240     1.8560
  486.6132     2.2270   394.3390    38.1110      .4180     1.9440
  486.7656     2.2590   424.9780    37.6100      .4080     2.0170
  486.9180     2.2680   433.1570    35.5090      .3960     2.0920
  487.0704     2.2820   429.7010    35.3090      .3910     2.1710
  487.2228     2.2740   424.9120    35.3090      .3780     2.2530
  487.3752     2.2900   416.6020    34.6080      .3510     2.3160
  487.5276     2.2960   401.3720    30.5050      .3170     2.5160
  487.6800     2.2960   386.8800    28.1030      .3010     2.8900
  487.8324     2.2920   380.4140    24.5010      .2770     3.3810
  487.9848     2.2700   373.3210    21.5990      .2610     3.6740
  488.1372     2.2730   353.3420    22.2990      .2640     3.7770
  488.2896     2.2610   321.9400    21.6990      .2800     3.5740
  488.4420     2.2560   291.9630    20.6980      .2760     3.5080
  488.5944     2.3190   284.4470    20.2980      .2370     3.8830
  488.7468     2.3790   309.4810    21.0980      .2090     4.5010
  488.8992     2.3410   345.9320    22.6990      .2250     4.8460
  489.0516     2.3000   365.3870    23.8000      .2560     4.9820
  489.2040     2.2460   358.5130    24.0000      .2870     4.8010
  489.3564     2.2220   334.6770    25.0010      .3110     4.5850
  489.5088     2.2680   307.1690    25.5010      .2930     4.5850
  489.6612     2.3670   289.3800    26.5020      .2580     4.4600
  489.8136     2.4320   289.1210    25.9020      .2560     4.7140
  489.9660     2.4280   305.8290    27.0030      .2540     5.0750
  490.1184     2.4280   333.5400    28.6040      .2610     5.3140
  490.2708     2.3930   355.7290    30.8050      .2700     5.0750
  490.4232     2.3770   356.3480    31.5060      .2820     4.7570
  490.5756     2.3700   336.3600    32.4070      .2690     4.6270
  490.7280     2.3910   309.9320    31.4060      .2470     5.0750
  490.8804     2.4080   292.1500    31.5060      .2150     6.1600
  491.0328     2.3970   288.7840    29.7050      .1910     7.2730
  491.1852     2.4090   288.3200    26.5020      .1900     7.8310
  491.3376     2.4140   280.5290    24.2010      .1950     7.7590
  491.4900     2.4210   270.7890    23.7000      .2030     7.3410
  491.6424     2.4270   267.3180    25.2010      .2160     7.0750
  491.7948     2.4380   273.8620    27.5030      .2190     6.8180
  491.9472     2.4440   284.6490    27.9030      .2330     6.1600
  492.0996     2.4280   288.7680    27.8030      .2450     5.5140
  492.2520     2.4300   288.2010    27.1030      .2550     5.1690
  492.4044     2.4390   292.8270    26.6020      .2550     4.9360
  492.5568     2.4280   305.2230    28.4040      .2530     4.5430
  492.7092     2.4210   322.0720    30.7050      .2610     4.0290
  492.8616     2.3930   336.8870    33.0070      .2870     3.4440
  493.0140     2.3630   344.9580    34.2080      .3120     3.0270
  493.1664     2.3590   351.8190    35.8090      .3320     2.6600
  493.3188     2.3590   362.3200    35.7090      .3520     2.5400
  493.4712     2.3490   377.8410    34.8080      .3580     2.6840
  493.6236     2.3330   400.3200    30.1050      .3720     2.9170
  493.7760     2.2890   416.7460    26.1020      .3630     3.1700
  493.9284     2.2380   405.7560    22.3990      .3290     3.8120
  494.0808     2.2070   365.9920    20.4980      .3110     4.1040
  494.2332     2.1970   309.3880    20.5980      .2540     3.8470
  494.3856     2.2680   258.2980    21.3990      .1840     5.1690
  494.5380     2.3430   235.8700    21.9990      .1430     7.0100
  494.6904     2.3520   238.2350    23.2000      .1350     9.0760
  494.8428     2.3720   247.3400    24.2010      .1560     9.7720
  494.9952     2.3640   255.2630    26.1020      .1770     9.7720
  495.1476     2.4010   263.0100    26.6020      .1740     9.5930
  495.3000     2.4830   267.9230    26.9030      .1730     8.9930
  495.4524     2.4930   267.1680    26.7020      .1760     8.7480
  495.6048     2.4890   264.7260    28.4040      .1750     8.9930
  495.7572     2.4860   264.4270    29.1040      .1930     9.0760
  495.9096     2.4530   264.5050    29.8050      .2110     9.1610
  496.0620     2.4460   263.8460    31.9060      .2170     9.9540
  496.2144     2.4660   261.4080    33.2070      .2090    10.9160
  496.3668     2.4250   254.3480    32.8070      .1850    11.8620
  496.5192     2.4340   245.5980    32.9070      .1680    12.8890
  496.6716     2.4420   240.0090    33.9080      .1660    13.8770
  496.8240     2.4490   237.4360    34.2080      .1550    15.3590
  496.9764     2.4650   236.6540    34.5080      .1460    16.6900
  497.1288     2.4610   236.1560    36.6100      .1420    16.8440
  497.2812     2.4660   233.2260    41.5130      .1360    15.9370
  497.4336     2.4830   227.7620    47.7170      .1320    14.9400
  497.5860     2.5020   223.2720    56.3240      .1340    14.6670
  497.7384     2.4840   223.5630    70.9340      .1390    14.6670
  497.8908     2.4580   229.5670    91.4490      .1490    14.2660
  498.0432     2.4580   239.1090   116.8670      .1660    11.5380
  498.1956     2.4500   248.9350   142.2860      .1910     9.1610
  498.3480     2.4280   255.4260   158.9980      .2030     7.8310
