~VERSION INFORMATION
VERS.                                                 2.0:   CWLS Log ASCII Standard-VERSION 2.0
WRAP.                                                  NO:   One line per depth step
~Well Information Block
STRT.M                                              .6096:   Top Depth
STOP.M                                          1141.9332:   Bottom Depth
STEP.M                                             .15240:   Depth Increment
NULL.                                            -999.250:   Null Value
FLD .                                               NATIH:   Field Name
WELL.                                          NATIH-85H1:   NAME
EDF .                                              214.53:   ELEV DRILL FLOOR
EPD .                                                   0:   ELEV PERM DATUM
EGL .                                              209.96:   GROUND LEVEL
COMP.                          PETROLEUM DEVELOPMENT OMAN:   OPERATOR
PDAT.                                                 MSL:   PERM DATUM
COUN.                                             RIG05_3:   RIG NAME
SPUD.                                          1990/12/20:   SPUD DATE
LATI.                                         22.42686054:   SURF. LATITUDE
LONG.                                         56.67231194:   SURF. LONGITUDE
UTME.                                           466276.93:   SURF. UTM E
UTMN.                                          2479903.71:   SURF. UTM N
~PARAMETER INFORMATION (log)
LNAM.                                              PUBLIC:   NAME
LTYP.                                              JOINED:   LOG TYPE
LSRV.                                            CLEAN UP:   SERVICE
LSOU.                                               FUGRO:   LOG SOURCE
LVSN.                                                   1:   LOG VERSION
BHIS.                                                   R:   BRIEF HISTORY
TDD .M                                            1165.00:   FINAL TD DRILLER
TDL .M                                            1151.00:   FINAL TD LOGGER
FHIS.                                             RAW-LAS:   FULL HISTORY
~Curve Information Block
#MNEM.UNIT                                        API CODE    No Description
#=========                                        ========    == ===========
DEPT.M                                       00 001 00 00:     1  DEPTH
DEN.G/CC                                                 :     2  Bulk Density
DT.US/M                                                  :     3  Acoustic log
GR.API                                                   :     4  Gamma Ray
NEU.V/V                                                  :     5  Neutron Porosity in Limestone Units
RES_DEP.OHMM                                             :     6  Resistivity Deep
~ASCII
# ...
  948.8424     2.4252   444.7840    12.6336      .1030    26.8954
  948.9948     2.4237   446.9969    13.8267      .1059    27.3909
  949.1472     2.3793   455.3947    14.4215      .1150    26.0441
  949.2996     2.3849   468.4633    15.5871      .1206    24.6481
  949.4520     2.3751   476.9896    15.1092      .1400    23.7930
  949.6044     2.4402   489.5105    13.4455      .1452    24.6469
  949.7568     2.4597   490.7380    10.5919      .1469    26.3996
  949.9092     2.4294   486.3798    10.2350      .1352    26.7083
  950.0616     2.4302   486.4403     9.0447      .1304    21.3430
  950.2140     2.4411   473.5052    10.3517      .1303    18.3419
  950.3664     2.4384   466.2714     9.3989      .1300    16.5354
  950.5188     2.4099   468.2690     9.2752      .1343    15.4158
  950.6712     2.3660   474.4799     7.7256      .1486    15.7261
  950.8236     2.3581   484.5000     8.3952      .1519    16.8470
  950.9760     2.3294   483.1317     8.6341      .1520    17.7687
  951.1284     2.3407   483.2923     9.2283      .1518    18.0738
  951.2808     2.3814   488.2762    10.1026      .1533    18.8756
  951.4332     2.3959   477.3157    11.7666      .1571    20.4288
  951.5856     2.3866   474.2015    12.5963      .1449    21.9901
  951.7380     2.4150   486.2749    12.1225      .1498    24.6142
  951.8904     2.3836   479.5155    11.4094      .1431    26.8619
  952.0428     2.3637   469.4262    10.9362      .1476    28.0599
  952.1952     2.4273   472.4858    10.2228      .1434    28.5387
  952.3476     2.4363   484.9171    10.3416      .1394    28.8602
  952.5000     2.4145   484.0799    10.4625      .1300    29.8480
  952.6524     2.4292   474.4454    11.8875      .1263    31.3399
  952.8048     2.4635   472.0892    11.0555      .1154    32.4411
  952.9572     2.4702   460.3497     9.8649      .1118    32.6305
  953.1096     2.4555   456.0026     9.7442      .1068    32.6128
  953.2620     2.3976   458.4875    12.5966      .1212    30.2341
  953.4144     2.1904   457.6927    15.4519      .1359    26.5269
  953.5668     2.0870   449.1686    15.2143      .1436    22.7829
  953.7192     1.9901   438.8692    11.8865      .1183    19.3797
  953.8716     1.8999   436.5008     8.9888      .0839    15.1720
  954.0240     2.1894   431.0848     8.8700      .0706    12.7339
  954.1764     2.4090   425.7808    10.1756      .0683    11.3803
  954.3288     2.5425   425.6425    10.5862      .0785    11.4314
  954.4812     2.5014   426.7385    11.4177      .0863    12.8039
  954.6336     2.5053   420.3894    11.0597      .0855    15.6868
  954.7860     2.5025   420.3608    10.4511      .0720    18.6788
  954.9384     2.4505   420.3963     7.4551      .0675    17.4644
  955.0908     2.4512   419.8271     8.0488      .0732    15.0006
  955.2432     2.4380   423.2479     9.8276      .0826    13.7521
  955.3956     2.4405   422.4180    11.6341      .0928    12.7684
  955.5480     2.4387   438.8846     9.4960      .1055    12.8419
  955.7004     2.4185   459.6865     7.2116      .1193    13.7066
  955.8528     2.3937   460.4375     6.3781      .1380    14.5635
  956.0052     2.3903   453.6099     6.6145      .1381    15.6981
  956.1576     2.3827   451.4065     6.2871      .1358    17.2371
  956.3100     2.3998   453.6026     5.6910      .1283    17.8579
  956.4624     2.4322   447.7450     6.6327      .1186    15.6705
  956.6148     2.4819   443.8989     7.4684      .1008    13.6588
  956.7672     2.4550   437.9706     7.5928      .0961    12.7065
  956.9196     2.4286   435.3280     6.4165      .0972    12.9268
  957.0720     2.4316   433.9218     6.5798      .1011    13.1107
  957.2244     2.4856   433.1615     7.4127      .0920    12.7535
  957.3768     2.4676   432.6364     9.7906      .0839    12.7374
  957.5292     2.4578   428.0746    11.2890      .0839    12.0675
  957.6816     2.4714   421.0047    11.4828      .0914    10.8943
  957.8340     2.5453   420.9319    11.1244      .0838    11.6092
  957.9864     2.5392   427.9245    11.0056      .0740    12.3521
  958.1388     2.4720   436.8952    16.5125      .0773    12.1637
  958.2912     2.3792   434.9259    23.0731      .0956    13.4484
  958.4436     2.3705   435.4386    27.4685      .1111    14.3837
  958.5960     2.4273   444.7980    28.6658      .1195    13.4353
  958.7484     2.5104   447.6746    33.9922      .1122    12.2206
  958.9008     2.4544   448.5039    36.4923      .1081    10.5564
  959.0532     2.4765   447.3228    33.5163      .1193     9.8202
  959.2056     2.5127   448.1323    27.1241      .1152     9.8821
  959.3580     2.5357   449.1753    22.4921      .1089    10.6851
  959.5104     2.4823   443.1343    22.7332      .0984    12.9595
  959.6628     2.4841   429.8113    18.0722      .0927    15.3556
  959.8152     2.5096   412.8355    15.2184      .0782    16.3253
  959.9676     2.5333   405.1727    11.4118      .0694    16.5394
  960.1200     2.5294   411.3255    13.7923      .0681    15.1199
  960.2724     2.5030   414.7876    18.6675      .0774    14.7485
  960.4248     2.4787   419.3904    24.0200      .0816    15.4758
  960.5772     2.4362   423.8145    22.8280      .0892    16.7160
  960.7296     2.4947   429.1835    19.2632      .0935    19.0694
  960.8820     2.5252   434.7831    16.7661      .0961    20.0607
  961.0344     2.4281   435.0684    17.4856      .0991    19.5838
  961.1868     2.4399   439.4456    18.9132      .1057    20.4649
  961.3392     2.4661   441.4716    18.9191      .1103    21.0470
  961.4916     2.4322   437.3121    16.6566      .1165    21.5515
  961.6440     2.4572   436.0526    15.3480      .1150    21.9704
  961.7964     2.5032   437.2224    14.8719      .1043    20.0958
  961.9488     2.5037   436.2198    17.8517      .0897    16.5160
  962.1012     2.4863   428.0442    21.0516      .0855    14.5915
  962.2536     2.5005   430.8566    23.1251      .0855    13.6744
  962.4060     2.4993   435.5209    25.7507      .0949    13.0658
  962.5584     2.4969   436.6229    27.8481      .0950    13.3641
  962.7108     2.4763   433.5456    30.4806      .0964    12.5198
  962.8632     2.4853   430.4146    27.3392      .0843    10.9694
  963.0156     2.5383   427.3965    24.5310      .0662     9.1621
  963.1680     2.5802   415.8735    24.2942      .0608     7.6226
  963.3204     2.6099   414.9027    27.9624      .0623     6.8489
  963.4728     2.5681   427.4894    32.3147      .0756     6.8761
  963.6252     2.5603   436.9619    34.3214      .0934     7.6062
  963.7776     2.4926   442.9279    36.5697      .1093     9.3977
  963.9300     2.4705   446.8732    31.5941      .1122    11.9481
  964.0824     2.5245   442.0555    29.4689      .0956    13.5273
  964.2348     2.5852   427.0092    26.7571      .0694    15.1358
  964.3872     2.5678   415.9249    27.9444      .0551    13.3657
  964.5396     2.5602   412.0561    28.5223      .0538    11.7010
  964.6920     2.5924   413.0399    28.8828      .0538    11.1717
  964.8444     2.5762   408.8008    32.1808      .0586    10.3670
  964.9968     2.5503   406.4672    32.3029      .0644    10.5987
  965.1492     2.5368   409.5703    31.8096      .0681    12.6462
  965.3016     2.5333   405.2328    30.2776      .0703    13.8896
  965.4540     2.5406   401.1112    27.1028      .0595    16.0426
  965.6064     2.5541   400.8262    24.7374      .0541    17.4705
  965.7588     2.5900   404.0107    30.3923      .0501    20.9456
  965.9112     2.5822   410.3717    39.4887      .0677    23.3843
  966.0636     2.4863   420.9014    46.4597      .0870    28.1875
  966.2160     2.4305   427.4089    41.6379      .1129    32.4842
  966.3684     2.4740   436.9832    37.9697      .1084    33.5458
  966.5208     2.4683   440.6463    35.8539      .1128    29.7533
  966.6732     2.3835   437.8975    35.1390      .1075    27.9368
  966.8256     2.3865   439.9128    31.4708      .1136    29.1380
  966.9780     2.2557   436.6953    27.0926      .1054    30.3939
  967.1304     2.2503   433.5350    26.3830      .1138    30.7993
  967.2828     2.4318   438.0690    27.5381      .1217    33.6718
