~VERSION INFORMATION
VERS.                                                 2.0:   CWLS Log ASCII Standard-VERSION 2.0
WRAP.                                                  NO:   One line per depth step
~Well Information Block
STRT.M                                            14.3256:   Top Depth
STOP.M                                          1031.1384:   Bottom Depth
STEP.M                                             .15240:   Depth Increment
NULL.                                            -999.250:   Null Value
FLD .                                                NIMR:   Field Name
WELL.                                            NIMR-8H1:   NAME
LOC .                                         NIMR DQ-104:   AREA NAME
EDF .                                              214.46:   ELEV DRILL FLOOR
EPD .                                                   0:   ELEV PERM DATUM
EGL .                                              208.97:   GROUND LEVEL
COMP.                          Petroleum Development Oman:   OPERATOR
PDAT.                                                 MSL:   PERM DATUM
COUN.                                             RIG01_4:   RIG NAME
SPUD.                                          1982/03/03:   SPUD DATE
LATI.                                         18.69955655:   SURF. LATITUDE
LONG.                                         55.92375545:   SURF. LONGITUDE
UTME.                                           386515.66:   SURF. UTM E
UTMN.                                          2067747.29:   SURF. UTM N
CNTY.                                             RIG01_4:   COUNTY
~PARAMETER INFORMATION (log)
LNAM.                                              PUBLIC:   NAME
LTYP.                                              JOINED:   LOG TYPE
LSRV.                                            CLEAN UP:   SERVICE
LSOU.                                               FUGRO:   LOG SOURCE
LVSN.                                                   1:   LOG VERSION
BHIS.                                                   R:   BRIEF HISTORY
TDD .M                                            1032.97:   FINAL TD DRILLER
TDL .M                                            1032.66:   FINAL TD LOGGER
FHIS.                                             RAW-LAS:   FULL HISTORY
~Curve Information Block
#MNEM.UNIT                                        API CODE    No Description
#=========                                        ========    == ===========
DEPT.M                                       00 001 00 00:     1  DEPTH
DEN.G/C3                                                 :     2  Bulk Density
DT.US/M                                                  :     3  Acoustic log
GR.API                                                   :     4  Gamma Ray
NEU.V/V                                                  :     5  Neutron Porosity in Limestone Units
RES_DEP.OHMM                                             :     6  Resistivity Deep
~ASCII
# ...
  851.0016     2.4844   313.3202    32.5000      .2451     5.6727
  851.1540     2.4883   310.4495    34.1562      .2612     5.6499
  851.3064     2.4863   309.6293    36.5625      .2627     5.9752
  851.4588     2.4570   319.4718    37.4688      .2642     5.9474
  851.6112     2.3789   351.0499    38.8438      .2803     4.6562
  851.7636     2.3359   367.4541    39.0938      .3032     3.5012
  851.9160     2.2637   380.9875    48.5625      .3618     3.0406
  852.0684     2.1973   390.8300    52.8125      .3706     2.8589
  852.2208     2.1523   381.8077    59.3125      .4014     2.8105
  852.3732     2.1445   383.4482    54.9062      .3872     3.0758
  852.5256     2.1230   386.3189    52.0625      .4097     2.9919
  852.6780     2.0996   386.3189    47.4688      .4111     2.8915
  852.8304     2.0957   391.2401    49.0312      .4121     2.8717
  852.9828     2.1016   398.2119    49.1875      .4058     2.5869
  853.1352     2.1582   401.0827    48.5938      .3916     2.4428
  853.2876     2.2441   408.4646    47.0312      .3818     2.3681
  853.4400     2.3066   415.0262    47.6562      .3726     2.2617
  853.5924     2.3457   419.9475    44.6875      .3823     2.2067
  853.7448     2.3164   422.4081    41.7188      .3916     2.0663
  853.8972     2.3125   430.6102    41.7188      .4277     2.0111
  854.0496     2.2969   436.3517    44.4062      .4297     1.9521
  854.2020     2.3047   439.6325    45.1875      .4365     1.8501
  854.3544     2.2871   438.8123    44.1250      .4375     1.8245
  854.5068     2.2910   438.8123    47.9688      .4658     1.8463
  854.6592     2.2930   440.4528    49.2188      .4658     1.7985
  854.8116     2.2871   440.4528    49.4062      .4712     1.8114
  854.9640     2.2676   447.0144    48.0000      .4409     1.8029
  855.1164     2.2559   446.1942    48.5312      .4517     1.7493
  855.2688     2.2461   438.8123    51.6875      .4277     1.8273
  855.4212     2.2598   428.9698    49.6875      .4614     1.8905
  855.5736     2.2695   421.5879    50.1250      .4404     2.0208
  855.7260     2.2988   418.7172    46.5312      .4526     2.0543
  855.8784     2.3164   409.6949    45.8750      .4268     2.1043
  856.0308     2.3184   405.1837    44.9688      .4678     2.1394
  856.1832     2.3379   381.3976    44.8125      .4375     2.2334
  856.3356     2.3477   359.2520    42.4062      .4424     2.7523
  856.4880     2.3926   355.5610    38.5938      .3999     3.2038
  856.6404     2.4141   344.8983    36.1562      .3887     3.3846
  856.7928     2.4375   339.5669    34.0938      .3403     3.6813
  856.9452     2.4551   330.1345    33.8438      .3325     3.9320
  857.0976     2.4707   328.0840    32.6250      .3179     4.1177
  857.2500     2.4688   320.7021    37.3750      .2876     3.7064
  857.4024     2.4160   327.2638    42.7812      .2402     3.8702
  857.5548     2.3945   310.0394    44.6875      .2686     4.0271
  857.7072     2.3340   296.5059    38.9375      .2930     4.8652
  857.8596     2.3086   299.3766    29.5000      .3081     7.5546
  858.0120     2.2441   292.4048    22.7188      .2773     9.2735
  858.1644     2.2422   281.7421    20.2969      .2593     8.5949
  858.3168     2.2363   274.3602    19.0469      .2559     8.2208
  858.4692     2.2930   275.5905    19.1094      .2646     8.2130
  858.6216     2.3027   271.4895    19.7188      .2759     8.5105
  858.7740     2.3496   273.5400    19.3594      .2764     8.6503
  858.9264     2.3457   280.5118    20.9688      .2617     9.0974
  859.0788     2.3516   281.3320    20.0781      .2563     9.5909
  859.2312     2.3535   280.9219    20.8438      .2515     9.8287
  859.3836     2.3438   272.7198    19.7031      .2456     9.9899
  859.5360     2.3203   273.1299    21.7188      .2524     9.7050
  859.6884     2.3047   267.3885    24.0781      .2847     9.1791
  859.8408     2.3242   271.8996    26.0469      .3013     8.7842
  859.9932     2.3477   268.6188    24.8438      .3018     8.4173
  860.1456     2.3477   267.3885    26.7656      .2778     8.0881
  860.2980     2.3223   272.3097    26.0938      .2739     8.0831
  860.4504     2.3262   271.8996    26.8594      .2715     8.0644
  860.6028     2.3555   272.3097    24.7500      .2612     8.4341
  860.7552     2.3945   275.5905    23.8125      .2441     8.8782
  860.9076     2.4004   273.5400    21.3125      .2559     9.1328
  861.0600     2.3730   262.8773    18.5938      .2559     9.5974
  861.2124     2.3535   257.1358    18.8594      .2637    10.0743
  861.3648     2.3633   255.4954    20.9062      .2549    10.5836
  861.5172     2.3828   253.8550    23.6719      .2520    11.4350
  861.6696     2.4238   253.8550    26.6562      .2290    12.6633
  861.8220     2.4746   245.6529    28.2344      .2095    14.6365
  861.9744     2.5234   241.5518    27.1094      .2017    16.4827
  862.1268     2.5391   232.9396    25.4375      .2036    17.7437
  862.2792     2.5195   230.4790    24.0938      .1978    16.9760
  862.4316     2.4883   231.2992    25.5781      .1953    15.5167
  862.5840     2.4629   234.9902    21.8906      .1973    14.6621
  862.7364     2.4512   241.9619    22.2812      .2104    14.9327
  862.8888     2.4453   235.4003    21.5781      .2124    15.3787
  863.0412     2.4766   236.2205    24.4375      .2134    15.5927
  863.1936     2.4824   235.4003    24.0312      .2007    15.6594
  863.3460     2.4824   235.8104    21.9531      .1987    15.2945
  863.4984     2.4453   237.0407    21.1250      .2007    14.7341
  863.6508     2.4355   235.4003    19.7812      .2246    14.8027
  863.8032     2.4512   232.5295    20.2188      .2212    15.5283
  863.9556     2.4707   232.5295    20.0000      .2046    16.7323
  864.1080     2.4961   232.1194    20.5000      .1797    16.5440
  864.2604     2.5020   236.6306    22.4375      .1582    15.5702
  864.4128     2.5195   241.1417    23.6406      .1523    15.4768
  864.5652     2.5137   242.3720    23.2031      .1396    15.2741
  864.7176     2.5078   241.5518    21.3594      .1426    15.8803
  864.8700     2.4922   237.8609    20.1719      .1489    17.3844
  865.0224     2.4805   232.1194    22.0156      .1592    16.8960
  865.1748     2.4805   228.4285    21.7031      .1777    16.3799
  865.3272     2.4746   229.6588    21.1094      .1763    16.8307
  865.4796     2.4727   231.7093    18.3281      .1694    18.1203
  865.6320     2.4883   230.0689    20.6094      .1392    17.4235
  865.7844     2.4961   232.5295    26.5938      .1289    12.0754
  865.9368     2.5215   241.9619    32.6250      .1323     8.1768
  866.0892     2.5234   257.5459    34.4062      .1699     6.5791
  866.2416     2.5449   254.5727    30.3438      .1836     6.6419
  866.3940     2.5449   251.5994    24.3750      .1846     8.9710
  866.5464     2.5391   248.6262    19.5156      .1494    14.1849
  866.6988     2.5391   245.6529    17.0625      .1294    23.2842
  866.8512     2.5430   244.6276    17.5625      .1084    26.5685
  867.0036     2.5469   243.6024    19.1250      .1035    20.9464
  867.1560     2.5449   242.5771    21.2812      .1079    12.4099
  867.3084     2.5430   241.5518    23.1719      .1274     8.4886
  867.4608     2.5371   261.2369    28.6562      .1782     6.2770
  867.6132     2.5312   281.3320    32.2812      .2046     5.4310
  867.7656     2.4980   298.5564    35.9375      .2217     4.7003
  867.9180     2.4824   310.4495    37.2812      .2217     4.0555
  868.0704     2.4473   328.0840    37.2500      .2622     3.4055
  868.2228     2.4316   344.0781    40.0000      .3081     2.8838
  868.3752     2.4121   346.4362    38.6250      .3467     2.6907
  868.5276     2.4082   348.7943    38.5312      .3506     2.7867
  868.6800     2.4219   351.1524    34.5000      .3491     3.3247
  868.8324     2.4277   353.5105    33.0312      .3008     4.1709
  868.9848     2.4648   332.5952    31.0312      .2554     4.8450
  869.1372     2.4863   317.8314    29.9844      .2339     4.4034
  869.2896     2.4785   319.8819    30.5938      .2788     3.6477
  869.4420     2.4570   336.2861    30.2031      .3154     3.4716
