~VERSION INFORMATION
VERS.                                                 2.0:   CWLS Log ASCII Standard-VERSION 2.0
WRAP.                                                  NO:   One line per depth step
~Well Information Block
STRT.M                                            14.3256:   Top Depth
STOP.M                                          1031.1384:   Bottom Depth
STEP.M                                             .15240:   Depth Increment
NULL.                                            -999.250:   Null Value
FLD .                                                NIMR:   Field Name
WELL.                                            NIMR-8H1:   NAME
LOC .                                         NIMR DQ-104:   AREA NAME
EDF .                                              214.46:   ELEV DRILL FLOOR
EPD .                                                   0:   ELEV PERM DATUM
EGL .                                              208.97:   GROUND LEVEL
COMP.                          Petroleum Development Oman:   OPERATOR
PDAT.                                                 MSL:   PERM DATUM
COUN.                                             RIG01_4:   RIG NAME
SPUD.                                          1982/03/03:   SPUD DATE
LATI.                                         18.69955655:   SURF. LATITUDE
LONG.                                         55.92375545:   SURF. LONGITUDE
UTME.                                           386515.66:   SURF. UTM E
UTMN.                                          2067747.29:   SURF. UTM N
CNTY.                                             RIG01_4:   COUNTY
~PARAMETER INFORMATION (log)
LNAM.                                              PUBLIC:   NAME
LTYP.                                              JOINED:   LOG TYPE
LSRV.                                            CLEAN UP:   SERVICE
LSOU.                                               FUGRO:   LOG SOURCE
LVSN.                                                   1:   LOG VERSION
BHIS.                                                   R:   BRIEF HISTORY
TDD .M                                            1032.97:   FINAL TD DRILLER
TDL .M                                            1032.66:   FINAL TD LOGGER
FHIS.                                             RAW-LAS:   FULL HISTORY
~Curve Information Block
#MNEM.UNIT                                        API CODE    No Description
#=========                                        ========    == ===========
DEPT.M                                       00 001 00 00:     1  DEPTH
DEN.G/C3                                                 :     2  Bulk Density
DT.US/M                                                  :     3  Acoustic log
GR.API                                                   :     4  Gamma Ray
NEU.V/V                                                  :     5  Neutron Porosity in Limestone Units
RES_DEP.OHMM                                             :     6  Resistivity Deep
~ASCII
# ...
  943.9656     2.0938   380.9875    62.8438      .3560    10.1517
  944.1180     2.1484   381.3976    66.0000      .3296     9.3402
  944.2704     2.1992   390.8300    69.8125      .3340     8.6698
  944.4228     2.2188   394.1109    75.7500      .3184     7.7562
  944.5752     2.2090   388.3694    81.7500      .3457     7.0393
  944.7276     2.2148   383.8583    87.4375      .3599     6.8301
  944.8800     2.2109   383.4482    91.5625      .3647     6.6025
  945.0324     2.2246   376.4764    98.0625      .3735     6.4061
  945.1848     2.2285   378.1168    98.5000      .3760     6.2057
  945.3372     2.2324   378.9370    99.4375      .3804     6.2572
  945.4896     2.2383   376.4764   101.2500      .3716     6.1714
  945.6420     2.2422   370.7349   103.3125      .3652     6.1102
  945.7944     2.2480   365.8137   105.7500      .3677     6.1849
  945.9468     2.2539   360.0722   109.1250      .3618     6.1125
  946.0992     2.2598   355.1509   110.6250      .3574     6.2044
  946.2516     2.2715   351.4600   111.5625      .3423     6.2278
  946.4040     2.2715   351.8701   106.5625      .3403     6.1538
  946.5564     2.2656   352.2802   104.2500      .3306     6.1396
  946.7088     2.2637   355.1509   100.2500      .3335     6.0093
  946.8612     2.2773   350.2296   100.8125      .3486     5.7770
  947.0136     2.2988   351.8701   100.3750      .3569     5.7081
  947.1660     2.2988   359.6621   106.8125      .3867     5.5402
  947.3184     2.2949   358.8419   106.2500      .3755     5.3815
  947.4708     2.2891   361.3025   113.2500      .3760     5.1937
  947.6232     2.3027   367.4541   111.4375      .3389     5.0989
  947.7756     2.3164   369.5046   117.1250      .3633     5.0306
  947.9280     2.3281   370.7349   119.2500      .3623     4.9107
  948.0804     2.3320   373.1955   117.6250      .3867     5.0462
  948.2328     2.3301   370.3248   117.2500      .3809     5.1771
  948.3852     2.2969   371.5551   116.5000      .3745     5.0749
  948.5376     2.3184   377.2966   123.6250      .3726     4.8658
  948.6900     2.3008   373.1955   125.2500      .3804     4.8028
  948.8424     2.3145   374.0157   124.0000      .3809     4.5761
  948.9948     2.3066   381.8077   127.0000      .4033     4.4117
  949.1472     2.3008   375.2461   130.8750      .4087     4.4870
  949.2996     2.3066   379.7572   136.5000      .4268     4.5459
  949.4520     2.2969   382.2178   131.1250      .4067     4.7273
  949.6044     2.3027   374.4258   124.1875      .3940     5.0471
  949.7568     2.2891   369.0945   110.6875      .3750     5.3048
  949.9092     2.2891   359.6621   100.3125      .3511     5.5039
  950.0616     2.2793   349.4095    88.5625      .3237     5.3495
  950.2140     2.2734   343.6680    85.3125      .3154     5.1904
  950.3664     2.2734   338.7467    83.0625      .3340     5.9547
  950.5188     2.3340   326.4436    79.6875      .2993     8.3151
  950.6712     2.4238   303.8878    73.8750      .2456    11.3147
  950.8236     2.4688   300.0943    70.9375      .1855    13.4815
  950.9760     2.4180   296.3008    75.0625      .1797     9.4146
  951.1284     2.3438   292.5074    84.0625      .2168     6.3075
  951.2808     2.3047   288.7139    92.4375      .2612     5.1256
  951.4332     2.2969   318.6516   101.0625      .3057     4.7282
  951.5856     2.2949   341.6175   106.5625      .3315     4.8277
  951.7380     2.2949   355.1509   114.1875      .3311     4.9696
  951.8904     2.2871   358.8419   118.7500      .3447     4.9005
  952.0428     2.2832   359.2520   123.5625      .3491     4.8013
  952.1952     2.2832   360.8924   125.5625      .3628     4.6908
  952.3476     2.2812   362.1227   127.5625      .3423     4.5305
  952.5000     2.3027   361.3025   128.8750      .3330     4.7652
  952.6524     2.2891   361.3025   126.8750      .3345     4.8167
  952.8048     2.2852   361.7126   124.0625      .3486     4.8270
  952.9572     2.2617   361.3025   122.3750      .3564     4.9560
  953.1096     2.2676   361.3025   116.8125      .3472     4.5356
  953.2620     2.2812   358.4318   116.0000      .3262     4.5501
  953.4144     2.2930   356.7914   116.4375      .3193     4.5957
  953.5668     2.3027   354.3307   123.7500      .3096     4.7256
  953.7192     2.2988   357.6115   125.3750      .3052     5.0906
  953.8716     2.3008   358.0217   120.5625      .3110     5.1153
  954.0240     2.2988   359.2520   119.0625      .3271     5.3072
  954.1764     2.2988   356.7914   116.4375      .3345     5.4760
  954.3288     2.2930   354.3307   115.0625      .3223     5.5544
  954.4812     2.2949   352.2802   112.6250      .3125     5.5579
  954.6336     2.2910   352.2802   114.3125      .3369     5.6517
  954.7860     2.2910   353.5105   115.5625      .3413     5.6139
  954.9384     2.2852   353.1004   114.5000      .3501     5.5281
  955.0908     2.2891   352.2802   111.6250      .3364     5.3977
  955.2432     2.2891   355.5610   115.0625      .3311     5.4179
  955.3956     2.2910   356.3812   121.0000      .3271     5.3924
  955.5480     2.2949   358.4318   122.9375      .3330     5.2830
  955.7004     2.2930   361.7126   122.6875      .3271     5.2516
  955.8528     2.2910   361.3025   120.3750      .3247     4.9589
  956.0052     2.2832   364.5833   124.8750      .3262     4.6360
  956.1576     2.2793   366.6339   127.8125      .3428     4.4503
  956.3100     2.2734   366.6339   133.8750      .3423     4.5144
  956.4624     2.2734   372.7854   127.0625      .3379     4.6778
  956.6148     2.2832   371.5551   115.9375      .3208     4.5834
  956.7672     2.2949   366.2238   104.1875      .3066     4.3012
  956.9196     2.3184   364.9934   102.6250      .3013     4.1614
  957.0720     2.3125   363.3530   107.0000      .3198     4.2592
  957.2244     2.2988   367.0440   108.3750      .3462     4.4783
  957.3768     2.2773   371.5551   107.6250      .3467     4.8196
  957.5292     2.2715   371.9652   108.9375      .3374     4.8578
  957.6816     2.2715   371.5551   111.6875      .3267     4.8263
  957.8340     2.2637   369.5046   113.0625      .3140     4.7152
  957.9864     2.2891   371.1450   113.3750      .3140     4.4288
  958.1388     2.3125   375.2461   118.0625      .3184     4.3101
  958.2912     2.3359   377.7067   127.5000      .3540     4.0649
  958.4436     2.3066   381.8077   129.0000      .3760     4.0840
  958.5960     2.2910   390.0099   125.0000      .3857     4.2830
  958.7484     2.2793   390.4200   114.5000      .4077     4.3339
  958.9008     2.2656   393.7008   112.9375      .4062     4.3945
  959.0532     2.2637   398.6220   109.6250      .4233     4.2281
  959.2056     2.2832   398.6220   110.2500      .4053     4.1431
  959.3580     2.3066   401.0827   111.2500      .4043     3.8988
  959.5104     2.2910   402.7231   114.4375      .3945     3.8474
  959.6628     2.2891   396.9816   117.5000      .4146     3.7826
  959.8152     2.2773   401.0827   123.8125      .4326     3.7458
  959.9676     2.2949   406.8242   124.7500      .4385     3.8095
  960.1200     2.2891   406.8242   127.9375      .4116     3.7265
  960.2724     2.2930   410.1050   116.8750      .4087     3.9551
  960.4248     2.2871   409.2848   113.3750      .4009     4.0079
  960.5772     2.2969   404.3635   109.4375      .4019     4.0968
  960.7296     2.2832   401.4928   109.7500      .3892     4.0550
  960.8820     2.3027   405.5938   107.8750      .3901     3.8940
  961.0344     2.2930   398.2119   105.9375      .4229     3.9238
  961.1868     2.3281   393.2907   109.0000      .4028     4.3775
  961.3392     2.3457   382.6280   109.2500      .3711     5.3761
  961.4916     2.3652   355.1509   106.8750      .3242     6.0835
  961.6440     2.3477   353.5105   101.5625      .3101     6.6825
  961.7964     2.3496   351.8701    99.3125      .3071     6.2250
  961.9488     2.3359   350.2296   102.0625      .3140     5.4759
  962.1012     2.3457   348.5892   102.0625      .3491     5.2596
  962.2536     2.3516   363.7631   102.8750      .3770     5.4359
  962.4060     2.3711   359.6621    97.6875      .3677     6.0602
