~VERSION INFORMATION
VERS.                                                 2.0:   CWLS Log ASCII Standard-VERSION 2.0
WRAP.                                                  NO:   One line per depth step
~Well Information Block
STRT.M                                            14.3256:   Top Depth
STOP.M                                          1031.1384:   Bottom Depth
STEP.M                                             .15240:   Depth Increment
NULL.                                            -999.250:   Null Value
FLD .                                                NIMR:   Field Name
WELL.                                            NIMR-8H1:   NAME
LOC .                                         NIMR DQ-104:   AREA NAME
EDF .                                              214.46:   ELEV DRILL FLOOR
EPD .                                                   0:   ELEV PERM DATUM
EGL .                                              208.97:   GROUND LEVEL
COMP.                          Petroleum Development Oman:   OPERATOR
PDAT.                                                 MSL:   PERM DATUM
COUN.                                             RIG01_4:   RIG NAME
SPUD.                                          1982/03/03:   SPUD DATE
LATI.                                         18.69955655:   SURF. LATITUDE
LONG.                                         55.92375545:   SURF. LONGITUDE
UTME.                                           386515.66:   SURF. UTM E
UTMN.                                          2067747.29:   SURF. UTM N
CNTY.                                             RIG01_4:   COUNTY
~PARAMETER INFORMATION (log)
LNAM.                                              PUBLIC:   NAME
LTYP.                                              JOINED:   LOG TYPE
LSRV.                                            CLEAN UP:   SERVICE
LSOU.                                               FUGRO:   LOG SOURCE
LVSN.                                                   1:   LOG VERSION
BHIS.                                                   R:   BRIEF HISTORY
TDD .M                                            1032.97:   FINAL TD DRILLER
TDL .M                                            1032.66:   FINAL TD LOGGER
FHIS.                                             RAW-LAS:   FULL HISTORY
~Curve Information Block
#MNEM.UNIT                                        API CODE    No Description
#=========                                        ========    == ===========
DEPT.M                                       00 001 00 00:     1  DEPTH
DEN.G/C3                                                 :     2  Bulk Density
DT.US/M                                                  :     3  Acoustic log
GR.API                                                   :     4  Gamma Ray
NEU.V/V                                                  :     5  Neutron Porosity in Limestone Units
RES_DEP.OHMM                                             :     6  Resistivity Deep
~ASCII
# ...
  813.8160     2.3633   226.3780    31.3906      .2944    16.2321
  813.9684     2.4043   226.3780    33.0625      .3003    17.6072
  814.1208     2.4512   226.3780    36.8125      .2637    18.1805
  814.2732     2.4824   225.5577    37.9375      .2344    18.3568
  814.4256     2.4805   228.4285    41.0625      .2305    19.2077
  814.5780     2.4551   230.0689    44.6250      .2363    19.7857
  814.7304     2.4492   228.4285    45.5000      .2397    20.9397
  814.8828     2.4531   231.7093    43.1250      .2305    20.4583
  815.0352     2.4531   245.2428    38.3125      .2256    18.3147
  815.1876     2.4473   253.8550    36.6250      .2275    17.0520
  815.3400     2.4180   255.0853    35.7812      .2241    15.3067
  815.4924     2.4238   251.3944    35.6250      .2412    14.1168
  815.6448     2.4102   240.3215    34.0938      .2437    14.1990
  815.7972     2.4238   235.4003    33.7812      .2539    14.1879
  815.9496     2.4473   230.0689    32.3125      .2427    14.9180
  816.1020     2.4805   220.2264    34.5312      .2476    16.2812
  816.2544     2.4961   216.1253    35.9375      .2334    17.6424
  816.4068     2.5059   223.5072    37.8438      .2251    18.4577
  816.5592     2.5020   225.1476    37.5938      .2163    19.0457
  816.7116     2.5059   233.3497    36.5625      .2119    18.6238
  816.8640     2.4922   235.4003    34.8750      .2080    17.7103
  817.0164     2.4863   239.0912    32.1562      .2124    17.7637
  817.1688     2.4609   237.0407    31.5938      .2222    16.4841
  817.3212     2.4238   233.3497    29.7344      .2246    15.5386
  817.4736     2.4102   230.4790    29.2812      .2300    14.8845
  817.6260     2.4102   232.1194    27.1719      .2476    14.3804
  817.7784     2.4375   228.4285    29.9531      .2661    14.9445
  817.9308     2.4570   238.2710    31.0469      .2549    15.6718
  818.0832     2.4492   238.6811    32.9062      .2456    15.9824
  818.2356     2.4238   235.4003    32.6250      .2144    15.9910
  818.3880     2.3945   231.7093    33.1250      .2197    15.3294
  818.5404     2.4199   221.4567    33.0625      .2129    15.6889
  818.6928     2.4609   216.1253    33.0000      .2217    17.0007
  818.8452     2.5312   213.2546    33.8125      .2046    19.1472
  818.9976     2.5312   218.9961    33.9062      .1807    20.7998
  819.1500     2.5195   227.6083    34.2812      .1562    21.2270
  819.3024     2.4688   234.9902    36.3750      .1489    20.3051
  819.4548     2.4219   227.1982    39.3750      .1519    19.7011
  819.6072     2.3965   223.9173    40.6875      .1641    20.1229
  819.7596     2.3926   219.4062    36.0938      .1865    20.4847
  819.9120     2.4238   216.9455    32.7812      .1914    20.5417
  820.0644     2.4004   226.3780    30.3281      .1948    21.7084
  820.2168     2.4180   224.3274    31.8750      .1807    21.7002
  820.3692     2.4453   224.7375    30.2500      .1670    22.2869
  820.5216     2.5039   225.9678    32.4062      .1494    23.1770
  820.6740     2.5254   230.4790    34.4688      .1328    21.9383
  820.8264     2.5117   239.0912    37.5000      .1260    21.3647
  820.9788     2.5156   247.2933    36.8438      .1274    20.7117
  821.1312     2.4805   248.1135    35.9688      .1313    19.5861
  821.2836     2.4707   246.4731    34.3125      .1411    18.4114
  821.4360     2.4434   246.4731    32.8125      .1450    17.0557
  821.5884     2.4512   239.0912    29.5312      .1538    15.8387
  821.7408     2.4805   249.3438    29.4375      .1567    15.6900
  821.8932     2.5156   243.6024    27.5625      .1646    15.9309
  822.0456     2.5234   240.3215    28.9062      .1567    16.6412
  822.1980     2.4961   243.1923    25.4375      .1548    17.2445
  822.3504     2.4863   230.4790    26.4375      .1470    18.0619
  822.5028     2.4824   227.6083    25.3750      .1553    19.2075
  822.6552     2.5039   226.3780    27.5781      .1602    20.0247
  822.8076     2.5059   226.7881    30.0625      .1626    20.4902
  822.9600     2.5391   221.4567    33.3438      .1597    20.1866
  823.1124     2.5312   216.9455    35.7188      .1548    19.6986
  823.2648     2.5273   221.4567    34.9062      .1689    18.5901
  823.4172     2.5059   221.8668    32.4062      .1685    17.9805
  823.5696     2.4961   229.2487    32.0625      .1582    17.5414
  823.7220     2.4824   234.5800    30.2500      .1514    16.6381
  823.8744     2.4746   235.4003    29.2500      .1538    16.3661
  824.0268     2.4844   236.2205    30.1875      .1582    16.5823
  824.1792     2.5039   236.2205    33.4688      .1558    16.8979
  824.3316     2.5078   239.5013    36.9375      .1460    17.9906
  824.4840     2.4961   235.8104    35.8438      .1284    19.6153
  824.6364     2.4863   235.8104    36.3125      .1191    20.8201
  824.7888     2.4824   229.6588    35.9375      .1069    23.2313
  824.9412     2.5000   227.6083    35.8438      .1045    23.7369
  825.0936     2.5098   234.5800    33.9375      .1016    22.0122
  825.2460     2.5273   237.8609    34.2188      .1074    20.4454
  825.3984     2.5137   248.9337    34.2812      .1118    18.7526
  825.5508     2.4980   247.7034    35.3438      .1230    17.8708
  825.7032     2.4648   247.7034    34.1250      .1299    17.9541
  825.8556     2.4336   240.3215    33.3438      .1357    17.9016
  826.0080     2.4062   235.8104    29.2969      .1392    17.7810
  826.1604     2.3711   234.1700    28.3594      .1470    17.3704
  826.3128     2.3496   232.9396    30.5469      .1519    17.5826
  826.4652     2.3320   231.2992    35.6562      .1562    18.5559
  826.6176     2.3867   222.2769    35.4375      .1504    21.1388
  826.7700     2.4238   216.5354    36.7500      .1528    23.7769
  826.9224     2.4688   221.0466    35.1562      .1436    25.5032
  827.0748     2.4395   223.9173    35.9062      .1343    25.1170
  827.2272     2.4590   229.6588    31.9844      .1260    23.4863
  827.3796     2.4766   232.9396    31.2344      .1431    22.3062
  827.5320     2.4863   239.0912    29.9844      .1675    20.9846
  827.6844     2.4785   237.0407    31.7656      .1758    20.5657
  827.8368     2.4570   230.4790    30.3594      .1641    19.7701
  827.9892     2.4805   233.7598    29.6250      .1533    19.0197
  828.1416     2.4922   235.4003    29.9375      .1621    18.4651
  828.2940     2.5137   236.6306    31.1094      .1831    17.8506
  828.4464     2.4980   233.3497    32.5625      .1855    17.4434
  828.5988     2.4863   240.7316    31.0625      .1802    17.4429
  828.7512     2.4609   239.0912    30.9531      .1782    17.3463
  828.9036     2.4375   230.0689    31.2812      .1831    17.5194
  829.0560     2.4121   235.8104    30.8438      .1914    18.0868
  829.2084     2.4297   227.1982    30.5156      .1807    18.4405
  829.3608     2.4434   226.7881    30.1875      .1826    18.7720
  829.5132     2.4648   233.7598    28.7656      .1738    19.6703
  829.6656     2.5117   224.7375    27.2500      .1689    20.9119
  829.8180     2.5234   226.7881    24.8281      .1685    21.9686
  829.9704     2.5449   228.8386    24.6406      .1548    22.8927
  830.1228     2.5137   230.4790    25.5312      .1543    22.6421
  830.2752     2.5332   235.8104    27.3750      .1372    21.0292
  830.4276     2.5430   239.5013    28.2500      .1396    19.2425
  830.5800     2.5508   241.5518    26.5469      .1406    17.7411
  830.7324     2.5645   244.8327    24.7344      .1353    16.6774
  830.8848     2.5586   244.8327    24.3594      .1318    16.1631
  831.0372     2.5605   248.5236    24.3750      .1279    15.1317
  831.1896     2.5605   252.6247    24.5625      .1313    13.7423
  831.3420     2.5664   259.5965    25.0312      .1362    11.3239
  831.4944     2.5625   267.3885    25.7188      .1440     9.5714
  831.6468     2.5566   268.6188    28.2656      .1655     8.6952
  831.7992     2.5547   269.4390    25.9062      .1719     8.6834
  831.9516     2.5527   266.1581    24.9375      .1694     9.0732
  832.1040     2.5508   264.9278    22.4688      .1592     9.9226
  832.2564     2.5488   263.6975    21.6719      .1538    10.5580
