~VERSION INFORMATION
VERS.                                                 2.0:   CWLS Log ASCII Standard-VERSION 2.0
WRAP.                                                  NO:   One line per depth step
~Well Information Block
STRT.M                                            14.3256:   Top Depth
STOP.M                                          1031.1384:   Bottom Depth
STEP.M                                             .15240:   Depth Increment
NULL.                                            -999.250:   Null Value
FLD .                                                NIMR:   Field Name
WELL.                                            NIMR-8H1:   NAME
LOC .                                         NIMR DQ-104:   AREA NAME
EDF .                                              214.46:   ELEV DRILL FLOOR
EPD .                                                   0:   ELEV PERM DATUM
EGL .                                              208.97:   GROUND LEVEL
COMP.                          Petroleum Development Oman:   OPERATOR
PDAT.                                                 MSL:   PERM DATUM
COUN.                                             RIG01_4:   RIG NAME
SPUD.                                          1982/03/03:   SPUD DATE
LATI.                                         18.69955655:   SURF. LATITUDE
LONG.                                         55.92375545:   SURF. LONGITUDE
UTME.                                           386515.66:   SURF. UTM E
UTMN.                                          2067747.29:   SURF. UTM N
CNTY.                                             RIG01_4:   COUNTY
~PARAMETER INFORMATION (log)
LNAM.                                              PUBLIC:   NAME
LTYP.                                              JOINED:   LOG TYPE
LSRV.                                            CLEAN UP:   SERVICE
LSOU.                                               FUGRO:   LOG SOURCE
LVSN.                                                   1:   LOG VERSION
BHIS.                                                   R:   BRIEF HISTORY
TDD .M                                            1032.97:   FINAL TD DRILLER
TDL .M                                            1032.66:   FINAL TD LOGGER
FHIS.                                             RAW-LAS:   FULL HISTORY
~Curve Information Block
#MNEM.UNIT                                        API CODE    No Description
#=========                                        ========    == ===========
DEPT.M                                       00 001 00 00:     1  DEPTH
DEN.G/C3                                                 :     2  Bulk Density
DT.US/M                                                  :     3  Acoustic log
GR.API                                                   :     4  Gamma Ray
NEU.V/V                                                  :     5  Neutron Porosity in Limestone Units
RES_DEP.OHMM                                             :     6  Resistivity Deep
~ASCII
# ...
  776.6304     2.2227   352.6903    53.7812      .4268     3.3239
  776.7828     2.3320   352.8953    42.6562      .4092     6.0847
  776.9352     2.4648   353.1004    32.0000      .3335     9.3140
  777.0876     2.5449   353.3055    22.8750      .2334     9.6338
  777.2400     2.4922   353.5105    26.6250      .1787     5.6235
  777.3924     2.4023   390.4200    36.7188      .2271     3.5967
  777.5448     2.3145   404.3635    43.4688      .3198     2.8244
  777.6972     2.2930   399.4423    46.8438      .3857     3.0542
  777.8496     2.3223   397.8018    47.8125      .3945     3.4415
  778.0020     2.3691   410.9252    48.1562      .3691     3.4918
  778.1544     2.3652   418.3071    45.7812      .3623     3.1237
  778.3068     2.3164   426.5092    44.5000      .3799     2.7798
  778.4592     2.2715   423.2283    44.6562      .4097     2.7480
  778.6116     2.2812   399.4423    46.2812      .4600     2.9537
  778.7640     2.3027   381.3976    44.9375      .4551     3.6811
  778.9164     2.3574   365.8137    41.7812      .4341     4.5853
  779.0688     2.3926   369.0945    40.0938      .3525     4.6822
  779.2212     2.3906   384.6785    41.0938      .3237     4.0906
  779.3736     2.3535   401.9029    43.1562      .3164     3.3046
  779.5260     2.2910   403.5433    45.6562      .3311     2.8943
  779.6784     2.3008   387.1391    47.2812      .3706     2.8582
  779.8308     2.3359   347.7690    50.4688      .3896     3.4613
  779.9832     2.4258   345.9236    45.4688      .4136     4.7422
  780.1356     2.5078   344.0781    40.0938      .3345     6.7614
  780.2880     2.5371   342.2326    34.3438      .2725     8.2214
  780.4404     2.5078   340.3871    37.5000      .2280     6.1237
  780.5928     2.4570   378.9370    40.8750      .2437     4.2180
  780.7452     2.3828   406.0039    46.9375      .2754     3.1266
  780.8976     2.3457   411.7454    51.1875      .3364     2.8234
  781.0500     2.3125   401.0827    53.6875      .4180     3.0197
  781.2024     2.3379   400.2625    50.4062      .4395     3.4666
  781.3548     2.3496   406.0039    46.9688      .4136     3.6023
  781.5072     2.3438   432.2507    48.3750      .3599     3.3726
  781.6596     2.2793   457.6772    53.5000      .3496     2.7319
  781.8120     2.2305   470.8005    55.4688      .3857     2.3544
  781.9644     2.2129   483.1037    56.1250      .4146     2.1298
  782.1168     2.1992   488.0249    56.7812      .4321     1.9437
  782.2692     2.1895   488.8452    61.3125      .4336     1.9203
  782.4216     2.1699   456.8570    62.9375      .4473     1.9233
  782.5740     2.2090   397.8018    60.1875      .4702     2.4224
  782.7264     2.2656   393.9059    51.2812      .4922     3.8071
  782.8788     2.3887   390.0098    43.5938      .4414     5.8470
  783.0312     2.4453   386.1138    39.9062      .3369     6.8113
  783.1836     2.4258   382.2178    38.5938      .2529     4.3358
  783.3360     2.3008   424.0486    40.7500      .2798     2.6613
  783.4884     2.2168   456.0367    44.0312      .3657     2.0430
  783.6408     2.1660   452.7559    50.6562      .4097     1.9165
  783.7932     2.1777   458.4974    52.0625      .4424     2.0946
  783.9456     2.1699   460.9580    52.2500      .4302     2.0370
  784.0980     2.1797   451.9357    50.8125      .4712     2.1226
  784.2504     2.1895   448.6548    47.0938      .4663     2.1748
  784.4028     2.2148   453.5761    45.2188      .4727     2.1673
  784.5552     2.2246   460.1378    47.2188      .4170     2.0607
  784.7076     2.2012   460.3428    51.6562      .4053     1.8384
  784.8600     2.1699   460.5479    53.4688      .4360     1.6878
  785.0124     2.1270   460.7530    53.4062      .4985     1.5508
  785.1648     2.1133   460.9580    55.0938      .5083     1.6129
  785.3172     2.1426   435.5315    54.0000      .4907     1.7433
  785.4696     2.2305   390.8300    52.4062      .4932     2.2802
  785.6220     2.3184   350.2296    48.2500      .4639     3.2318
  785.7744     2.3926   328.0840    43.2188      .4116     4.4667
  785.9268     2.4219   318.2415    37.0625      .3242     5.1326
  786.0792     2.4355   306.3484    38.2500      .2886     5.3700
  786.2316     2.4590   286.2533    36.9688      .2783     6.6957
  786.3840     2.4668   262.4672    36.5000      .2710     8.2251
  786.5364     2.4707   251.8045    28.6719      .2461    10.5002
  786.6888     2.4375   247.2933    28.5469      .2124    12.9602
  786.8412     2.3945   247.7034    25.5312      .2095    12.7640
  786.9936     2.3730   251.8045    27.3281      .2183    11.8346
  787.1460     2.3613   248.5236    25.9688      .2388    11.8736
  787.2984     2.3926   245.2428    26.2188      .2246    12.3602
  787.4508     2.3926   240.3215    25.2031      .2178    13.1214
  787.6032     2.4121   231.7093    21.7188      .2007    15.4212
  787.7556     2.4141   237.0407    20.1406      .1987    18.5391
  787.9080     2.4648   241.1417    17.3750      .1841    20.1465
  788.0604     2.5039   264.1076    22.3750      .1685    16.2345
  788.2128     2.5410   316.6010    25.6406      .1553     8.9480
  788.3652     2.5000   372.7854    34.8125      .1660     4.2433
  788.5176     2.4180   365.4035    41.0938      .2207     2.7350
  788.6700     2.3223   358.0217    50.9688      .3130     1.9542
  788.8224     2.2812   350.6398    54.1562      .4204     1.8923
  788.9748     2.3105   359.1494    50.4062      .4678     2.7306
  789.1272     2.3984   367.6591    40.9375      .4092     4.6961
  789.2796     2.5000   376.1688    33.5625      .3101     4.4983
  789.4320     2.4980   384.6785    36.5938      .2344     2.8695
  789.5844     2.3906   392.8806    43.5000      .2573     1.9170
  789.7368     2.3008   401.0827    50.6562      .3594     1.6007
  789.8892     2.2637   409.2848    51.7812      .4277     1.7220
  790.0416     2.2891   417.4869    51.2188      .4644     2.1270
  790.1940     2.2988   411.7454    52.1562      .4102     2.2237
  790.3464     2.2852   394.5210    55.3125      .3867     2.1870
  790.4988     2.2871   363.3530    55.4688      .3960     2.4993
  790.6512     2.3359   354.5358    52.0938      .4072     3.1694
  790.8036     2.4219   359.6108    43.4375      .3687     4.2650
  790.9560     2.5156   364.6859    37.3750      .2759     6.6879
  791.1084     2.5371   369.7609    35.2188      .2114     5.6384
  791.2608     2.4980   374.8360    40.0938      .2065     3.7696
  791.4132     2.3809   418.3071    47.8750      .2510     2.6647
  791.5656     2.2773   445.3740    56.8750      .2944     2.0703
  791.7180     2.2109   442.0932    59.0625      .3677     1.8718
  791.8704     2.2051   440.4528    59.2500      .3970     2.0120
  792.0228     2.2188   443.7336    56.2188      .4155     2.0634
  792.1752     2.2266   450.2953    57.3125      .4106     2.1048
  792.3276     2.2031   455.2165    56.4062      .4067     2.1101
  792.4800     2.1660   458.4974    56.0625      .4214     2.0358
  792.6324     2.1504   460.1378    57.3438      .4209     1.9755
  792.7848     2.1445   437.1719    59.7500      .4448     1.9066
  792.9372     2.1543   383.8583    59.9375      .4414     2.1428
  793.0896     2.2070   321.5223    53.7500      .4580     3.0149
  793.2420     2.3242   327.6739    42.9688      .3662     5.2669
  793.3944     2.5039   333.8254    31.7656      .2666    11.0616
  793.5468     2.5723   339.9770    25.6562      .1479    10.0651
  793.6992     2.5352   346.1286    29.2344      .1362     5.6085
  793.8516     2.4062   406.8242    34.9688      .2002     3.1900
  794.0040     2.2656   447.8347    48.3438      .2739     2.1357
  794.1564     2.1719   473.2612    56.2812      .3643     1.8038
  794.3088     2.1445   474.0814    60.6250      .3789     1.6940
  794.4612     2.1562   471.6207    59.7500      .4038     1.6758
  794.6136     2.1777   470.8005    57.2812      .3887     1.7020
  794.7660     2.1836   469.1601    59.1562      .4409     1.7525
  794.9184     2.1953   466.6995    56.3125      .4443     1.7579
  795.0708     2.1973   463.4186    57.1562      .4810     1.7858
