~VERSION INFORMATION
VERS.                                                 2.0:   CWLS Log ASCII Standard-VERSION 2.0
WRAP.                                                  NO:   One line per depth step
~Well Information Block
STRT.M                                            14.3256:   Top Depth
STOP.M                                          1031.1384:   Bottom Depth
STEP.M                                             .15240:   Depth Increment
NULL.                                            -999.250:   Null Value
FLD .                                                NIMR:   Field Name
WELL.                                            NIMR-8H1:   NAME
LOC .                                         NIMR DQ-104:   AREA NAME
EDF .                                              214.46:   ELEV DRILL FLOOR
EPD .                                                   0:   ELEV PERM DATUM
EGL .                                              208.97:   GROUND LEVEL
COMP.                          Petroleum Development Oman:   OPERATOR
PDAT.                                                 MSL:   PERM DATUM
COUN.                                             RIG01_4:   RIG NAME
SPUD.                                          1982/03/03:   SPUD DATE
LATI.                                         18.69955655:   SURF. LATITUDE
LONG.                                         55.92375545:   SURF. LONGITUDE
UTME.                                           386515.66:   SURF. UTM E
UTMN.                                          2067747.29:   SURF. UTM N
CNTY.                                             RIG01_4:   COUNTY
~PARAMETER INFORMATION (log)
LNAM.                                              PUBLIC:   NAME
LTYP.                                              JOINED:   LOG TYPE
LSRV.                                            CLEAN UP:   SERVICE
LSOU.                                               FUGRO:   LOG SOURCE
LVSN.                                                   1:   LOG VERSION
BHIS.                                                   R:   BRIEF HISTORY
TDD .M                                            1032.97:   FINAL TD DRILLER
TDL .M                                            1032.66:   FINAL TD LOGGER
FHIS.                                             RAW-LAS:   FULL HISTORY
~Curve Information Block
#MNEM.UNIT                                        API CODE    No Description
#=========                                        ========    == ===========
DEPT.M                                       00 001 00 00:     1  DEPTH
DEN.G/C3                                                 :     2  Bulk Density
DT.US/M                                                  :     3  Acoustic log
GR.API                                                   :     4  Gamma Ray
NEU.V/V                                                  :     5  Neutron Porosity in Limestone Units
RES_DEP.OHMM                                             :     6  Resistivity Deep
~ASCII
# ...
  869.5944     2.4629   335.8760    30.8281      .3027     3.7320
  869.7468     2.4453   336.2861    28.9219      .2749     4.3322
  869.8992     2.4160   334.6457    31.8594      .2681     4.2126
  870.0516     2.3789   329.7244    32.0938      .3208     3.4446
  870.2040     2.4043   343.2579    33.5000      .3794     2.8273
  870.3564     2.4258   355.9711    34.0312      .4028     2.6563
  870.5088     2.4160   369.5046    38.0938      .3931     2.8062
  870.6612     2.4023   370.3248    38.8750      .3618     2.9725
  870.8136     2.3965   364.9934    37.9062      .3574     3.2751
  870.9660     2.4141   360.8924    39.9688      .3628     3.4613
  871.1184     2.4082   353.5105    39.0000      .3638     3.3415
  871.2708     2.3691   361.7126    42.5000      .3750     3.0259
  871.4232     2.3516   372.3753    44.7188      .3687     2.7639
  871.5756     2.3203   383.0381    47.9375      .3789     2.6852
  871.7280     2.2891   392.8806    50.5312      .3750     2.7168
  871.8804     2.2598   396.1614    48.7500      .3984     2.7627
  872.0328     2.2559   399.4423    52.3750      .3945     2.6914
  872.1852     2.2734   400.2625    52.0000      .4087     2.5468
  872.3376     2.2676   405.1837    54.4688      .4023     2.4983
  872.4900     2.2695   406.8242    54.5938      .4058     2.3654
  872.6424     2.2715   410.9252    59.0938      .3994     2.3859
  872.7948     2.2988   415.8465    54.9688      .4058     2.3483
  872.9472     2.3379   414.2060    52.9375      .4033     2.5136
  873.0996     2.3926   409.2848    43.1250      .4038     3.0420
  873.2520     2.4570   387.9593    39.5938      .3403     3.9591
  873.4044     2.5059   355.9711    33.7812      .2891     5.3444
  873.5568     2.5059   350.4347    32.6562      .2373     6.0740
  873.7092     2.4668   344.8983    33.2500      .2749     5.3477
  873.8616     2.4141   339.3619    38.1875      .3330     4.0254
  874.0140     2.3730   333.8255    45.9062      .3696     2.9831
  874.1664     2.3418   363.3530    51.1562      .3647     2.4906
  874.3188     2.3223   393.7008    56.6875      .3760     2.3435
  874.4712     2.2891   411.7454    54.1562      .3853     2.1778
  874.6236     2.2773   423.2283    54.2500      .4282     2.2256
  874.7760     2.2559   425.6890    51.6875      .4238     2.2342
  874.9284     2.2461   430.6102    52.0938      .4795     2.1348
  875.0808     2.2363   430.6102    49.3438      .4741     2.0324
  875.2332     2.2324   433.8911    51.5312      .5015     1.9879
  875.3856     2.2383   441.2730    55.5000      .4746     1.8542
  875.5380     2.2266   449.4751    57.8438      .4678     1.7906
  875.6904     2.2363   450.2953    59.1875      .4712     1.7908
  875.8428     2.2324   456.0367    57.7500      .4878     1.7660
  875.9952     2.2383   457.6772    59.5938      .5063     1.8594
  876.1476     2.2441   457.6772    54.9062      .4780     1.8270
  876.3000     2.2422   457.6772    52.8125      .4629     1.8736
  876.4524     2.2441   453.5761    50.0000      .4722     1.9121
  876.6048     2.2480   453.5761    51.9375      .4790     1.9660
  876.7572     2.2656   448.6548    52.2500      .4473     1.9727
  876.9096     2.2949   442.0932    53.7500      .4380     1.9921
  877.0620     2.3066   438.8123    48.2188      .4287     2.0329
  877.2144     2.3203   433.8911    48.3750      .4512     2.0571
  877.3668     2.3418   428.1496    45.9688      .4072     2.4761
  877.5192     2.4004   408.4646    45.6562      .3979     3.0685
  877.6716     2.4258   380.5774    39.7812      .3643     3.9153
  877.8240     2.4297   384.4734    36.6562      .3501     3.8814
  877.9764     2.3652   388.3694    38.6562      .3486     3.1853
  878.1288     2.3262   392.2654    42.1562      .3770     2.4241
  878.2812     2.2695   396.1614    46.2812      .4268     2.0344
  878.4336     2.2363   423.2283    46.0000      .4448     1.8386
  878.5860     2.2168   415.2313    47.9375      .4551     1.8465
  878.7384     2.2012   407.2343    48.0938      .4189     2.1729
  878.8908     2.2148   399.2372    47.6250      .3828     2.9317
  879.0432     2.2305   391.2401    43.0000      .3247     4.1414
  879.1956     2.2734   354.3307    38.5000      .2876     5.3697
  879.3480     2.2656   320.7021    36.3750      .2817     5.5648
  879.5004     2.2832   310.8596    35.6562      .2822     4.8431
  879.6528     2.2949   317.4213    39.9375      .3062     4.5118
  879.8052     2.3359   328.9042    45.1562      .3086     3.9620
  879.9576     2.3145   338.7467    53.3438      .3345     3.1661
  880.1100     2.2852   351.8701    56.6875      .3945     2.5879
  880.2624     2.2812   380.5774    56.0312      .4136     2.5485
  880.4148     2.3340   383.8583    55.6562      .3936     3.0359
  880.5672     2.3613   374.0157    53.1562      .3384     3.8410
  880.7196     2.3633   365.8137    57.7188      .3262     3.6283
  880.8720     2.3203   365.8137    57.4375      .3838     2.7882
  881.0244     2.3418   389.5997    63.7812      .4277     2.1921
  881.1768     2.3477   410.1050    63.7500      .4888     1.8626
  881.3292     2.3633   427.3294    65.4375      .5029     2.1391
  881.4816     2.3613   424.8688    56.9688      .4531     2.3682
  881.6340     2.3652   415.8465    55.9062      .4116     2.3527
  881.7864     2.3750   414.2060    53.8438      .3750     2.5241
  881.9388     2.3613   402.7231    56.7188      .3804     2.8807
  882.0912     2.3809   396.1614    56.0312      .3540     3.0436
  882.2436     2.3887   384.6785    55.0938      .3398     3.1632
  882.3960     2.3809   378.1168    58.9375      .3540     3.0989
  882.5484     2.3691   383.0381    57.0625      .3599     2.8496
  882.7008     2.3535   382.2178    57.5938      .3716     2.9137
  882.8532     2.3145   385.4987    53.4688      .3677     3.5404
  883.0056     2.2363   384.6785    51.4375      .3765     4.3614
  883.1580     2.1875   374.0157    49.7500      .3672     4.6220
  883.3104     2.1797   378.1168    49.4375      .3604     4.5327
  883.4628     2.1953   383.0381    50.2188      .3516     4.2718
  883.6152     2.2129   384.6785    49.9375      .3574     4.4215
  883.7676     2.2070   381.3976    46.6250      .3521     4.2601
  883.9200     2.1836   379.7572    45.9062      .3662     4.3073
  884.0724     2.1641   378.9370    46.9062      .3643     4.2447
  884.2248     2.1523   379.7572    49.7812      .3804     3.9923
  884.3772     2.1426   391.2401    50.5312      .3594     4.0418
  884.5296     2.1191   395.3412    50.0938      .3599     4.0274
  884.6820     2.0977   396.9816    48.3750      .3721     3.9585
  884.8344     2.0996   396.9816    51.1562      .3887     3.8860
  884.9868     2.1348   398.6220    49.7188      .4009     4.7455
  885.1392     2.2070   388.7795    47.6875      .3618     5.7944
  885.2916     2.2949   362.5328    42.8125      .3086     7.1485
  885.4440     2.3145   337.1063    42.1562      .2661     7.8282
  885.5964     2.3008   325.6234    46.0938      .2607     7.1730
  885.7488     2.2910   326.4436    54.8750      .3022     5.5885
  885.9012     2.3047   344.4882    60.5312      .3208     4.2947
  886.0536     2.3066   360.0722    66.0000      .3423     3.8565
  886.2060     2.3086   370.7349    64.8750      .3579     3.3414
  886.3584     2.3066   378.9370    71.0625      .3491     3.0691
  886.5108     2.3125   386.3189    73.5625      .3872     2.8909
  886.6632     2.3047   393.7008    74.1875      .4219     2.4697
  886.8156     2.2988   407.6443    69.8750      .4932     2.3437
  886.9680     2.3008   414.2060    66.0000      .4614     2.4500
  887.1204     2.3047   412.5656    64.3750      .4126     2.6942
  887.2728     2.2969   410.9252    65.5625      .3652     2.7695
  887.4252     2.2988   401.0827    70.3750      .3647     2.9186
  887.5776     2.2949   395.3412    74.5625      .3867     2.5324
  887.7300     2.2988   404.3635    75.2500      .3867     2.3507
  887.8824     2.2930   414.2060    75.4375      .4087     2.2372
  888.0348     2.2891   423.2283    72.3125      .4355     1.9577
