~VERSION INFORMATION
VERS.                                                 2.0:   CWLS Log ASCII Standard-VERSION 2.0
WRAP.                                                  NO:   One line per depth step
~Well Information Block
STRT.M                                            14.3256:   Top Depth
STOP.M                                          1031.1384:   Bottom Depth
STEP.M                                             .15240:   Depth Increment
NULL.                                            -999.250:   Null Value
FLD .                                                NIMR:   Field Name
WELL.                                            NIMR-8H1:   NAME
LOC .                                         NIMR DQ-104:   AREA NAME
EDF .                                              214.46:   ELEV DRILL FLOOR
EPD .                                                   0:   ELEV PERM DATUM
EGL .                                              208.97:   GROUND LEVEL
COMP.                          Petroleum Development Oman:   OPERATOR
PDAT.                                                 MSL:   PERM DATUM
COUN.                                             RIG01_4:   RIG NAME
SPUD.                                          1982/03/03:   SPUD DATE
LATI.                                         18.69955655:   SURF. LATITUDE
LONG.                                         55.92375545:   SURF. LONGITUDE
UTME.                                           386515.66:   SURF. UTM E
UTMN.                                          2067747.29:   SURF. UTM N
CNTY.                                             RIG01_4:   COUNTY
~PARAMETER INFORMATION (log)
LNAM.                                              PUBLIC:   NAME
LTYP.                                              JOINED:   LOG TYPE
LSRV.                                            CLEAN UP:   SERVICE
LSOU.                                               FUGRO:   LOG SOURCE
LVSN.                                                   1:   LOG VERSION
BHIS.                                                   R:   BRIEF HISTORY
TDD .M                                            1032.97:   FINAL TD DRILLER
TDL .M                                            1032.66:   FINAL TD LOGGER
FHIS.                                             RAW-LAS:   FULL HISTORY
~Curve Information Block
#MNEM.UNIT                                        API CODE    No Description
#=========                                        ========    == ===========
DEPT.M                                       00 001 00 00:     1  DEPTH
DEN.G/C3                                                 :     2  Bulk Density
DT.US/M                                                  :     3  Acoustic log
GR.API                                                   :     4  Gamma Ray
NEU.V/V                                                  :     5  Neutron Porosity in Limestone Units
RES_DEP.OHMM                                             :     6  Resistivity Deep
~ASCII
# ...
  906.7800     2.1406   384.6785    67.1250      .3320    97.9570
  906.9324     2.1094   378.9370    68.3125      .3281    80.3010
  907.0848     2.1055   382.2178    74.3750      .3257    25.7131
  907.2372     2.1348   387.1391    90.9375      .3218     9.7208
  907.3896     2.2168   391.2401   106.0625      .3257     4.5831
  907.5420     2.2520   398.6220   119.6875      .3525     3.0018
  907.6944     2.2637   409.2848   118.8125      .4067     2.7371
  907.8468     2.2109   409.2848   117.1250      .4224     2.9775
  907.9992     2.2188   415.8465   106.1250      .4121     3.2026
  908.1516     2.2383   413.3858    99.7500      .3936     3.5223
  908.3040     2.2598   413.3858    96.0000      .3955     3.5963
  908.4564     2.2656   415.0262    98.3125      .3799     3.3661
  908.6088     2.2480   411.7454    99.2500      .3960     3.2808
  908.7612     2.2520   413.3858    98.0000      .4058     3.2910
  908.9136     2.2402   417.4869    97.0625      .4209     3.2877
  909.0660     2.2383   417.4869    92.8750      .4004     3.2837
  909.2184     2.2402   415.0262    90.8750      .4028     3.8277
  909.3708     2.2480   413.3858    84.5625      .4033     4.5625
  909.5232     2.2715   407.6443    75.4375      .3955     6.9262
  909.6756     2.3164   391.2401    68.8125      .3457     9.9924
  909.8280     2.2793   370.7349    66.1875      .2939    10.3134
  909.9804     2.2344   362.5328    71.8125      .2788     9.4911
  910.1328     2.1797   363.3530    78.8125      .3037     8.5028
  910.2852     2.1777   373.1955    84.4375      .3403     8.1873
  910.4376     2.1582   387.9593    86.0000      .3359     9.1765
  910.5900     2.1660   392.0604    85.2500      .3242     8.9990
  910.7424     2.1836   401.9029    83.6875      .3130     6.7698
  910.8948     2.2422   392.8806    86.0000      .3394     5.6785
  911.0472     2.2910   403.5433    86.8125      .3496     5.3149
  911.1996     2.2949   407.6443    86.8750      .3589     5.6769
  911.3520     2.2500   406.0039    83.0625      .3516     7.5905
  911.5044     2.1758   407.6443    84.5000      .3501     9.9890
  911.6568     2.1387   405.1837    87.5625      .3652    10.7912
  911.8092     2.1387   406.0039    93.1875      .3770    10.0218
  911.9616     2.1621   409.2848    90.3750      .3833     8.4936
  912.1140     2.1758   409.2848    90.1875      .3770     7.1024
  912.2664     2.1895   408.4646    93.8125      .3906     6.2532
  912.4188     2.2168   408.4646   100.6250      .3872     5.5286
  912.5712     2.2227   412.5656    98.2500      .3921     4.9899
  912.7236     2.2266   414.2060    96.4375      .3867     4.6156
  912.8760     2.2266   415.8465    94.9375      .3999     4.3000
  913.0284     2.2266   417.4869    96.3125      .4219     4.4066
  913.1808     2.2246   422.4081    94.0625      .4395     4.4456
  913.3332     2.2285   421.5879    88.3125      .4438     4.3699
  913.4856     2.2363   419.9475    87.5625      .4297     4.2598
  913.6380     2.2441   421.5879    87.0625      .4336     4.0617
  913.7904     2.2402   417.4869    88.1875      .4365     4.5939
  913.9428     2.2578   412.5656    85.7500      .4351     4.7536
  914.0952     2.2637   401.9029    80.0000      .4146     4.6418
  914.2476     2.2617   398.6220    77.8125      .4214     4.5055
  914.4000     2.2422   393.7008    77.5000      .4390     4.2220
  914.5524     2.2422   397.8018    77.1875      .4287     4.2055
  914.7048     2.2422   403.5433    73.4375      .4014     4.6041
  914.8572     2.2285   401.9029    71.7500      .3579     5.4017
  915.0096     2.1992   405.1837    70.1250      .3462     6.1337
  915.1620     2.1738   407.6443    77.1250      .3350     5.5600
  915.3144     2.1797   416.6667    84.5625      .3809     4.5206
  915.4668     2.1875   435.5315    99.0000      .4282     3.8879
  915.6192     2.1855   443.7336    98.5625      .4736     3.6929
  915.7716     2.1777   442.9134    90.5625      .4648     3.5102
  915.9240     2.1777   427.3294    73.2500      .4175     3.7319
  916.0764     2.1855   401.0827    65.8125      .3784     4.6364
  916.2288     2.2168   386.3189    68.3750      .3511     4.9534
  916.3812     2.2246   382.2178    78.2500      .3657     5.8451
  916.5336     2.2266   390.4200    89.6250      .3882     6.9531
  916.6860     2.2090   402.7231    97.0625      .4180     6.6394
  916.8384     2.2031   408.4646   101.7500      .4292     7.0096
  916.9908     2.1797   410.9252   100.4375      .4321     7.6055
  917.1432     2.1660   407.6443    97.3750      .4111     7.8502
  917.2956     2.1777   406.8242    96.5625      .4312     7.0266
  917.4480     2.1934   410.9252    96.8750      .4292     6.3903
  917.6004     2.1992   415.8465    95.0000      .4351     6.2171
  917.7528     2.2012   415.0262    89.6250      .4062     6.3022
  917.9052     2.2031   415.8465    89.3750      .4004     6.4949
  918.0576     2.2109   413.3858    90.5625      .4009     6.6265
  918.2100     2.2188   405.1837    95.7500      .4126     6.3615
  918.3624     2.2246   409.2848    94.5625      .4180     6.3203
  918.5148     2.2344   410.1050    92.8750      .4312     6.5522
  918.6672     2.2324   407.6443    89.8125      .4272     6.5718
  918.8196     2.2305   406.0039    88.3125      .4326     6.6901
  918.9720     2.2285   402.3130    86.6875      .4111     6.6416
  919.1244     2.2422   396.9816    88.1250      .4072     6.6521
  919.2768     2.2773   386.3189    95.0625      .3799     7.0737
  919.4292     2.2969   370.7349   104.7500      .3867     7.3147
  919.5816     2.2852   358.4318   111.1875      .3818     7.4259
  919.7340     2.2637   351.8701   110.9375      .3945     7.4947
  919.8864     2.2402   351.0499   110.2500      .3867     7.2172
  920.0388     2.2402   368.2743   105.9375      .4033     6.9303
  920.1912     2.2422   383.4482   103.9375      .3862     6.7543
  920.3436     2.2676   385.4987   102.5625      .3872     6.4633
  920.4960     2.2559   387.5492   103.1250      .3872     6.4736
  920.6484     2.2500   387.5492   100.6875      .4185     6.5035
  920.8008     2.2383   379.7572    92.3125      .4062     6.4986
  920.9532     2.2402   379.3471    92.7500      .3984     6.0889
  921.1056     2.2422   374.4258    93.8125      .3848     5.6176
  921.2580     2.2383   375.6562    97.0000      .4185     5.5944
  921.4104     2.2422   377.2966    91.6250      .4058     5.8975
  921.5628     2.2422   369.5046    84.1250      .4058     6.6151
  921.7152     2.2422   362.1227    81.7500      .3892     7.1954
  921.8676     2.2246   357.2014    73.6875      .3784     7.7845
  922.0200     2.1816   353.9206    68.0625      .3604     8.5865
  922.1724     2.1797   358.8419    61.6562      .3521     9.1761
  922.3248     2.1855   360.8924    66.1875      .3521    10.1271
  922.4772     2.2363   352.6903    72.6875      .3667    10.3342
  922.6296     2.2812   342.0276    73.6875      .3550    10.9924
  922.7820     2.3340   324.3930    71.0625      .3267    12.2315
  922.9344     2.3613   308.3990    66.8750      .2803    13.1619
  923.0868     2.3438   292.4048    65.6875      .2642    13.5455
  923.2392     2.2793   294.4554    69.0000      .2808    12.5715
  923.3916     2.2207   304.2979    68.6875      .3188    11.9815
  923.5440     2.2148   322.7526    74.3125      .3193    11.2910
  923.6964     2.2500   333.0052    74.9375      .3071     9.5960
  923.8488     2.3066   341.6175    85.2500      .2910     7.8775
  924.0012     2.3164   346.5387    97.1875      .3271     6.0975
  924.1536     2.3164   352.6903   110.1250      .3457     5.3936
  924.3060     2.3398   360.8924   113.2500      .3789     5.2612
  924.4584     2.3750   365.4035   106.7500      .3931     5.2434
  924.6108     2.3672   365.4035   104.6875      .3911     5.4708
  924.7632     2.3203   369.9147   110.8750      .3706     5.1422
  924.9156     2.2930   373.6057   121.2500      .3511     4.9784
  925.0680     2.3008   380.9875   116.4375      .3721     5.1508
  925.2204     2.3203   382.2178   115.1875      .3594     5.0720
