~VERSION INFORMATION
VERS.                                                 2.0:   CWLS Log ASCII Standard-VERSION 2.0
WRAP.                                                  NO:   One line per depth step
~Well Information Block
STRT.M                                            14.3256:   Top Depth
STOP.M                                          1031.1384:   Bottom Depth
STEP.M                                             .15240:   Depth Increment
NULL.                                            -999.250:   Null Value
FLD .                                                NIMR:   Field Name
WELL.                                            NIMR-8H1:   NAME
LOC .                                         NIMR DQ-104:   AREA NAME
EDF .                                              214.46:   ELEV DRILL FLOOR
EPD .                                                   0:   ELEV PERM DATUM
EGL .                                              208.97:   GROUND LEVEL
COMP.                          Petroleum Development Oman:   OPERATOR
PDAT.                                                 MSL:   PERM DATUM
COUN.                                             RIG01_4:   RIG NAME
SPUD.                                          1982/03/03:   SPUD DATE
LATI.                                         18.69955655:   SURF. LATITUDE
LONG.                                         55.92375545:   SURF. LONGITUDE
UTME.                                           386515.66:   SURF. UTM E
UTMN.                                          2067747.29:   SURF. UTM N
CNTY.                                             RIG01_4:   COUNTY
~PARAMETER INFORMATION (log)
LNAM.                                              PUBLIC:   NAME
LTYP.                                              JOINED:   LOG TYPE
LSRV.                                            CLEAN UP:   SERVICE
LSOU.                                               FUGRO:   LOG SOURCE
LVSN.                                                   1:   LOG VERSION
BHIS.                                                   R:   BRIEF HISTORY
TDD .M                                            1032.97:   FINAL TD DRILLER
TDL .M                                            1032.66:   FINAL TD LOGGER
FHIS.                                             RAW-LAS:   FULL HISTORY
~Curve Information Block
#MNEM.UNIT                                        API CODE    No Description
#=========                                        ========    == ===========
DEPT.M                                       00 001 00 00:     1  DEPTH
DEN.G/C3                                                 :     2  Bulk Density
DT.US/M                                                  :     3  Acoustic log
GR.API                                                   :     4  Gamma Ray
NEU.V/V                                                  :     5  Neutron Porosity in Limestone Units
RES_DEP.OHMM                                             :     6  Resistivity Deep
~ASCII
# ...
  795.2232     2.2012   462.5984    59.0625      .4429     1.7587
  795.3756     2.1953   443.7336    57.3125      .4580     1.7567
  795.5280     2.1875   403.9534    58.6250      .4443     2.0214
  795.6804     2.2129   355.1509    51.3125      .4507     2.7072
  795.8328     2.2676   300.1968    48.4062      .4204     4.0777
  795.9852     2.3340   255.9055    39.0625      .3447     7.5093
  796.1376     2.3906   237.8609    33.4062      .2676    12.1533
  796.2900     2.4180   231.2992    27.6875      .1934    18.2531
  796.4424     2.4531   226.3780    24.7031      .1699    19.3294
  796.5948     2.4805   235.4003    24.9219      .1689    18.3554
  796.7472     2.5117   271.4895    24.7500      .1768    13.2627
  796.8996     2.5098   330.5446    29.5312      .1831     7.2020
  797.0520     2.4668   388.7795    37.0625      .2139     4.0712
  797.2044     2.3535   437.9921    46.2812      .2842     2.6264
  797.3568     2.2910   461.7782    54.9062      .3540     2.0142
  797.5092     2.2520   460.9580    55.7188      .4048     1.9657
  797.6616     2.2676   460.9580    55.7500      .4482     2.0964
  797.8140     2.2656   461.7782    50.9688      .4780     2.2029
  797.9664     2.2539   466.6995    50.3438      .5083     2.1448
  798.1188     2.2344   476.5420    51.8125      .4746     1.9691
  798.2712     2.2129   478.1824    52.9375      .4941     1.8637
  798.4236     2.2031   482.6936    56.8438      .4775     1.7842
  798.5760     2.1699   479.8228    59.6250      .4912     1.7819
  798.7284     2.1660   478.1824    62.1875      .4785     1.8347
  798.8808     2.1855   471.6207    61.4688      .4526     1.8429
  799.0332     2.1855   471.6207    58.8750      .4668     1.7925
  799.1856     2.1875   473.2612    58.0312      .4502     1.7997
  799.3380     2.1523   473.2612    56.8438      .4653     1.7175
  799.4904     2.1582   472.4409    60.6250      .4551     1.6464
  799.6428     2.1680   474.0814    57.5312      .4966     1.6661
  799.7952     2.1660   474.0814    56.9688      .4795     1.6099
  799.9476     2.1797   474.0814    54.8125      .4702     1.5805
  800.1000     2.1660   470.8005    58.7812      .4658     1.5979
  800.2524     2.1758   458.4974    60.5000      .5107     1.5957
  800.4048     2.1738   440.4528    60.9062      .5273     1.8338
  800.5572     2.1758   443.7336    60.0000      .4893     1.9890
  800.7096     2.1777   440.4528    58.6875      .4614     2.0427
  800.8620     2.1641   451.1155    61.0000      .4673     1.9967
  801.0144     2.1523   473.2612    62.6250      .4478     1.9315
  801.1668     2.1426   477.3622    61.6562      .4482     1.7681
  801.3192     2.1777   473.6713    58.2188      .4600     1.8092
  801.4716     2.1660   480.6430    55.4062      .4932     1.7766
  801.6240     2.1523   467.9298    56.2812      .5239     1.7572
  801.7764     2.1426   438.8123    52.8750      .4990     1.8345
  801.9288     2.1758   388.7795    50.2812      .5063     2.1458
  802.0812     2.2637   390.8301    46.9688      .4785     3.0401
  802.2336     2.3320   392.8806    40.7812      .4243     5.1681
  802.3860     2.4336   394.9311    40.4375      .3345     6.4737
  802.5384     2.3867   396.9816    46.9688      .2803     4.6216
  802.6908     2.2891   391.8553    57.2188      .2803     2.6750
  802.8432     2.1543   386.7290    64.2500      .3823     2.1271
  802.9956     2.1309   381.6027    64.0000      .4609     2.2422
  803.1480     2.1660   376.4764    62.5625      .4761     2.8692
  803.3004     2.2637   313.7303    58.6562      .3994     3.9376
  803.4528     2.3145   293.6352    55.9688      .3340     6.1245
  803.6052     2.3496   272.3097    54.0312      .2964     7.4406
  803.7576     2.4102   246.4731    48.3750      .2725    10.4513
  803.9100     2.4512   244.4226    41.2500      .2114    13.9505
  804.0624     2.4414   233.7598    39.4375      .1904    14.7282
  804.2148     2.4199   232.1194    37.1250      .1831    15.1720
  804.3672     2.4121   243.6024    34.6562      .1938    15.4075
  804.5196     2.4141   247.2933    29.5312      .1880    15.9745
  804.6720     2.3984   255.9055    30.7656      .1875    16.0677
  804.8244     2.4434   253.0348    35.2188      .1821    15.7809
  804.9768     2.4609   248.5236    37.3750      .1797    15.8119
  805.1292     2.5020   243.1923    37.0312      .1792    15.9584
  805.2816     2.4785   231.7093    35.1250      .1860    16.3652
  805.4340     2.4805   232.5295    34.3750      .1851    16.6482
  805.5864     2.4570   230.4790    32.3750      .1777    17.2157
  805.7388     2.4492   234.9902    32.1250      .1807    16.8279
  805.8912     2.4395   239.0912    31.7031      .1758    16.8185
  806.0436     2.4375   233.3497    31.5938      .1782    17.4135
  806.1960     2.4570   241.9619    30.0312      .1616    18.2901
  806.3484     2.4824   250.1640    29.8438      .1650    16.8577
  806.5008     2.5137   267.7986    30.5000      .1641    12.4909
  806.6532     2.5078   289.1240    34.9062      .1641     8.9292
  806.8056     2.4805   301.0171    36.8750      .1797     6.9408
  806.9580     2.4785   297.7362    39.8125      .2065     6.2102
  807.1104     2.4688   285.8432    36.6562      .2275     6.8687
  807.2628     2.4590   271.8996    34.7812      .2295     8.2935
  807.4152     2.4551   251.3944    32.8438      .2041    10.0355
  807.5676     2.4766   243.6024    31.4531      .1860    13.0613
  807.7200     2.4961   235.8104    33.5000      .1670    15.0405
  807.8724     2.5020   223.0971    34.8438      .1606    17.4931
  808.0248     2.5117   225.9678    37.3438      .1494    19.1254
  808.1772     2.4980   227.6083    34.6562      .1343    18.2856
  808.3296     2.4668   229.2487    32.9688      .1357    17.5975
  808.4820     2.4238   233.7598    31.6719      .1470    17.7928
  808.6344     2.4297   232.9396    32.7188      .1514    18.6318
  808.7868     2.4434   238.6811    31.9844      .1465    17.0357
  808.9392     2.4375   245.2428    31.0312      .1406    14.4697
  809.0916     2.3867   253.0348    31.3281      .1807    12.4262
  809.2440     2.3281   257.9560    32.0000      .1885    11.3041
  809.3964     2.3398   255.0853    33.5938      .2114    11.3302
  809.5488     2.3594   249.7539    34.5312      .2256    12.3566
  809.7012     2.4043   243.6024    35.4062      .2393    13.7047
  809.8536     2.3828   237.4508    35.4375      .2271    15.3639
  810.0060     2.3965   231.7093    33.4062      .1992    17.2087
  810.1584     2.4160   232.9396    34.3125      .1758    18.5069
  810.3108     2.4375   230.0689    36.7812      .1660    19.1915
  810.4632     2.4434   232.1194    40.7500      .1655    19.5632
  810.6156     2.4316   232.9396    40.4375      .1558    19.9018
  810.7680     2.4160   222.6870    39.0625      .1450    20.3477
  810.9204     2.3906   225.5577    35.0000      .1323    20.3708
  811.0728     2.3789   223.5072    35.6562      .1348    20.6952
  811.2252     2.3809   223.0971    33.3438      .1431    20.4527
  811.3776     2.4062   224.7375    35.1250      .1562    20.7650
  811.5300     2.4082   223.0971    35.0938      .1621    21.5454
  811.6824     2.4121   223.0971    35.9062      .1523    22.3398
  811.8348     2.3887   221.8668    35.8750      .1675    22.4641
  811.9872     2.3789   223.5072    36.3125      .1680    22.7306
  812.1396     2.3789   226.3780    36.1875      .1514    22.4027
  812.2920     2.3555   225.1476    35.0000      .1406    20.9272
  812.4444     2.3203   228.4285    37.8125      .1504    19.8327
  812.5968     2.2441   228.8386    42.6562      .1694    18.5695
  812.7492     2.1992   232.5295    45.9688      .1885    17.4492
  812.9016     2.1699   238.2710    42.7188      .1890    16.0855
  813.0540     2.1758   243.6024    41.1875      .1914    14.7212
  813.2064     2.1992   241.9619    40.5938      .2036    13.2626
  813.3588     2.2852   238.6811    39.7500      .2441    12.3039
  813.5112     2.3301   235.4003    35.6875      .2598    12.6036
  813.6636     2.3867   231.2992    31.6094      .2891    14.0278
