~VERSION INFORMATION
VERS.                                                 2.0:   CWLS Log ASCII Standard-VERSION 2.0
WRAP.                                                  NO:   One line per depth step
~Well Information Block
STRT.M                                            14.3256:   Top Depth
STOP.M                                          1031.1384:   Bottom Depth
STEP.M                                             .15240:   Depth Increment
NULL.                                            -999.250:   Null Value
FLD .                                                NIMR:   Field Name
WELL.                                            NIMR-8H1:   NAME
LOC .                                         NIMR DQ-104:   AREA NAME
EDF .                                              214.46:   ELEV DRILL FLOOR
EPD .                                                   0:   ELEV PERM DATUM
EGL .                                              208.97:   GROUND LEVEL
COMP.                          Petroleum Development Oman:   OPERATOR
PDAT.                                                 MSL:   PERM DATUM
COUN.                                             RIG01_4:   RIG NAME
SPUD.                                          1982/03/03:   SPUD DATE
LATI.                                         18.69955655:   SURF. LATITUDE
LONG.                                         55.92375545:   SURF. LONGITUDE
UTME.                                           386515.66:   SURF. UTM E
UTMN.                                          2067747.29:   SURF. UTM N
CNTY.                                             RIG01_4:   COUNTY
~PARAMETER INFORMATION (log)
LNAM.                                              PUBLIC:   NAME
LTYP.                                              JOINED:   LOG TYPE
LSRV.                                            CLEAN UP:   SERVICE
LSOU.                                               FUGRO:   LOG SOURCE
LVSN.                                                   1:   LOG VERSION
BHIS.                                                   R:   BRIEF HISTORY
TDD .M                                            1032.97:   FINAL TD DRILLER
TDL .M                                            1032.66:   FINAL TD LOGGER
FHIS.                                             RAW-LAS:   FULL HISTORY
~Curve Information Block
#MNEM.UNIT                                        API CODE    No Description
#=========                                        ========    == ===========
DEPT.M                                       00 001 00 00:     1  DEPTH
DEN.G/C3                                                 :     2  Bulk Density
DT.US/M                                                  :     3  Acoustic log
GR.API                                                   :     4  Gamma Ray
NEU.V/V                                                  :     5  Neutron Porosity in Limestone Units
RES_DEP.OHMM                                             :     6  Resistivity Deep
~ASCII
# ...
  962.5584     2.3809   345.3084    90.6875      .3198     6.7866
  962.7108     2.3887   326.4436    83.9375      .2725     7.4337
  962.8632     2.3809   314.5505    83.1875      .2705     7.1622
  963.0156     2.3652   316.1909    87.6250      .2925     6.7759
  963.1680     2.3242   323.9829    91.1875      .2974     7.1189
  963.3204     2.3203   336.2861    89.0000      .2773     7.8305
  963.4728     2.3242   335.4659    84.9375      .2563     8.6003
  963.6252     2.3457   329.3143    81.2500      .2617     8.4870
  963.7776     2.3711   317.8314    81.7500      .2715     8.0785
  963.9300     2.3984   310.4495    80.7500      .2788     8.3797
  964.0824     2.4043   305.5282    80.4375      .2676     8.7681
  964.2348     2.4004   293.6352    80.7500      .2529     9.3583
  964.3872     2.3809   293.2251    77.1250      .2373     9.9811
  964.5396     2.3809   291.9948    77.3750      .2280     9.8248
  964.6920     2.3828   287.4836    71.0625      .2251     9.7454
  964.8444     2.3926   282.9724    74.4375      .2222     9.7455
  964.9968     2.4004   279.2815    70.0625      .2319     9.7437
  965.1492     2.4141   281.3320    73.0625      .2373     9.7060
  965.3016     2.4121   278.8714    73.0625      .2402     9.6158
  965.4540     2.3984   282.5623    74.8750      .2363     9.6036
  965.6064     2.4102   289.1240    78.5625      .2319     9.6017
  965.7588     2.4258   288.7139    79.8750      .2300     9.5477
  965.9112     2.4238   287.4836    81.9375      .2324     9.6461
  966.0636     2.4238   289.9442    77.8125      .2407     9.6395
  966.2160     2.4258   283.7927    78.3125      .2490     9.6397
  966.3684     2.4238   287.8937    74.9375      .2378     9.5545
  966.5208     2.4023   289.9442    77.9375      .2129     9.5001
  966.6732     2.4062   285.8432    77.6875      .2051     9.5526
  966.8256     2.4297   286.2533    77.5625      .2070     9.5190
  966.9780     2.4355   283.3825    73.8750      .2388     9.5898
  967.1304     2.4141   287.0735    71.8125      .2344     9.7137
  967.2828     2.4180   284.2028    72.3125      .2417     9.8321
  967.4352     2.4238   283.7927    74.5625      .2222     9.8490
  967.5876     2.4395   282.5623    73.6250      .2222     9.7442
  967.7400     2.4316   278.0512    74.8750      .2148     9.6864
  967.8924     2.4414   278.8714    75.2500      .2085     9.7570
  968.0448     2.4297   280.1017    78.1250      .2178     9.7951
  968.1972     2.4238   279.2815    79.5000      .2129     9.9945
  968.3496     2.4160   283.7927    76.6875      .2280    10.1841
  968.5020     2.4316   280.1017    75.9375      .2241    10.2572
  968.6544     2.4238   277.2310    72.8125      .2295    10.2116
  968.8068     2.4082   277.6411    76.3750      .2192    10.1795
  968.9592     2.3984   275.1805    79.6250      .2163    10.1450
  969.1116     2.4062   278.8714    80.0000      .2153     9.9073
  969.2640     2.3984   281.7421    76.5000      .2188     9.6531
  969.4164     2.3828   284.2028    72.7500      .2207     9.5045
  969.5688     2.3691   286.2533    74.5625      .2368     9.4458
  969.7212     2.3906   285.8432    76.3125      .2358     9.4395
  969.8736     2.4102   285.4331    79.3125      .2290     9.5201
  970.0260     2.4180   286.6634    80.8750      .2134     9.4267
  970.1784     2.4004   287.4836    81.4375      .2148     9.5143
  970.3308     2.4004   285.8432    75.1250      .2217     9.7605
  970.4832     2.4238   285.4331    76.3125      .2310     9.7775
  970.6356     2.4141   282.5623    76.1875      .2324     9.6932
  970.7880     2.4238   281.3320    81.1250      .2476     9.3742
  970.9404     2.4082   280.9219    80.8750      .2383     8.9710
  971.0928     2.4219   282.1522    79.1875      .2476     8.7784
  971.2452     2.4160   287.8937    80.5625      .2393     8.7730
  971.3976     2.4043   289.1240    83.0000      .2534     8.9828
  971.5500     2.4082   283.7927    84.0000      .2490     9.4019
  971.7024     2.3945   280.1017    82.6250      .2422     9.4366
  971.8548     2.4043   275.5905    82.1875      .2407     8.9588
  972.0072     2.3770   277.6411    86.3750      .2461     8.1734
  972.1596     2.3574   281.3320    90.0625      .2627     8.0825
  972.3120     2.3535   283.3825    90.1250      .2612     8.1662
  972.4644     2.3789   289.5341    86.6875      .2476     8.7241
  972.6168     2.3809   289.9442    83.9375      .2280     9.6870
  972.7692     2.4004   292.4048    81.0000      .2271     9.5009
  972.9216     2.3906   294.0453    81.1875      .2427     7.8747
  973.0740     2.4102   303.0676    87.3750      .2715     7.0304
  973.2264     2.3613   316.1909    91.0000      .2993     6.6056
  973.3788     2.3730   324.3930    91.1250      .2998     6.7268
  973.5312     2.3594   321.5223    78.6875      .3003     8.0211
  973.6836     2.3848   307.1686    67.7500      .2651     9.7810
  973.8360     2.3984   290.3543    61.6875      .2500    11.4576
  973.9884     2.4199   271.4895    60.2500      .2231    12.0715
  974.1408     2.4102   257.9560    60.5625      .2134    10.9023
  974.2932     2.3867   255.4954    62.7500      .2056    10.7945
  974.4456     2.3887   258.3661    65.6875      .1992    10.4924
  974.5980     2.4102   264.9278    66.7500      .2026    10.6084
  974.7504     2.4395   266.1581    68.8750      .2007    11.8417
  974.9028     2.4375   266.5682    69.4375      .1909    12.7056
  975.0552     2.4473   261.6470    74.3750      .1743    12.9321
  975.2076     2.4160   260.8268    70.7500      .1709    11.7405
  975.3600     2.3926   269.0289    71.8125      .1885    11.9653
  975.5124     2.4141   266.1581    69.4375      .2061    13.1254
  975.6648     2.4453   265.3379    76.4375      .2002    13.1982
  975.8172     2.4727   260.4167    76.6250      .1772    13.5482
  975.9696     2.4297   261.6470    78.8125      .1626    12.8563
  976.1220     2.4199   257.9560    76.0625      .1768    11.6837
  976.2744     2.4531   269.0289    76.1875      .1934    11.4792
  976.4268     2.4707   266.9783    73.9375      .1997    12.2828
  976.5792     2.4941   254.6752    71.6250      .1943    13.1371
  976.7316     2.4648   254.2651    71.5625      .1821    13.7777
  976.8840     2.4707   248.5236    73.8125      .1768    14.3780
  977.0364     2.4883   250.5741    79.8125      .1680    14.2774
  977.1888     2.5137   253.4449    80.7500      .1753    14.2163
  977.3412     2.4902   251.8045    76.6250      .1699    14.0879
  977.4936     2.4648   254.6752    74.8125      .1812    13.6597
  977.6460     2.4629   256.3156    74.9375      .1831    13.1737
  977.7984     2.4844   262.0571    78.5000      .1958    12.5288
  977.9508     2.4824   266.9783    73.6250      .1914    11.8943
  978.1032     2.4531   269.8491    72.6250      .1963    11.2512
  978.2556     2.4219   274.7704    75.7500      .1895    10.3979
  978.4080     2.4512   255.0853    79.3125      .2007    11.4316
  978.5604     2.4668   245.2428    80.8125      .1978    14.1855
  978.7128     2.4941   251.3944    78.0625      .1826    15.1076
  978.8652     2.4590   257.5459    74.5625      .1650    15.5583
  979.0176     2.4590   286.2533    68.7500      .1685    13.4475
  979.1700     2.4297   287.0735    66.3125      .1880    11.2512
  979.3224     2.4199   282.5623    66.1250      .1973    11.4280
  979.4748     2.4043   282.9724    70.2500      .1890    11.4358
  979.6272     2.3984   302.6575    74.1875      .1938     8.7455
  979.7796     2.3711   316.1909    82.6875      .2090     6.8324
  979.9320     2.3516   325.6234    84.6250      .2617     5.7198
  980.0844     2.3184   328.9042    85.3125      .3003     5.2848
  980.2368     2.3008   319.4718    74.0625      .3188     5.8317
  980.3892     2.2832   314.5505    69.0625      .3027     6.3099
  980.5416     2.2734   322.3425    64.8125      .2822     6.1470
  980.6940     2.2812   328.9042    66.6250      .2793     5.8737
  980.8464     2.2891   329.3143    72.2500      .2915     5.7071
  980.9988     2.3125   330.5446    74.6250      .2959     5.7492
