~VERSION INFORMATION
VERS.                                                 2.0:   CWLS Log ASCII Standard-VERSION 2.0
WRAP.                                                  NO:   One line per depth step
~Well Information Block
STRT.M                                            14.3256:   Top Depth
STOP.M                                          1031.1384:   Bottom Depth
STEP.M                                             .15240:   Depth Increment
NULL.                                            -999.250:   Null Value
FLD .                                                NIMR:   Field Name
WELL.                                            NIMR-8H1:   NAME
LOC .                                         NIMR DQ-104:   AREA NAME
EDF .                                              214.46:   ELEV DRILL FLOOR
EPD .                                                   0:   ELEV PERM DATUM
EGL .                                              208.97:   GROUND LEVEL
COMP.                          Petroleum Development Oman:   OPERATOR
PDAT.                                                 MSL:   PERM DATUM
COUN.                                             RIG01_4:   RIG NAME
SPUD.                                          1982/03/03:   SPUD DATE
LATI.                                         18.69955655:   SURF. LATITUDE
LONG.                                         55.92375545:   SURF. LONGITUDE
UTME.                                           386515.66:   SURF. UTM E
UTMN.                                          2067747.29:   SURF. UTM N
CNTY.                                             RIG01_4:   COUNTY
~PARAMETER INFORMATION (log)
LNAM.                                              PUBLIC:   NAME
LTYP.                                              JOINED:   LOG TYPE
LSRV.                                            CLEAN UP:   SERVICE
LSOU.                                               FUGRO:   LOG SOURCE
LVSN.                                                   1:   LOG VERSION
BHIS.                                                   R:   BRIEF HISTORY
TDD .M                                            1032.97:   FINAL TD DRILLER
TDL .M                                            1032.66:   FINAL TD LOGGER
FHIS.                                             RAW-LAS:   FULL HISTORY
~Curve Information Block
#MNEM.UNIT                                        API CODE    No Description
#=========                                        ========    == ===========
DEPT.M                                       00 001 00 00:     1  DEPTH
DEN.G/C3                                                 :     2  Bulk Density
DT.US/M                                                  :     3  Acoustic log
GR.API                                                   :     4  Gamma Ray
NEU.V/V                                                  :     5  Neutron Porosity in Limestone Units
RES_DEP.OHMM                                             :     6  Resistivity Deep
~ASCII
# ...
  925.3728     2.3340   382.2178   112.7500      .3628     4.9275
  925.5252     2.3379   381.3976   115.0625      .3604     4.8745
  925.6776     2.3418   378.5269   113.5625      .3843     4.9677
  925.8300     2.3164   377.2966   110.8125      .3770     4.8517
  925.9824     2.3105   378.9370   113.8750      .3735     3.8410
  926.1348     2.3066   384.6785   113.5000      .3789     3.6312
  926.2872     2.3027   380.9875   119.1875      .3979     3.6365
  926.4396     2.2949   385.4987   122.3125      .3936     3.8463
  926.5920     2.2793   386.3189   121.4375      .3936     5.2726
  926.7444     2.2734   383.8583   118.3750      .3716     5.6541
  926.8968     2.2773   387.9593   119.7500      .3965     5.3187
  927.0492     2.2910   385.4987   123.5000      .3726     4.3814
  927.2016     2.2949   385.4987   125.6875      .4116     3.7968
  927.3540     2.2812   390.4200   120.3125      .3677     3.5797
  927.5064     2.2773   396.1614   120.6875      .3823     3.5668
  927.6588     2.2773   400.2625   116.4375      .3638     3.9858
  927.8112     2.2832   403.5433   121.9375      .4111     4.2484
  927.9636     2.2715   403.5433   120.0000      .4233     4.1953
  928.1160     2.2715   403.5433   124.2500      .4097     3.6979
  928.2684     2.2832   402.7231   118.7500      .3853     3.4596
  928.4208     2.2891   404.3635   116.3750      .3911     3.5091
  928.5732     2.2734   403.5433   113.4375      .3906     3.7395
  928.7256     2.2598   406.0039   115.4375      .3857     4.0599
  928.8780     2.2578   405.1837   117.8125      .3906     4.1804
  929.0304     2.2520   403.5433   121.3125      .3867     4.1279
  929.1828     2.2559   406.0039   119.1875      .4004     3.9000
  929.3352     2.2773   408.4646   126.3750      .3940     3.8045
  929.4876     2.2754   410.1050   124.0625      .4106     3.7125
  929.6400     2.2676   410.1050   125.3125      .4102     3.5147
  929.7924     2.2559   415.0262   115.7500      .4365     3.4630
  929.9448     2.2598   413.3858   115.4375      .4302     3.5364
  930.0972     2.2598   410.1050   112.0000      .4229     3.5254
  930.2496     2.2500   412.5656   110.2500      .3999     3.5538
  930.4020     2.2754   412.5656   112.1875      .3926     3.3631
  930.5544     2.2734   412.5656   118.9375      .3809     3.4528
  930.7068     2.2559   412.5656   122.1250      .3579     3.4930
  930.8592     2.2422   411.7454   122.5000      .3804     3.5315
  931.0116     2.2754   412.5656   120.3125      .4287     3.6687
  931.1640     2.2676   415.8465   123.5625      .4429     3.6055
  931.3164     2.2578   420.7677   120.4375      .4150     3.3978
  931.4688     2.2207   419.9475   123.1250      .3838     3.3225
  931.6212     2.2344   424.8688   114.4375      .3994     3.3340
  931.7736     2.2617   425.6890   113.1875      .4048     3.2170
  931.9260     2.2773   424.8688   111.0000      .3975     3.2544
  932.0784     2.2676   426.5092   117.7500      .4385     3.2195
  932.2308     2.2500   428.1496   116.1875      .4561     3.2401
  932.3832     2.2324   422.4081   110.6250      .4697     3.1960
  932.5356     2.2598   425.6890   111.5000      .4277     3.1050
  932.6880     2.2402   426.5092   110.5625      .4058     3.0251
  932.8404     2.2441   425.6890   113.7500      .4028     3.0689
  932.9928     2.2402   431.4305   113.3125      .4165     3.0048
  933.1452     2.2637   429.7900   115.1875      .4199     3.1072
  933.2976     2.2773   424.8688   115.1875      .4258     3.1234
  933.4500     2.2734   419.9475   115.8125      .4175     3.2299
  933.6024     2.2832   415.8465   118.6250      .4019     3.4193
  933.7548     2.2891   410.1050   121.2500      .3774     3.4980
  933.9072     2.3047   408.4646   124.3750      .3745     3.4887
  934.0596     2.3066   401.0827   119.8750      .3857     3.7091
  934.2120     2.3027   395.3412   115.8125      .3750     3.8603
  934.3644     2.2930   392.0604   110.0000      .3638     4.0597
  934.5168     2.2969   387.9593   106.5625      .3506     4.8491
  934.6692     2.2910   379.7572   101.5000      .3477     5.3178
  934.8216     2.2930   370.7349    96.5000      .3057     4.9919
  934.9740     2.2695   369.9147    99.3750      .3115     4.8451
  935.1264     2.2734   373.1955    95.9375      .3354     5.5646
  935.2788     2.2812   364.9934    91.1250      .3276     5.4051
  935.4312     2.2949   363.7631    92.5625      .3018     5.2952
  935.5836     2.2988   365.8137   102.9375      .2964     4.7703
  935.7360     2.2832   377.2966   115.3750      .3564     4.0219
  935.8884     2.2520   400.2625   121.1875      .3936     3.9377
  936.0408     2.2500   419.1273   120.6250      .4160     4.2459
  936.1932     2.2656   421.9980   119.6250      .4121     4.5778
  936.3456     2.3086   414.2060   111.6250      .4243     4.8906
  936.4980     2.3223   402.7231   103.5625      .3945     5.3872
  936.6504     2.3262   377.7067    91.9375      .3862     5.9454
  936.8028     2.3262   359.2520    84.3125      .3472     6.7698
  936.9552     2.3652   333.8255    83.3750      .3213     7.5056
  937.1076     2.3945   314.1404    84.1875      .2812     8.1952
  937.2600     2.4258   305.9383    85.7500      .2612     9.5927
  937.4124     2.4238   293.6352    80.6250      .2485     9.9695
  937.5648     2.4297   293.6352    76.7500      .2461    10.3531
  937.7172     2.4043   296.0958    72.0625      .2373    11.0191
  937.8696     2.4160   289.5341    72.0625      .2227    11.3589
  938.0220     2.4297   287.0735    74.8125      .2124    11.3222
  938.1744     2.4375   290.3543    76.2500      .2178    10.7177
  938.3268     2.4277   296.5059    77.6250      .2256    10.0285
  938.4792     2.4219   295.2756    79.6250      .2407     9.6478
  938.6316     2.4258   301.4272    81.0000      .2515     9.5450
  938.7840     2.3926   301.0171    83.0000      .2529     9.6105
  938.9364     2.3789   299.7867    83.8125      .2456     9.6129
  939.0888     2.3770   299.7867    85.6250      .2412     9.3450
  939.2412     2.3887   302.6575    89.1875      .2520     9.2625
  939.3936     2.3848   300.6070    87.7500      .2661     9.2451
  939.5460     2.3750   300.1968    93.1875      .2656     9.2100
  939.6984     2.3770   308.8091    90.0625      .2563     9.1726
  939.8508     2.3691   322.7526    92.2500      .2432     9.1608
  940.0032     2.3711   306.7585    89.8125      .2417     9.1076
  940.1556     2.3594   306.3484    89.0625      .2524     8.9369
  940.3080     2.3574   307.5787    88.1875      .2603     8.8694
  940.4604     2.3496   306.3484    88.1875      .2788     9.0639
  940.6128     2.3496   307.8521    88.7500      .2842     9.1826
  940.7652     2.3574   309.3559    84.8125      .2944     9.2656
  940.9176     2.3496   310.8596    85.4375      .2939     9.0092
  941.0700     2.3145   312.9101    87.4375      .2998     8.8683
  941.2224     2.2930   315.7809    91.9375      .3208     8.9077
  941.3748     2.2988   315.7809    91.5625      .3267     9.2227
  941.5272     2.3281   321.1122    89.3750      .3149    10.0402
  941.6796     2.2832   317.4213    84.5000      .2949    10.9653
  941.8320     2.2090   318.6516    77.6250      .2900    10.8137
  941.9844     2.1562   324.8032    72.0625      .3052    10.0419
  942.1368     2.1484   337.1063    72.8125      .3145     9.4170
  942.2892     2.1484   352.2802    72.5625      .3384     9.0130
  942.4416     2.1504   335.8760    73.7500      .3486     9.3299
  942.5940     2.1367   344.0781    67.7500      .3613     9.5834
  942.7464     2.1543   349.8195    71.4375      .3364     9.2756
  942.8988     2.1621   355.9711    71.1875      .3286     9.0490
  943.0512     2.1973   360.4823    73.5000      .3164     8.7808
  943.2036     2.1934   360.7899    69.1250      .3306     9.0541
  943.3560     2.1699   361.0974    68.0000      .3550     9.6145
  943.5084     2.1348   361.4050    65.2500      .3608    10.0631
  943.6608     2.0918   361.7126    61.0312      .3618    10.4308
  943.8132     2.0840   373.1955    61.5000      .3447    10.4636
