~VERSION INFORMATION
VERS.                                                 2.0:   CWLS Log ASCII Standard-VERSION 2.0
WRAP.                                                  NO:   One line per depth step
~Well Information Block
STRT.M                                            14.3256:   Top Depth
STOP.M                                          1031.1384:   Bottom Depth
STEP.M                                             .15240:   Depth Increment
NULL.                                            -999.250:   Null Value
FLD .                                                NIMR:   Field Name
WELL.                                            NIMR-8H1:   NAME
LOC .                                         NIMR DQ-104:   AREA NAME
EDF .                                              214.46:   ELEV DRILL FLOOR
EPD .                                                   0:   ELEV PERM DATUM
EGL .                                              208.97:   GROUND LEVEL
COMP.                          Petroleum Development Oman:   OPERATOR
PDAT.                                                 MSL:   PERM DATUM
COUN.                                             RIG01_4:   RIG NAME
SPUD.                                          1982/03/03:   SPUD DATE
LATI.                                         18.69955655:   SURF. LATITUDE
LONG.                                         55.92375545:   SURF. LONGITUDE
UTME.                                           386515.66:   SURF. UTM E
UTMN.                                          2067747.29:   SURF. UTM N
CNTY.                                             RIG01_4:   COUNTY
~PARAMETER INFORMATION (log)
LNAM.                                              PUBLIC:   NAME
LTYP.                                              JOINED:   LOG TYPE
LSRV.                                            CLEAN UP:   SERVICE
LSOU.                                               FUGRO:   LOG SOURCE
LVSN.                                                   1:   LOG VERSION
BHIS.                                                   R:   BRIEF HISTORY
TDD .M                                            1032.97:   FINAL TD DRILLER
TDL .M                                            1032.66:   FINAL TD LOGGER
FHIS.                                             RAW-LAS:   FULL HISTORY
~Curve Information Block
#MNEM.UNIT                                        API CODE    No Description
#=========                                        ========    == ===========
DEPT.M                                       00 001 00 00:     1  DEPTH
DEN.G/C3                                                 :     2  Bulk Density
DT.US/M                                                  :     3  Acoustic log
GR.API                                                   :     4  Gamma Ray
NEU.V/V                                                  :     5  Neutron Porosity in Limestone Units
RES_DEP.OHMM                                             :     6  Resistivity Deep
~ASCII
# ...
  758.0376     2.2930   419.1273    55.8125      .3745     3.2337
  758.1900     2.3320   416.6667    54.7500      .3721     3.4473
  758.3424     2.3398   425.6890    56.5312      .3618     3.1760
  758.4948     2.3145   446.1942    62.1250      .3438     2.6877
  758.6472     2.2656   456.0367    66.5000      .3628     2.4048
  758.7996     2.2266   455.2165    65.0000      .3774     2.4053
  758.9520     2.2168   452.7559    59.2500      .4292     2.5272
  759.1044     2.2246   452.7559    58.5000      .4385     2.5094
  759.2568     2.2266   453.5761    57.0625      .4316     2.4591
  759.4092     2.2285   456.8570    63.6250      .4048     2.3003
  759.5616     2.2148   461.7782    64.6875      .4575     2.1442
  759.7140     2.2148   469.9803    67.0625      .4644     2.1512
  759.8664     2.1934   468.3399    66.3750      .4883     2.2634
  760.0188     2.2031   464.2388    67.1875      .4819     2.2985
  760.1712     2.2188   465.0591    67.6250      .4683     2.3469
  760.3236     2.2344   467.5197    65.5000      .4561     2.1725
  760.4760     2.2344   460.5479    60.5000      .4443     2.1446
  760.6284     2.2324   462.5984    59.2812      .4634     2.0483
  760.7808     2.2461   463.0085    56.5625      .4790     2.0546
  760.9332     2.2461   463.0085    58.0000      .4634     2.0092
  761.0856     2.2461   469.1601    54.0938      .4858     2.1276
  761.2380     2.2148   463.0085    56.5312      .4849     2.0980
  761.3904     2.2207   463.0085    58.4062      .4917     2.1673
  761.5428     2.2227   449.8852    61.0938      .4688     2.2705
  761.6952     2.2598   433.8911    58.1250      .4609     2.4606
  761.8476     2.2832   425.2789    54.9375      .4697     2.5359
  762.0000     2.3125   401.0827    49.1250      .4849     2.6174
  762.1524     2.3398   357.6115    44.4688      .4907     3.3507
  762.3048     2.3789   314.1404    38.7500      .4639     4.5681
  762.4572     2.4551   259.1863    32.8750      .3862     7.9713
  762.6096     2.5410   226.3780    28.3438      .2749    17.4040
  762.7620     2.5781   215.3051    22.5625      .1787    25.4905
  762.9144     2.5820   222.6870    20.5781      .1436    26.6081
  763.0668     2.5410   224.3274    18.6562      .1382    24.9299
  763.2192     2.5293   226.3780    18.6719      .1455    22.9498
  763.3716     2.5098   223.5072    19.5312      .1567    22.7935
  763.5240     2.5449   226.7881    20.5625      .1533    23.2090
  763.6764     2.5566   236.6306    20.5312      .1440    22.3079
  763.8288     2.5586   246.4731    23.2188      .1328    21.2448
  763.9812     2.5254   246.0630    23.5312      .1240    20.2571
  764.1336     2.5117   242.7822    24.6562      .1270    19.4656
  764.2860     2.5137   240.7316    21.7500      .1230    19.9591
  764.4384     2.5137   235.8104    21.5000      .1279    22.0552
  764.5908     2.5234   231.2992    20.9375      .1274    23.7911
  764.7432     2.5078   229.2487    21.1875      .1382    25.5744
  764.8956     2.5000   231.7093    20.3750      .1455    26.2457
  765.0480     2.4844   236.2205    18.2500      .1475    22.6731
  765.2004     2.5117   240.7316    20.8906      .1411    20.4229
  765.3528     2.5156   248.1135    23.2500      .1411    19.5596
  765.5052     2.5273   253.4449    26.2656      .1426    17.6215
  765.6576     2.5195   260.8268    26.2031      .1426    15.8496
  765.8100     2.5156   293.2251    27.8906      .1406    11.2244
  765.9624     2.5078   296.0958    33.7812      .1528     5.4699
  766.1148     2.4473   298.9666    42.0625      .1733     3.9755
  766.2672     2.3711   301.8373    48.9375      .2578     4.1956
  766.4196     2.3535   304.7080    46.2188      .3306     5.4951
  766.5720     2.4043   262.8773    37.2188      .3296     8.4011
  766.7244     2.4824   257.5459    30.5156      .2397    12.5377
  766.8768     2.5000   255.0853    29.9688      .1558    12.9834
  767.0292     2.4883   254.2651    31.0625      .1646    11.9981
  767.1816     2.5059   253.0348    29.5469      .1675    12.0640
  767.3340     2.5234   242.7822    24.7031      .1748    16.0122
  767.4864     2.5469   252.2146    24.7969      .1470    16.3626
  767.6388     2.5391   278.0512    24.3125      .1499    12.7066
  767.7912     2.5254   310.4495    28.6562      .1421     8.0429
  767.9436     2.4883   344.0781    31.5000      .1694     4.8968
  768.0960     2.4199   375.2461    37.9375      .2207     3.9010
  768.2484     2.3477   390.8300    42.8438      .2998     3.2849
  768.4008     2.2910   392.8806    48.5312      .3374     3.2738
  768.5532     2.2988   402.7231    51.2188      .3506     3.3427
  768.7056     2.2988   423.2283    55.5312      .3564     2.9288
  768.8580     2.3027   425.8940    58.0938      .3848     2.6457
  769.0104     2.2402   428.5597    57.3438      .4111     2.1887
  769.1628     2.2031   431.2254    58.4688      .4429     2.2087
  769.3152     2.1895   433.8911    57.3438      .4990     2.4792
  769.4676     2.2461   430.6102    58.8438      .5225     2.6798
  769.6200     2.2891   420.7677    52.8438      .4736     2.7429
  769.7724     2.2793   437.1719    53.2500      .4004     2.7031
  769.9248     2.2363   451.9357    52.8750      .3848     2.3611
  770.0772     2.2090   449.4751    56.2500      .4434     2.4047
  770.2296     2.2168   448.6548    52.5625      .4521     2.3757
  770.3820     2.2305   451.9357    54.1250      .4561     2.4341
  770.5344     2.2344   456.8570    57.3438      .4224     2.3574
  770.6868     2.2344   450.2953    60.9688      .4482     2.3345
  770.8392     2.2266   432.2507    59.6562      .4360     2.4864
  770.9916     2.2305   403.5433    55.0938      .4751     2.9022
  771.1440     2.3027   366.6339    49.7188      .4561     3.8589
  771.2964     2.3906   360.2772    42.7500      .4048     4.8144
  771.4488     2.4844   353.9206    37.4062      .3369     6.0306
  771.6012     2.4922   347.5640    32.6250      .3062     6.6349
  771.7536     2.4688   341.2073    32.2188      .3018     5.7345
  771.9060     2.4316   373.1955    35.5000      .3027     4.5204
  772.0584     2.3672   405.1837    41.0000      .3086     3.6222
  772.2108     2.2930   437.9921    52.9062      .3579     2.8887
  772.3632     2.2285   458.4974    59.0312      .3960     2.5059
  772.5156     2.1895   464.2388    64.5000      .4448     2.4511
  772.6680     2.1699   462.5984    66.0000      .4531     2.4275
  772.8204     2.1562   460.1378    65.5625      .4497     2.5138
  772.9728     2.1602   459.3176    66.6875      .4253     2.5142
  773.1252     2.1738   458.4974    65.4375      .4126     2.5217
  773.2776     2.1680   460.9580    65.6250      .4199     2.5305
  773.4300     2.1738   463.4186    63.8750      .4321     2.4920
  773.5824     2.1680   460.1378    60.0312      .4551     2.5674
  773.7348     2.1797   455.2165    60.5625      .4331     2.5651
  773.8872     2.2266   451.9357    59.6562      .4590     2.5733
  774.0396     2.2305   439.6325    64.0625      .4297     2.7034
  774.1920     2.2715   426.5092    62.7500      .4316     2.7783
  774.3444     2.2695   423.2283    59.7188      .4170     2.9503
  774.4968     2.2871   424.0486    52.6875      .4009     3.0049
  774.6492     2.3086   431.4305    50.8750      .4111     2.9635
  774.8016     2.2754   447.0144    53.8125      .4062     2.7432
  774.9540     2.2793   454.3963    58.5000      .4111     2.4252
  775.1064     2.2383   462.5984    60.1562      .4102     2.2816
  775.2588     2.2344   467.5197    60.7812      .4326     2.2537
  775.4112     2.2070   468.3399    56.6562      .4551     2.2645
  775.5636     2.1875   459.3176    57.5625      .4795     2.4742
  775.7160     2.1895   456.0367    56.8438      .4707     2.6169
  775.8684     2.2070   458.4974    57.9688      .4751     2.6921
  776.0208     2.2012   464.2388    54.4688      .4775     2.5295
  776.1732     2.1816   472.4409    60.5312      .4741     2.3383
  776.3256     2.1641   465.0591    62.7812      .4741     2.1290
  776.4780     2.1641   418.3071    61.3125      .4238     2.3045
