~VERSION INFORMATION
VERS.                                                 2.0:   CWLS Log ASCII Standard-VERSION 2.0
WRAP.                                                  NO:   One line per depth step
~Well Information Block
STRT.M                                            14.3256:   Top Depth
STOP.M                                          1031.1384:   Bottom Depth
STEP.M                                             .15240:   Depth Increment
NULL.                                            -999.250:   Null Value
FLD .                                                NIMR:   Field Name
WELL.                                            NIMR-8H1:   NAME
LOC .                                         NIMR DQ-104:   AREA NAME
EDF .                                              214.46:   ELEV DRILL FLOOR
EPD .                                                   0:   ELEV PERM DATUM
EGL .                                              208.97:   GROUND LEVEL
COMP.                          Petroleum Development Oman:   OPERATOR
PDAT.                                                 MSL:   PERM DATUM
COUN.                                             RIG01_4:   RIG NAME
SPUD.                                          1982/03/03:   SPUD DATE
LATI.                                         18.69955655:   SURF. LATITUDE
LONG.                                         55.92375545:   SURF. LONGITUDE
UTME.                                           386515.66:   SURF. UTM E
UTMN.                                          2067747.29:   SURF. UTM N
CNTY.                                             RIG01_4:   COUNTY
~PARAMETER INFORMATION (log)
LNAM.                                              PUBLIC:   NAME
LTYP.                                              JOINED:   LOG TYPE
LSRV.                                            CLEAN UP:   SERVICE
LSOU.                                               FUGRO:   LOG SOURCE
LVSN.                                                   1:   LOG VERSION
BHIS.                                                   R:   BRIEF HISTORY
TDD .M                                            1032.97:   FINAL TD DRILLER
TDL .M                                            1032.66:   FINAL TD LOGGER
FHIS.                                             RAW-LAS:   FULL HISTORY
~Curve Information Block
#MNEM.UNIT                                        API CODE    No Description
#=========                                        ========    == ===========
DEPT.M                                       00 001 00 00:     1  DEPTH
DEN.G/C3                                                 :     2  Bulk Density
DT.US/M                                                  :     3  Acoustic log
GR.API                                                   :     4  Gamma Ray
NEU.V/V                                                  :     5  Neutron Porosity in Limestone Units
RES_DEP.OHMM                                             :     6  Resistivity Deep
~ASCII
# ...
  832.4088     2.5566   259.5965    21.4062      .1553    10.9475
  832.5612     2.5781   254.2651    20.7969      .1509    12.1070
  832.7136     2.5684   250.5741    21.5938      .1499    13.5218
  832.8660     2.5703   249.7539    20.7969      .1479    14.5585
  833.0184     2.5547   250.1640    20.0312      .1470    15.1009
  833.1708     2.5586   252.6247    17.9219      .1499    14.8199
  833.3232     2.5547   255.0853    19.2812      .1411    14.1458
  833.4756     2.5430   258.3661    18.8125      .1343    12.6537
  833.6280     2.5449   260.8268    19.6094      .1304    11.7706
  833.7804     2.5312   262.4672    17.9844      .1392    11.2385
  833.9328     2.5527   264.9278    20.5938      .1460    11.2716
  834.0852     2.5430   260.4167    22.5000      .1519    11.7392
  834.2376     2.5527   260.4167    22.2031      .1572    11.9098
  834.3900     2.5566   262.0571    20.3125      .1626    11.7841
  834.5424     2.5664   261.2369    20.7812      .1611    11.6559
  834.6948     2.5547   263.6975    22.6719      .1660    11.4934
  834.8472     2.5430   266.1581    22.9375      .1621    11.6268
  834.9996     2.5312   267.7986    22.4219      .1753    11.1594
  835.1520     2.5449   271.4895    22.1406      .1748    10.4944
  835.3044     2.5410   275.5905    24.6250      .1934     9.5562
  835.4568     2.5469   280.5118    27.3281      .1909     8.8171
  835.6092     2.5332   285.0230    27.8906      .1938     8.3019
  835.7616     2.5312   285.0230    27.2656      .1890     7.6681
  835.9140     2.5234   288.3038    26.5469      .1973     7.4716
  836.0664     2.5273   288.3038    26.6719      .2065     6.9356
  836.2188     2.5176   291.5847    27.5938      .2246     6.6051
  836.3712     2.5195   287.8937    24.5938      .2437     6.7623
  836.5236     2.5215   284.2028    24.9688      .2656     7.1501
  836.6760     2.5312   285.8432    24.2031      .2637     7.8806
  836.8284     2.5391   289.1240    27.4062      .2393     8.3768
  836.9808     2.5449   299.7867    27.9531      .2095     7.8805
  837.1332     2.5332   303.0676    25.7031      .2002     7.1051
  837.2856     2.5098   303.8878    24.3125      .2231     6.3001
  837.4380     2.4922   301.8373    22.6250      .2417     6.0591
  837.5904     2.4941   303.4777    23.8594      .2661     6.0908
  837.7428     2.4961   304.2979    24.5469      .2656     6.0750
  837.8952     2.5156   303.0676    25.7812      .2700     6.0501
  838.0476     2.5078   300.6070    24.2812      .2544     6.1422
  838.2000     2.5137   298.9665    23.0625      .2627     6.1485
  838.3524     2.5098   294.8655    21.6562      .2646     6.7251
  838.5048     2.5039   289.1240    25.4844      .2935     7.4005
  838.6572     2.4863   281.3320    27.3281      .2886     8.3899
  838.8096     2.4844   271.0794    28.9219      .2690    10.0957
  838.9620     2.4883   252.6247    27.7812      .2500    11.8393
  839.1144     2.4746   247.2933    26.4844      .2583    13.0876
  839.2668     2.4297   250.5741    24.8906      .2583    14.0468
  839.4192     2.3945   252.6247    25.5312      .2480    14.0639
  839.5716     2.3828   252.2146    24.7656      .2437    13.9673
  839.7240     2.3926   258.7762    26.4688      .2427    13.4133
  839.8764     2.3984   257.5459    23.4531      .2358    12.8455
  840.0288     2.4199   250.1640    23.9844      .2290    13.3998
  840.1812     2.4375   246.8832    19.5625      .2139    14.0618
  840.3336     2.4512   237.8609    18.6562      .1968    15.1379
  840.4860     2.4844   234.9902    16.7969      .1934    16.4422
  840.6384     2.5098   239.5013    19.6875      .1973    17.1660
  840.7908     2.5410   252.2146    24.5469      .1997    17.1073
  840.9432     2.5391   262.0571    26.1875      .1836    14.5126
  841.0956     2.5273   277.6411    28.4688      .1592    10.2586
  841.2480     2.5391   294.4554    28.1875      .1436     7.8736
  841.4004     2.5215   297.3261    30.6094      .1606     6.6354
  841.5528     2.5215   304.7080    29.7500      .1904     6.0787
  841.7052     2.4961   304.2979    26.5156      .2163     5.8556
  841.8576     2.5039   305.1181    24.8906      .2300     5.8411
  842.0100     2.5059   304.2979    22.9688      .2241     5.8678
  842.1624     2.5039   305.5282    24.8594      .2305     5.9876
  842.3148     2.5039   303.4777    23.4688      .2261     6.5369
  842.4672     2.5059   295.2756    24.8594      .2476     7.2762
  842.6196     2.5039   289.5341    23.0625      .2573     7.9717
  842.7720     2.4746   273.5400    23.4219      .2515     9.2814
  842.9244     2.4434   257.9560    21.2656      .2446    10.8569
  843.0768     2.4355   243.6024    20.4219      .2227    12.0474
  843.2292     2.4492   237.0407    19.5469      .2227    13.1228
  843.3816     2.4453   230.8891    18.1719      .2197    14.2664
  843.5340     2.4199   228.4285    16.5156      .2334    14.9972
  843.6864     2.4141   233.7598    16.3906      .2271    16.2639
  843.8388     2.4180   240.3215    17.8281      .2124    16.7739
  843.9912     2.4551   253.4449    20.7500      .1963    14.8822
  844.1436     2.4570   265.3379    22.4688      .2036    12.3816
  844.2960     2.5059   278.0512    25.9219      .2036    10.2613
  844.4484     2.4980   290.7644    27.9062      .2192     8.1758
  844.6008     2.5254   298.9665    29.0156      .2173     6.6944
  844.7532     2.5020   303.8878    29.2500      .2397     6.0586
  844.9056     2.4883   307.5787    28.9531      .2466     5.5657
  845.0580     2.4941   314.5505    26.7656      .2500     5.4560
  845.2104     2.5059   315.3707    27.3281      .2573     5.0357
  845.3628     2.5176   314.9606    25.9688      .2495     4.8585
  845.5152     2.4961   313.7303    28.0781      .2637     4.9059
  845.6676     2.4922   307.1686    26.2656      .2646     5.1057
  845.8200     2.5020   301.8373    26.3438      .2754     5.5943
  845.9724     2.5098   294.8655    27.0781      .2837     6.1460
  846.1248     2.5059   291.5847    27.8125      .2632     6.7905
  846.2772     2.4863   284.6129    29.7656      .2500     7.4701
  846.4296     2.4961   278.8714    27.4375      .2158     8.4026
  846.5820     2.4980   275.1805    27.7500      .2275     9.1632
  846.7344     2.4961   272.3097    24.8906      .2153     9.6591
  846.8868     2.4961   268.2086    23.2969      .2324    10.7230
  847.0392     2.4883   260.8268    20.9375      .2134    11.1315
  847.1916     2.5059   241.1417    20.5000      .2183    12.8321
  847.3440     2.5234   248.2160    21.9375      .2017    18.6106
  847.4964     2.5762   255.2903    22.7969      .1870    22.6815
  847.6488     2.5957   262.3647    22.1562      .1646    16.4384
  847.8012     2.5996   269.4390    25.8125      .1475    10.3096
  847.9536     2.5547   298.5564    28.3438      .1558     7.0910
  848.1060     2.5430   312.5000    32.6250      .1934     5.7073
  848.2584     2.5078   303.0676    32.1250      .2354     5.6042
  848.4108     2.5000   301.4272    31.7344      .2480     6.1835
  848.5632     2.5039   295.2756    30.4531      .2402     6.7867
  848.7156     2.5176   291.5847    29.5625      .2178     7.0217
  848.8680     2.5312   284.6129    29.8125      .2144     7.4781
  849.0204     2.5215   281.3320    31.3125      .2075     7.8647
  849.1728     2.5332   274.7704    31.5469      .2144     8.3701
  849.3252     2.5391   254.2651    29.7500      .2158    10.2974
  849.4776     2.5527   241.1417    28.2188      .2061    13.9321
  849.6300     2.5527   232.9396    26.4062      .1758    17.9528
  849.7824     2.5605   236.2205    25.9062      .1338    20.6855
  849.9348     2.5605   242.3720    25.0625      .1143    18.9749
  850.0872     2.5625   252.2146    23.2344      .1206    16.7104
  850.2396     2.5645   260.8268    25.7812      .1504    13.4763
  850.3920     2.5625   271.4895    26.9688      .1655    11.6784
  850.5444     2.5254   289.1240    30.2344      .1919     9.5885
  850.6968     2.5137   306.7585    30.3281      .2036     7.3469
  850.8492     2.4902   314.5505    31.9531      .2305     5.9338
