~VERSION INFORMATION
VERS.                                                 2.0:   CWLS Log ASCII Standard-VERSION 2.0
WRAP.                                                  NO:   One line per depth step
~Well Information Block
STRT.M                                            14.3256:   Top Depth
STOP.M                                          1031.1384:   Bottom Depth
STEP.M                                             .15240:   Depth Increment
NULL.                                            -999.250:   Null Value
FLD .                                                NIMR:   Field Name
WELL.                                            NIMR-8H1:   NAME
LOC .                                         NIMR DQ-104:   AREA NAME
EDF .                                              214.46:   ELEV DRILL FLOOR
EPD .                                                   0:   ELEV PERM DATUM
EGL .                                              208.97:   GROUND LEVEL
COMP.                          Petroleum Development Oman:   OPERATOR
PDAT.                                                 MSL:   PERM DATUM
COUN.                                             RIG01_4:   RIG NAME
SPUD.                                          1982/03/03:   SPUD DATE
LATI.                                         18.69955655:   SURF. LATITUDE
LONG.                                         55.92375545:   SURF. LONGITUDE
UTME.                                           386515.66:   SURF. UTM E
UTMN.                                          2067747.29:   SURF. UTM N
CNTY.                                             RIG01_4:   COUNTY
~PARAMETER INFORMATION (log)
LNAM.                                              PUBLIC:   NAME
LTYP.                                              JOINED:   LOG TYPE
LSRV.                                            CLEAN UP:   SERVICE
LSOU.                                               FUGRO:   LOG SOURCE
LVSN.                                                   1:   LOG VERSION
BHIS.                                                   R:   BRIEF HISTORY
TDD .M                                            1032.97:   FINAL TD DRILLER
TDL .M                                            1032.66:   FINAL TD LOGGER
FHIS.                                             RAW-LAS:   FULL HISTORY
~Curve Information Block
#MNEM.UNIT                                        API CODE    No Description
#=========                                        ========    == ===========
DEPT.M                                       00 001 00 00:     1  DEPTH
DEN.G/C3                                                 :     2  Bulk Density
DT.US/M                                                  :     3  Acoustic log
GR.API                                                   :     4  Gamma Ray
NEU.V/V                                                  :     5  Neutron Porosity in Limestone Units
RES_DEP.OHMM                                             :     6  Resistivity Deep
~ASCII
# ...
  739.4448  -999.2500  -999.2500    46.7812      .5483  -999.2500
  739.5972  -999.2500  -999.2500    51.6250      .5664  -999.2500
  739.7496  -999.2500  -999.2500    59.0938      .5430  -999.2500
  739.9020  -999.2500  -999.2500    64.8750      .5532  -999.2500
  740.0544  -999.2500  -999.2500    67.7500      .5596  -999.2500
  740.2068  -999.2500  -999.2500    63.8125      .6021  -999.2500
  740.3592  -999.2500  -999.2500    64.0625      .6030  -999.2500
  740.5116  -999.2500  -999.2500    61.4062      .5962  -999.2500
  740.6640  -999.2500  -999.2500    65.5625      .5737  -999.2500
  740.8164  -999.2500  -999.2500    60.6875      .6157  -999.2500
  740.9688  -999.2500  -999.2500    59.0938      .5923     1.7708
  741.1212  -999.2500  -999.2500    50.6875      .5728     2.9130
  741.2736  -999.2500  -999.2500    40.8750      .4790     4.2976
  741.4260  -999.2500  -999.2500    32.5938      .4238     6.4286
  741.5784     2.3105  -999.2500    24.3125      .3345     7.5650
  741.7308     2.4199  -999.2500    22.1406      .2583     8.2409
  741.8832     2.4629  -999.2500    21.2812      .2017     6.8903
  742.0356     2.4883  -999.2500    23.5781      .2046     5.5220
  742.1880     2.5215  -999.2500    32.5000      .2041     5.0890
  742.3404     2.5664  -999.2500    36.4688      .2339     5.0646
  742.4928     2.6152   248.1135    40.3125      .2544     6.6283
  742.6452     2.6738   276.8209    32.2500      .2778     7.9563
  742.7976     2.6836   266.1581    27.2188      .2554     7.1541
  742.9500     2.6465   296.0958    24.3906      .2178     5.3593
  743.1024     2.5547   325.6234    28.5469      .1978     3.8676
  743.2548     2.5137   327.9814    33.8750      .2231     3.1672
  743.4072     2.4785   330.3396    37.1250      .2617     2.8241
  743.5596     2.4629   332.6977    39.8125      .3135     2.8922
  743.7120     2.4414   335.0558    38.6250      .3481     3.4551
  743.8644     2.4570   305.1181    36.2188      .3452     4.8362
  744.0168     2.5020   305.6307    30.7656      .2905     7.3073
  744.1692     2.5371   306.1434    24.9688      .2124     9.7010
  744.3216     2.5508   306.6560    21.8594      .1519     8.0176
  744.4740     2.5605   307.1686    22.9531      .1226     5.4142
  744.6264     2.5352   325.2133    28.7969      .1357     3.9640
  744.7788     2.5527   329.3143    32.0625      .1904     3.6664
  744.9312     2.5254   327.2638    33.2812      .2407     3.9597
  745.0836     2.5273   322.7526    35.5312      .2451     4.4690
  745.2360     2.5078   316.1909    34.3438      .2314     4.8429
  745.3884     2.5156   309.6293    34.9062      .2251     5.5848
  745.5408     2.5059   291.5847    31.3125      .2378     7.4025
  745.6932     2.5078   289.7392    30.2656      .2251     9.6667
  745.8456     2.5137   287.8937    27.5938      .1885    13.7187
  745.9980     2.5254   286.0482    26.2656      .1460    12.8272
  746.1504     2.5391   284.2028    27.4531      .1147     9.5599
  746.3028     2.5254   286.2533    27.9531      .1128     6.3419
  746.4552     2.5078   288.3038    30.2656      .1328     4.4819
  746.6076     2.4746   290.3543    33.3125      .1729     4.3984
  746.7600     2.4941   292.4048    38.6562      .2476     5.5778
  746.9124     2.5195   295.6857    34.0000      .2676     8.9252
  747.0648     2.5781   298.9666    26.8594      .2222    14.6244
  747.2172     2.5859   302.2474    19.3281      .1245     9.3524
  747.3696     2.5312   298.1463    26.7500      .0820     4.8374
  747.5220     2.4453   294.0453    35.9062      .1284     4.0434
  747.6744     2.4336   289.9442    41.4375      .2456     4.2399
  747.8268     2.4531   285.8432    35.5938      .3027     6.5714
  747.9792     2.5195   254.6752    27.2656      .2725    11.9642
  748.1316     2.5254   244.0125    22.8281      .1748    15.0768
  748.2840     2.5234   241.9619    23.5000      .1289    16.9740
  748.4364     2.5254   254.2651    23.8125      .1348    17.8888
  748.5888     2.5254   280.1017    23.6562      .1406    11.2496
  748.7412     2.4824   329.3143    26.6250      .1284     5.8604
  748.8936     2.4004   375.6562    36.7500      .1416     3.6123
  749.0460     2.3398   401.4928    46.4375      .2041     2.6968
  749.1984     2.3203   407.6443    49.5625      .3145     2.5800
  749.3508     2.3340   405.1837    50.7188      .3970     2.8166
  749.5032     2.3633   398.6220    49.4688      .4341     2.9522
  749.6556     2.3613   398.6220    50.2812      .4106     3.0158
  749.8080     2.3418   396.1614    49.3125      .4106     2.8889
  749.9604     2.3359   377.7067    47.9375      .4102     3.2257
  750.1128     2.3730   380.5774    49.7500      .4165     3.2719
  750.2652     2.3770   389.5997    50.9062      .3740     3.1734
  750.4176     2.3477   409.2848    51.2500      .3501     2.9702
  750.5700     2.3066   411.3353    51.0312      .3784     2.6877
  750.7224     2.3086   406.4140    53.6875      .4253     2.6758
  750.8748     2.3281   406.8242    55.5625      .4473     2.4521
  751.0272     2.3750   396.5715    53.9688      .4243     2.2490
  751.1796     2.3438   403.1332    50.1250      .4185     2.5044
  751.3320     2.3438   393.2907    52.0000      .4526     2.5702
  751.4844     2.3574   366.6339    55.4688      .4370     3.0428
  751.6368     2.4043   355.5610    55.2500      .3877     4.1043
  751.7892     2.4336   351.4600    52.7812      .3208     4.4753
  751.9416     2.4414   362.5328    48.3125      .3105     4.4577
  752.0940     2.4473   415.8465    50.2812      .3296     4.0419
  752.2464     2.4277   427.3294    50.4062      .3330     3.0853
  752.3988     2.3672   424.4587    54.8125      .3486     2.4358
  752.5512     2.3066   421.5880    57.1250      .3994     2.0477
  752.7036     2.2812   418.7172    62.8438      .4355     1.8068
  752.8560     2.2500   415.8465    66.2500      .4814     2.0276
  753.0084     2.2832   358.4318    65.0000      .5054     2.8777
  753.1608     2.3398   291.5847    54.3438      .5103     4.9149
  753.3132     2.4551   285.1255    38.9375      .4082    11.3126
  753.4656     2.5312   278.6663    25.7969      .2563    22.7481
  753.6180     2.5586   272.2072    20.4531      .1279    13.3767
  753.7704     2.5410   265.7480    24.1250      .0986     9.7804
  753.9228     2.5410   274.3602    28.2656      .1226     9.4403
  754.0752     2.5391   268.6188    32.1875      .1714    10.6754
  754.2276     2.5449   281.7421    30.3906      .1904    10.6825
  754.3800     2.5254   313.3202    31.1562      .1680     7.4778
  754.5324     2.4883   369.5046    34.2812      .1436     4.3884
  754.6848     2.4180   407.2343    44.6875      .1821     2.9174
  754.8372     2.3633   442.0932    57.0938      .2764     2.3417
  754.9896     2.3047   447.0144    64.3125      .3574     2.2351
  755.1420     2.2754   448.6548    66.5000      .3911     2.1687
  755.2944     2.2461   437.9921    65.1875      .3955     2.5553
  755.4468     2.2559   432.2507    65.3125      .4546     2.8275
  755.5992     2.2988   433.8911    62.8750      .4414     2.8380
  755.7516     2.3301   447.0144    61.3750      .4165     2.5953
  755.9040     2.2871   465.0591    63.2812      .3726     2.2453
  756.0564     2.2305   463.8287    64.8750      .4146     2.1361
  756.2088     2.2168   456.0367    64.0000      .4624     2.2265
  756.3612     2.2578   426.5092    60.2500      .4473     2.3998
  756.5136     2.2754   388.7795    56.4688      .4224     2.8724
  756.6660     2.3027   338.7467    55.4062      .4238     3.8824
  756.8184     2.3770   327.6739    48.1562      .4072     6.7829
  756.9708     2.4727   332.6977    40.2812      .3311    14.3771
  757.1232     2.5449   337.7215    32.5000      .2109    19.8057
  757.2756     2.5410   342.7452    31.1250      .1357    10.5966
  757.4280     2.5156   347.7690    35.9375      .1270     5.0718
  757.5804     2.4160   395.3412    43.8125      .1704     3.4125
  757.7328     2.3242   427.3294    51.6250      .2427     2.8294
  757.8852     2.2656   427.3294    57.8125      .3247     2.8452
