~VERSION INFORMATION
VERS.                                                 2.0:   CWLS Log ASCII Standard-VERSION 2.0
WRAP.                                                  NO:   One line per depth step
~Well Information Block
STRT.M                                            14.3256:   Top Depth
STOP.M                                          1031.1384:   Bottom Depth
STEP.M                                             .15240:   Depth Increment
NULL.                                            -999.250:   Null Value
FLD .                                                NIMR:   Field Name
WELL.                                            NIMR-8H1:   NAME
LOC .                                         NIMR DQ-104:   AREA NAME
EDF .                                              214.46:   ELEV DRILL FLOOR
EPD .                                                   0:   ELEV PERM DATUM
EGL .                                              208.97:   GROUND LEVEL
COMP.                          Petroleum Development Oman:   OPERATOR
PDAT.                                                 MSL:   PERM DATUM
COUN.                                             RIG01_4:   RIG NAME
SPUD.                                          1982/03/03:   SPUD DATE
LATI.                                         18.69955655:   SURF. LATITUDE
LONG.                                         55.92375545:   SURF. LONGITUDE
UTME.                                           386515.66:   SURF. UTM E
UTMN.                                          2067747.29:   SURF. UTM N
CNTY.                                             RIG01_4:   COUNTY
~PARAMETER INFORMATION (log)
LNAM.                                              PUBLIC:   NAME
LTYP.                                              JOINED:   LOG TYPE
LSRV.                                            CLEAN UP:   SERVICE
LSOU.                                               FUGRO:   LOG SOURCE
LVSN.                                                   1:   LOG VERSION
BHIS.                                                   R:   BRIEF HISTORY
TDD .M                                            1032.97:   FINAL TD DRILLER
TDL .M                                            1032.66:   FINAL TD LOGGER
FHIS.                                             RAW-LAS:   FULL HISTORY
~Curve Information Block
#MNEM.UNIT                                        API CODE    No Description
#=========                                        ========    == ===========
DEPT.M                                       00 001 00 00:     1  DEPTH
DEN.G/C3                                                 :     2  Bulk Density
DT.US/M                                                  :     3  Acoustic log
GR.API                                                   :     4  Gamma Ray
NEU.V/V                                                  :     5  Neutron Porosity in Limestone Units
RES_DEP.OHMM                                             :     6  Resistivity Deep
~ASCII
# ...
  888.1872     2.2910   434.7113    73.1875      .4810     1.9494
  888.3396     2.2910   441.2730    67.3125      .4795     2.1442
  888.4920     2.2988   438.8123    69.3125      .4419     2.2156
  888.6444     2.2754   436.3517    68.0625      .4180     2.2854
  888.7968     2.2598   440.4528    69.5000      .4341     2.1025
  888.9492     2.2539   444.5538    70.0625      .4805     1.8867
  889.1016     2.2715   443.3235    69.8750      .5034     1.8919
  889.2540     2.2812   442.0932    75.8125      .4937     2.0740
  889.4064     2.2871   440.8629    79.3125      .4658     2.1725
  889.5588     2.2793   439.6325    79.9375      .4829     2.1532
  889.7112     2.2695   434.7113    77.1250      .4927     2.0530
  889.8636     2.2500   436.3517    70.9375      .5176     1.9645
  890.0160     2.2559   451.1155    70.6875      .5024     2.0694
  890.1684     2.2793   452.7559    67.2500      .4834     2.3063
  890.3208     2.3027   446.1942    69.4375      .4668     2.4922
  890.4732     2.2949   433.8911    66.8750      .4287     2.6916
  890.6256     2.2852   421.5879    66.5000      .4209     2.4499
  890.7780     2.2871   426.5092    64.4375      .3901     2.2886
  890.9304     2.2949   435.5315    66.5625      .4033     2.3842
  891.0828     2.2793   437.1719    70.3125      .4102     2.2453
  891.2352     2.2793   444.5538    73.5000      .4248     2.2954
  891.3876     2.2832   449.4751    74.6875      .4365     2.3578
  891.5400     2.2930   447.8347    74.3750      .4409     2.4456
  891.6924     2.2871   447.0144    70.0000      .4849     2.4397
  891.8448     2.2598   448.6548    69.8750      .4790     2.6223
  891.9972     2.2598   447.0144    70.2500      .4878     2.7793
  892.1496     2.2617   440.4528    70.5625      .4414     2.6676
  892.3020     2.2656   436.3517    70.6875      .4287     2.4476
  892.4544     2.2793   435.5315    65.6875      .4385     2.6689
  892.6068     2.3203   421.5879    66.5625      .4375     3.1697
  892.7592     2.3711   406.8242    60.6250      .4092     3.2771
  892.9116     2.3770   390.4200    61.5312      .3740     3.2982
  893.0640     2.3398   384.6785    58.2500      .3979     2.8819
  893.2164     2.3359   392.8806    60.6875      .4302     2.5802
  893.3688     2.3496   402.7231    58.0000      .4243     2.8714
  893.5212     2.3555   406.0039    59.5938      .3906     2.9377
  893.6736     2.3164   401.9029    62.5000      .3862     2.7195
  893.8260     2.2793   410.1050    65.1250      .4346     2.3617
  893.9784     2.3008   424.0486    63.3125      .4897     2.2814
  894.1308     2.3418   431.4305    58.6562      .4854     2.7167
  894.2832     2.3633   428.1496    60.0938      .4316     2.9204
  894.4356     2.3340   416.6667    64.2500      .3896     2.9834
  894.5880     2.3125   415.0262    69.7500      .4097     2.6161
  894.7404     2.3086   427.3294    68.3750      .4526     2.3655
  894.8928     2.2891   433.0709    64.8750      .4824     2.4156
  895.0452     2.2793   441.2730    62.2500      .4678     2.5709
  895.1976     2.2930   437.9921    62.8750      .4629     2.9561
  895.3500     2.3184   433.0709    67.1875      .4233     2.8661
  895.5024     2.3184   435.5315    68.0000      .4497     2.9360
  895.6548     2.3242   429.7900    70.1250      .4688     3.1006
  895.8072     2.3359   417.4869    67.1250      .4868     2.7713
  895.9596     2.3398   418.3071    66.8125      .4707     2.6426
  896.1120     2.3086   420.7677    62.9062      .4678     2.5967
  896.2644     2.2969   420.7677    67.1875      .4766     2.5768
  896.4168     2.3086   424.0486    65.5000      .5186     2.6452
  896.5692     2.3262   424.0486    66.9375      .4995     2.9335
  896.7216     2.3320   415.0262    64.4375      .4834     3.0048
  896.8740     2.3223   404.3635    65.6250      .4634     3.0850
  897.0264     2.3184   396.1614    69.2500      .4502     2.9664
  897.1788     2.3086   395.3412    71.1250      .4546     2.8518
  897.3312     2.2891   396.9816    73.3750      .4429     2.8176
  897.4836     2.2715   401.9029    71.2500      .4492     2.7347
  897.6360     2.2695   420.7677    66.0000      .4683     2.6946
  897.7884     2.2773   433.0709    66.1875      .4722     2.6685
  897.9408     2.2871   435.5315    67.6250      .5000     2.6535
  898.0932     2.3359   427.7395    67.7500      .4956     3.0537
  898.2456     2.3887   404.3635    60.7188      .4375     3.9960
  898.3980     2.4551   374.8360    51.5000      .3428     5.2372
  898.5504     2.4727   335.4659    46.2812      .2490     7.7942
  898.7028     2.4707   332.5952    46.1562      .2158     9.4442
  898.8552     2.4395   329.7244    52.3750      .2134     7.0492
  899.0076     2.3633   326.8537    71.5000      .2310     4.9048
  899.1600     2.3027   323.9829    87.8750      .2686     3.9638
  899.3124     2.2559   346.1286   104.5625      .3213     3.1339
  899.4648     2.2363   376.4764   103.7500      .3667     3.4132
  899.6172     2.2051   383.8583   101.4375      .3979     5.0970
  899.7696     2.1641   385.4987    87.5000      .3843     7.3823
  899.9220     2.1348   402.7231    74.5625      .3682    11.6929
  900.0744     2.1309   396.1614    63.0000      .3423    25.0805
  900.2268     2.1328   399.4423    66.1250      .3467    24.5294
  900.3792     2.1191   399.4423    76.3750      .3428    19.5463
  900.5316     2.1230   390.4200    85.2500      .3413    13.8215
  900.6840     2.1348   396.9816    86.1875      .3599    10.3850
  900.8364     2.1328   399.4423    89.8125      .3740     9.4964
  900.9888     2.1230   405.5938    95.8125      .3994     9.7195
  901.1412     2.1426   410.1050   102.4375      .4141     9.1018
  901.2936     2.1875   413.3858   104.9375      .4116     8.8625
  901.4460     2.2051   405.1837    99.4375      .4092     9.2998
  901.5984     2.1836   393.7008    91.6875      .3735    11.4262
  901.7508     2.1777   383.0381    81.0625      .3569    16.6813
  901.9032     2.1738   376.4764    76.0000      .3281    27.7997
  902.0556     2.1543   370.7349    74.6250      .3135    33.6269
  902.2080     2.1250   374.0157    76.6875      .3306    24.9097
  902.3604     2.1074   383.0381    76.8125      .3599    27.1460
  902.5128     2.0859   384.6785    77.6875      .3877    26.7068
  902.6652     2.0684   384.6785    75.4375      .3765    31.3763
  902.8176     2.0762   382.2178    76.0000      .3701    56.8765
  902.9700     2.0820   387.1391    76.2500      .3667    55.9780
  903.1224     2.0820   396.9816    79.1875      .3730    53.2511
  903.2748     2.0703   397.8018    82.5625      .3721    54.9495
  903.4272     2.0684   398.6220    82.5625      .3828    56.7619
  903.5796     2.0664   398.6220    82.7500      .3848    51.3266
  903.7320     2.0664   394.5210    85.6875      .3765    43.2958
  903.8844     2.0762   389.5997    88.1250      .3882    39.4546
  904.0368     2.0840   385.4987    88.5625      .3926    36.2628
  904.1892     2.1035   376.4764    80.9375      .3667    44.7906
  904.3416     2.1133   370.7349    74.9375      .3340    60.8348
  904.4940     2.1191   365.8137    68.8125      .3047    80.4673
  904.6464     2.1270   365.8137    70.2500      .3052    83.4582
  904.7988     2.1191   375.6562    77.3750      .2832    44.2921
  904.9512     2.1348   382.2178    87.6250      .3091    29.3399
  905.1036     2.1152   387.1391   100.3750      .3433    21.8176
  905.2560     2.1387   383.8583   104.3125      .4038    20.4421
  905.4084     2.1250   388.7795    95.7500      .4014    26.5365
  905.5608     2.1055   396.1614    83.0625      .3931    36.7688
  905.7132     2.0703   392.0604    75.8125      .3789    58.4004
  905.8656     2.0566   391.2401    76.3125      .3711    89.9618
  906.0180     2.0859   400.2625    71.5000      .3682   118.7424
  906.1704     2.0898   392.8806    67.1250      .3296   145.9124
  906.3228     2.1035   393.7008    63.5312      .3291   165.6713
  906.4752     2.0977   385.4987    64.5625      .3179   147.8952
  906.6276     2.1387   383.0381    64.8750      .3389   112.7419
