~VERSION INFORMATION
VERS.                                                 2.0:   CWLS Log ASCII Standard-VERSION 2.0
WRAP.                                                  NO:   One line per depth step
~Well Information Block
STRT.M                                            14.3256:   Top Depth
STOP.M                                          1031.1384:   Bottom Depth
STEP.M                                             .15240:   Depth Increment
NULL.                                            -999.250:   Null Value
FLD .                                                NIMR:   Field Name
WELL.                                            NIMR-8H1:   NAME
LOC .                                         NIMR DQ-104:   AREA NAME
EDF .                                              214.46:   ELEV DRILL FLOOR
EPD .                                                   0:   ELEV PERM DATUM
EGL .                                              208.97:   GROUND LEVEL
COMP.                          Petroleum Development Oman:   OPERATOR
PDAT.                                                 MSL:   PERM DATUM
COUN.                                             RIG01_4:   RIG NAME
SPUD.                                          1982/03/03:   SPUD DATE
LATI.                                         18.69955655:   SURF. LATITUDE
LONG.                                         55.92375545:   SURF. LONGITUDE
UTME.                                           386515.66:   SURF. UTM E
UTMN.                                          2067747.29:   SURF. UTM N
CNTY.                                             RIG01_4:   COUNTY
~PARAMETER INFORMATION (log)
LNAM.                                              PUBLIC:   NAME
LTYP.                                              JOINED:   LOG TYPE
LSRV.                                            CLEAN UP:   SERVICE
LSOU.                                               FUGRO:   LOG SOURCE
LVSN.                                                   1:   LOG VERSION
BHIS.                                                   R:   BRIEF HISTORY
TDD .M                                            1032.97:   FINAL TD DRILLER
TDL .M                                            1032.66:   FINAL TD LOGGER
FHIS.                                             RAW-LAS:   FULL HISTORY
~Curve Information Block
#MNEM.UNIT                                        API CODE    No Description
#=========                                        ========    == ===========
DEPT.M                                       00 001 00 00:     1  DEPTH
DEN.G/C3                                                 :     2  Bulk Density
DT.US/M                                                  :     3  Acoustic log
GR.API                                                   :     4  Gamma Ray
NEU.V/V                                                  :     5  Neutron Porosity in Limestone Units
RES_DEP.OHMM                                             :     6  Resistivity Deep
~ASCII
# ...
  981.1512     2.3223   335.4659    80.0000      .2866     5.4974
  981.3036     2.3262   338.3366    77.5000      .2778     5.1853
  981.4560     2.3008   339.9770    73.5625      .2935     4.9943
  981.6084     2.2793   331.3648    73.7500      .3066     4.6796
  981.7608     2.2754   316.6010    68.8125      .3164     5.3030
  981.9132     2.2969   307.1686    64.4375      .3081     6.2423
  982.0656     2.3066   289.1240    56.0938      .2729     6.7994
  982.2180     2.3379   283.7927    60.6562      .2334     7.9230
  982.3704     2.3770   282.9724    67.4375      .2085     8.4299
  982.5228     2.4160   268.6188    70.1250      .2153     8.4433
  982.6752     2.4512   266.1581    67.6250      .2139    10.3462
  982.8276     2.4453   270.6693    66.8125      .2075    11.9329
  982.9800     2.4238   282.9724    66.3125      .2031     9.4725
  983.1324     2.3438   296.9160    57.1250      .2119     7.2053
  983.2848     2.2812   310.8596    49.3438      .2217     5.6653
  983.4372     2.2461   321.9324    42.8750      .2246     4.7927
  983.5896     2.2227   326.4436    44.6562      .2354     4.5465
  983.7420     2.2188   328.4941    45.9062      .2363     4.5620
  983.8944     2.2051   331.7749    46.3438      .2471     4.4825
  984.0468     2.2109   333.0052    45.1875      .2500     4.4029
  984.1992     2.2070   333.0052    41.8750      .2529     4.4192
  984.3516     2.2285   327.6739    41.5625      .2505     4.5258
  984.5040     2.2344   319.8819    42.9062      .2471     4.7054
  984.6564     2.2402   319.4718    44.7500      .2461     4.8220
  984.8088     2.2266   319.8819    49.1250      .2471     4.9288
  984.9612     2.2207   325.6234    50.7500      .2510     4.9429
  985.1136     2.2168   330.9547    51.0938      .2573     4.5649
  985.2660     2.2109   332.5952    47.5000      .2700     4.4525
  985.4184     2.2129   326.4436    48.0000      .2764     4.5282
  985.5708     2.2344   318.6516    48.1875      .2671     4.7157
  985.7232     2.2734   305.5282    50.6562      .2520     5.1233
  985.8756     2.3164   298.1463    46.2500      .2373     5.7199
  986.0280     2.3184   295.2756    48.3125      .2402     6.3088
  986.1804     2.3438   295.2756    47.9688      .2236     6.6630
  986.3328     2.3301   296.5059    51.9062      .2158     6.8023
  986.4852     2.3242   296.5059    46.8438      .2202     6.7972
  986.6376     2.3047   291.1745    48.7188      .2256     6.5650
  986.7900     2.3164   283.3825    50.2500      .2231     6.7598
  986.9424     2.3438   277.2310    55.9375      .2036     7.5639
  987.0948     2.3711   273.9501    55.5938      .2012     8.3585
  987.2472     2.3672   282.9724    56.6250      .1968     8.6922
  987.3996     2.3301   294.4554    59.1875      .2104     7.8573
  987.5520     2.2871   303.0676    57.1562      .2290     6.9875
  987.7044     2.2441   312.9101    55.2812      .2388     6.0877
  987.8568     2.2422   315.7809    50.8125      .2520     5.5138
  988.0092     2.2324   319.8819    49.8438      .2515     5.4252
  988.1616     2.2227   320.7021    48.4688      .2476     5.2167
  988.3140     2.2109   326.0335    53.0312      .2529     5.0088
  988.4664     2.2227   326.8537    53.9375      .2534     5.0053
  988.6188     2.2363   324.8032    52.2812      .2769     5.0757
  988.7712     2.2500   322.3425    43.9062      .2607     5.1036
  988.9236     2.2520   319.4718    39.9375      .2563     5.0175
  989.0760     2.2539   324.3930    38.5938      .2471     4.9039
  989.2284     2.2441   321.5223    40.2188      .2563     4.7929
  989.3808     2.2305   318.2415    42.4062      .2612     4.8747
  989.5332     2.2402   318.2415    42.9688      .2603     4.9644
  989.6856     2.2441   320.7021    43.7812      .2524     5.0850
  989.8380     2.2402   327.2638    40.0625      .2441     4.9330
  989.9904     2.2070   335.4659    38.2188      .2422     4.5272
  990.1428     2.1738   346.1286    32.3125      .2500     4.0828
  990.2952     2.1406   351.0499    37.4375      .2681     3.5887
  990.4476     2.1211   348.9993    41.0312      .2812     3.3785
  990.6000     2.1230   349.8195    42.1875      .2944     3.5041
  990.7524     2.1406   350.2296    37.9688      .2925     3.5572
  990.9048     2.1523   351.8701    35.4688      .2954     3.6102
  991.0572     2.1484   350.6398    39.5312      .2964     3.6774
  991.2096     2.1387   351.4600    40.5938      .3022     3.5193
  991.3620     2.1367   350.6398    39.6250      .3032     3.4677
  991.5144     2.1504   347.7690    37.1875      .2832     3.5285
  991.6668     2.1875   339.5669    37.2188      .2661     3.6969
  991.8192     2.2207   339.5669    39.1875      .2427     4.0251
  991.9716     2.2363   339.1568    41.5312      .2368     4.3174
  992.1240     2.2188   333.8255    41.0000      .2324     4.6801
  992.2764     2.2148   334.2356    40.8125      .2334     4.6899
  992.4288     2.2070   334.6457    38.9062      .2554     4.4992
  992.5812     2.2051   333.4153    37.3438      .2642     4.3687
  992.7336     2.2051   331.7749    36.7500      .2744     4.4014
  992.8860     2.2246   321.9324    36.8125      .2656     4.6529
  993.0384     2.2520   321.1122    40.8125      .2637     4.8559
  993.1908     2.2773   329.7244    44.2812      .2524     4.9388
  993.3432     2.2754   341.6175    50.2812      .2539     4.9118
  993.4956     2.2617   352.2802    53.1250      .2598     4.5921
  993.6480     2.2520   356.7914    52.6875      .2700     4.3827
  993.8004     2.2441   354.3307    47.2188      .2695     4.2278
  993.9528     2.2266   343.2579    41.9062      .2729     4.0713
  994.1052     2.2148   341.6175    39.4688      .2744     4.1730
  994.2576     2.2188   327.2638    38.1875      .2749     4.3181
  994.4100     2.2461   319.4718    38.5938      .2661     4.6216
  994.5624     2.2734   321.9324    36.7812      .2568     4.8833
  994.7148     2.2617   324.8032    36.8125      .2598     4.8474
  994.8672     2.2402   326.0335    35.0312      .2632     4.6874
  995.0196     2.2051   327.2638    37.0625      .2637     4.4906
  995.1720     2.1836   335.4659    38.6250      .2642     4.3544
  995.3244     2.1582   345.3084    39.8750      .2598     4.1289
  995.4768     2.1328   353.5105    38.5625      .2847     3.6795
  995.6292     2.1250   355.9711    37.1562      .2847     3.3721
  995.7816     2.1270   355.5610    38.1875      .2959     3.4041
  995.9340     2.1309   351.4600    38.5312      .2930     3.5264
  996.0864     2.1387   350.2296    39.5000      .3140     3.5133
  996.2388     2.1309   348.1791    37.8438      .3359     3.5373
  996.3912     2.1621   341.2073    38.1875      .3335     3.6672
  996.5436     2.1797   337.9265    36.0312      .2974     4.0292
  996.6960     2.2129   333.4153    36.4062      .2671     4.2540
  996.8484     2.2148   329.7244    35.4062      .2588     4.4432
  997.0008     2.2168   330.5446    38.2812      .2676     4.5907
  997.1532     2.2148   332.1850    37.9688      .2690     4.4380
  997.3056     2.1953   333.0052    37.4688      .2646     4.2240
  997.4580     2.1777   333.8255    36.6875      .2720     4.2599
  997.6104     2.1641   333.8255    38.8125      .2861     4.3318
  997.7628     2.1738   335.0558    48.8750      .2969     4.3334
  997.9152     2.1875   342.4377    57.8438      .3027     4.4396
  998.0676     2.1953   346.9488    62.1250      .3091     4.5693
  998.2200     2.1895   347.3589    55.1875      .3101     4.4817
  998.3724     2.1797   342.8478    46.7812      .3066     4.3079
  998.5248     2.1777   338.3366    42.5625      .2871     4.4149
  998.6772     2.1895   332.5952    41.5625      .2803     4.5544
  998.8296     2.2012   330.9547    40.6250      .2695     4.6457
  998.9820     2.2051   335.0558    39.1250      .2720     4.6096
  999.1344     2.1934   337.5164    38.4688      .2705     4.4108
  999.2868     2.1855   338.7467    41.6875      .2700     4.4290
  999.4392     2.1934   339.1568    43.2188      .2646     4.4021
  999.5916     2.2031   334.2356    44.8125      .2529     4.5464
