~VERSION INFORMATION
VERS.                                                 2.0:   CWLS Log ASCII Standard-VERSION 2.0
WRAP.                                                  NO:   One line per depth step
~Well Information Block
STRT.M                                            14.3256:   Top Depth
STOP.M                                          1031.1384:   Bottom Depth
STEP.M                                             .15240:   Depth Increment
NULL.                                            -999.250:   Null Value
FLD .                                                NIMR:   Field Name
WELL.                                            NIMR-8H1:   NAME
LOC .                                         NIMR DQ-104:   AREA NAME
EDF .                                              214.46:   ELEV DRILL FLOOR
EPD .                                                   0:   ELEV PERM DATUM
EGL .                                              208.97:   GROUND LEVEL
COMP.                          Petroleum Development Oman:   OPERATOR
PDAT.                                                 MSL:   PERM DATUM
COUN.                                             RIG01_4:   RIG NAME
SPUD.                                          1982/03/03:   SPUD DATE
LATI.                                         18.69955655:   SURF. LATITUDE
LONG.                                         55.92375545:   SURF. LONGITUDE
UTME.                                           386515.66:   SURF. UTM E
UTMN.                                          2067747.29:   SURF. UTM N
CNTY.                                             RIG01_4:   COUNTY
~PARAMETER INFORMATION (log)
LNAM.                                              PUBLIC:   NAME
LTYP.                                              JOINED:   LOG TYPE
LSRV.                                            CLEAN UP:   SERVICE
LSOU.                                               FUGRO:   LOG SOURCE
LVSN.                                                   1:   LOG VERSION
BHIS.                                                   R:   BRIEF HISTORY
TDD .M                                            1032.97:   FINAL TD DRILLER
TDL .M                                            1032.66:   FINAL TD LOGGER
FHIS.                                             RAW-LAS:   FULL HISTORY
~Curve Information Block
#MNEM.UNIT                                        API CODE    No Description
#=========                                        ========    == ===========
DEPT.M                                       00 001 00 00:     1  DEPTH
DEN.G/C3                                                 :     2  Bulk Density
DT.US/M                                                  :     3  Acoustic log
GR.API                                                   :     4  Gamma Ray
NEU.V/V                                                  :     5  Neutron Porosity in Limestone Units
RES_DEP.OHMM                                             :     6  Resistivity Deep
~ASCII
# ...
  999.7440     2.2070   331.7749    41.3438      .2632     4.7338
  999.8964     2.2129   333.4153    41.5938      .2573     4.7007
 1000.0488     2.2031   337.1063    41.2812      .2520     4.5864
 1000.2012     2.1914   339.1568    43.4062      .2412     4.5058
 1000.3536     2.1719   341.2073    42.3125      .2637     4.2722
 1000.5060     2.1680   339.5669    41.5000      .2788     4.1872
 1000.6584     2.1719   335.4659    38.8125      .2764     4.3316
 1000.8108     2.1816   333.0052    36.0312      .2700     4.4611
 1000.9632     2.1855   331.7749    34.5625      .2573     4.6065
 1001.1156     2.1855   335.8760    36.3125      .2612     4.5166
 1001.2680     2.1836   337.9265    37.2500      .2544     4.3269
 1001.4204     2.1777   334.6457    38.6875      .2583     4.4430
 1001.5728     2.1855   328.9042    37.5938      .2598     4.5941
 1001.7252     2.1953   323.9829    37.7812      .2539     4.6925
 1001.8776     2.2188   321.9324    36.9062      .2622     4.9071
 1002.0300     2.2246   320.2920    37.2188      .2534     4.9667
 1002.1824     2.2246   319.4718    37.4375      .2583     4.9271
 1002.3348     2.2188   323.1627    38.3125      .2583     4.8759
 1002.4872     2.2227   328.0840    39.1875      .2676     4.8738
 1002.6396     2.2090   332.5952    46.8125      .2637     4.7667
 1002.7920     2.1973   339.1568    58.0625      .2568     4.6393
 1002.9444     2.1855   339.9770    66.6250      .2554     4.6604
 1003.0968     2.1855   339.1568    70.3750      .2671     4.5534
 1003.2492     2.1797   332.5952    64.8750      .2754     4.5514
 1003.4016     2.1895   327.2638    69.1875      .2866     4.7388
 1003.5540     2.2090   323.1627    73.3125      .2822     4.9530
 1003.7064     2.2266   321.5223    81.1250      .2759     5.0411
 1003.8588     2.2227   326.4436    80.5625      .2783     5.1319
 1004.0112     2.2051   331.3648    78.6875      .2778     4.9197
 1004.1636     2.1934   333.8255    70.5625      .2959     4.7063
 1004.3160     2.1953   332.5952    57.9375      .2900     4.5936
 1004.4684     2.1992   326.0335    43.6875      .2964     4.5183
 1004.6208     2.2031   328.4941    37.0625      .2812     4.5913
 1004.7732     2.2012   326.8537    34.0625      .2734     4.5060
 1004.9256     2.1953   324.8032    35.8750      .2725     4.5921
 1005.0780     2.2090   322.7526    35.1562      .2695     4.7096
 1005.2304     2.2207   321.1122    36.0000      .2642     4.9103
 1005.3828     2.2344   321.5223    35.2812      .2437     4.8810
 1005.5352     2.2305   321.9324    34.8125      .2432     4.8916
 1005.6876     2.2148   324.8032    38.5312      .2476     4.7426
 1005.8400     2.2207   325.2133    38.0938      .2563     4.6599
 1005.9924     2.2266   323.9829    39.9062      .2471     4.8661
 1006.1448     2.2285   326.8537    38.0625      .2393     4.9660
 1006.2972     2.2070   333.8255    39.5000      .2383     4.4958
 1006.4496     2.1602   336.2861    35.4375      .2642     4.0897
 1006.6020     2.1699   339.5669    35.4062      .2754     3.8037
 1006.7544     2.1855   340.3871    36.6875      .2671     3.7642
 1006.9068     2.1973   336.2861    41.3438      .2661     4.1029
 1007.0592     2.1992   331.3648    41.3750      .2666     4.3453
 1007.2116     2.1973   327.6739    41.2812      .2803     4.5370
 1007.3640     2.2012   326.8537    39.6562      .2778     4.5269
 1007.5164     2.1953   330.5446    41.5312      .2720     4.4368
 1007.6688     2.1953   332.1850    42.8438      .2603     4.4022
 1007.8212     2.1992   332.1850    43.3438      .2656     4.3807
 1007.9736     2.1992   333.0052    43.3438      .2656     4.3346
 1008.1260     2.1914   332.5952    42.6250      .2646     4.3079
 1008.2784     2.1758   336.6962    43.1875      .2759     4.3437
 1008.4308     2.1582   338.3366    46.8438      .2720     4.1995
 1008.5832     2.1621   336.2861    50.0312      .2695     4.0960
 1008.7356     2.1719   333.0052    55.5938      .2578     4.3173
 1008.8880     2.1816   331.3648    59.9062      .2612     4.4797
 1009.0404     2.1914   333.4153    65.0000      .2686     4.5509
 1009.1928     2.1816   339.5669    62.3750      .2881     4.5198
 1009.3452     2.1758   340.7972    59.8438      .3008     4.3776
 1009.4976     2.1641   340.3871    55.0938      .2959     4.3502
 1009.6500     2.1699   337.5164    53.3750      .2905     4.3948
 1009.8024     2.1680   335.8760    51.6562      .2773     4.2867
 1009.9548     2.1699   336.2861    49.6562      .2827     4.3540
 1010.1072     2.1855   329.7244    48.8125      .2695     4.3640
 1010.2596     2.2031   323.9829    50.5625      .2695     4.5027
 1010.4120     2.2305   318.6516    56.2812      .2656     4.8622
 1010.5644     2.2500   316.6010    62.7812      .2617     5.3026
 1010.7168     2.2578   314.9606    67.5625      .2559     5.5614
 1010.8692     2.2656   323.9829    67.1250      .2529     5.4742
 1011.0216     2.2520   330.1345    63.7812      .2603     5.0762
 1011.1740     2.2383   336.2861    64.3125      .2695     4.6696
 1011.3264     2.2109   340.3871    62.8750      .2798     4.5537
 1011.4788     2.1973   339.5669    63.4375      .2817     4.3475
 1011.6312     2.1875   337.1063    55.0000      .2827     4.2128
 1011.7836     2.1777   339.1568    50.9062      .2642     4.1871
 1011.9360     2.1680   338.3366    48.4688      .2524     4.0762
 1012.0884     2.1621   336.2861    46.7500      .2573     4.0068
 1012.2408     2.1641   335.0558    45.1250      .2729     4.1734
 1012.3932     2.1680   337.1063    42.0938      .2803     4.2195
 1012.5456     2.1660   337.1063    42.5938      .2837     4.0708
 1012.6980     2.1641   338.7467    43.5000      .2861     4.0738
 1012.8504     2.1660   340.3871    44.3125      .2998     3.9857
 1013.0028     2.1699   338.3366    44.5312      .2998     3.9136
 1013.1552     2.1699   337.9265    45.7812      .2964     4.0431
 1013.3076     2.1738   340.7972    45.5625      .2847     4.1966
 1013.4600     2.1816   338.7467    46.3750      .2852     4.1145
 1013.6124     2.1875   337.5164    47.3125      .2886     4.1719
 1013.7648     2.1816   340.3871    48.8125      .2969     4.2289
 1013.9172     2.1738   341.2073    51.8125      .2964     4.1640
 1014.0696     2.1680   340.3871    49.2188      .2979     4.2409
 1014.2220     2.1680   337.5164    48.8750      .2939     4.3079
 1014.3744     2.1699   335.8760    48.4375      .2920     4.2742
 1014.5268     2.1797   330.1345    49.4062      .2939     4.4244
 1014.6792     2.1934   322.7526    51.2812      .2900     4.7505
 1014.8316     2.2109   314.9606    53.5625      .2739     5.1022
 1014.9840     2.2246   309.2191    58.5000      .2646     5.4007
 1015.1364     2.2285   305.9383    59.5625      .2632     5.5678
 1015.2888     2.2383   309.6293    59.3125      .2695     5.5870
 1015.4412     2.2480   309.2191    57.2812      .2583     5.3333
 1015.5936     2.2539   308.8091    57.1875      .2598     5.5800
 1015.7460     2.2637   302.6575    54.7188      .2441     5.8780
 1015.8984     2.2852   297.3261    56.9375      .2534     6.4052
 1016.0508     2.3164   294.8655    61.6562      .2471     6.6429
 1016.2032     2.3164   296.9160    65.6875      .2603     6.6511
 1016.3556     2.2949   304.2979    70.5625      .2612     6.4551
 1016.5080     2.2812   314.9606    69.1875      .2524     5.8867
 1016.6604     2.2539   321.5223    72.6250      .2451     5.5157
 1016.8128     2.2246   328.4941    72.4375      .2485     5.1124
 1016.9652     2.1875   334.6457    72.4375      .2656     4.6321
 1017.1176     2.1699   333.8255    66.1250      .2734     4.4681
 1017.2700     2.1699   330.9547    58.4688      .2769     4.5623
 1017.4224     2.1797   330.5446    54.6562      .2759     4.6035
 1017.5748     2.1934   326.0335    55.5938      .2812     4.7138
 1017.7272     2.1992   325.2133    57.0000      .2729     4.9164
 1017.8796     2.1973   329.3143    56.0625      .2744     4.8141
 1018.0320     2.1934   329.7244    52.2500      .2754     4.6104
 1018.1844     2.1855   335.4659    53.5312      .2842     4.5784
