~VERSION INFORMATION
VERS.                                                 2.0:   CWLS Log ASCII Standard-VERSION 2.0
WRAP.                                                  NO:   One line per depth step
~Well Information Block
STRT.M                                            14.3256:   Top Depth
STOP.M                                          1031.1384:   Bottom Depth
STEP.M                                             .15240:   Depth Increment
NULL.                                            -999.250:   Null Value
FLD .                                                NIMR:   Field Name
WELL.                                            NIMR-8H1:   NAME
LOC .                                         NIMR DQ-104:   AREA NAME
EDF .                                              214.46:   ELEV DRILL FLOOR
EPD .                                                   0:   ELEV PERM DATUM
EGL .                                              208.97:   GROUND LEVEL
COMP.                          Petroleum Development Oman:   OPERATOR
PDAT.                                                 MSL:   PERM DATUM
COUN.                                             RIG01_4:   RIG NAME
SPUD.                                          1982/03/03:   SPUD DATE
LATI.                                         18.69955655:   SURF. LATITUDE
LONG.                                         55.92375545:   SURF. LONGITUDE
UTME.                                           386515.66:   SURF. UTM E
UTMN.                                          2067747.29:   SURF. UTM N
CNTY.                                             RIG01_4:   COUNTY
~PARAMETER INFORMATION (log)
LNAM.                                              PUBLIC:   NAME
LTYP.                                              JOINED:   LOG TYPE
LSRV.                                            CLEAN UP:   SERVICE
LSOU.                                               FUGRO:   LOG SOURCE
LVSN.                                                   1:   LOG VERSION
BHIS.                                                   R:   BRIEF HISTORY
TDD .M                                            1032.97:   FINAL TD DRILLER
TDL .M                                            1032.66:   FINAL TD LOGGER
FHIS.                                             RAW-LAS:   FULL HISTORY
~Curve Information Block
#MNEM.UNIT                                        API CODE    No Description
#=========                                        ========    == ===========
DEPT.M                                       00 001 00 00:     1  DEPTH
DEN.G/C3                                                 :     2  Bulk Density
DT.US/M                                                  :     3  Acoustic log
GR.API                                                   :     4  Gamma Ray
NEU.V/V                                                  :     5  Neutron Porosity in Limestone Units
RES_DEP.OHMM                                             :     6  Resistivity Deep
~ASCII
# ...
 1018.3368     2.1777   334.6457    53.5625      .2764     4.5485
 1018.4892     2.1699   335.0558    55.9062      .2817     4.4386
 1018.6416     2.1641   331.7749    54.5625      .2803     4.4899
 1018.7940     2.1621   330.9547    58.7188      .2764     4.4700
 1018.9464     2.1738   329.3143    59.3125      .2637     4.4661
 1019.0988     2.1797   329.7244    56.7500      .2603     4.4935
 1019.2512     2.1836   330.9547    53.4688      .2612     4.4015
 1019.4036     2.1699   333.4153    51.5312      .2661     4.3060
 1019.5560     2.1719   331.3648    52.1250      .2681     4.2709
 1019.7084     2.1641   334.6457    50.2500      .2793     4.3785
 1019.8608     2.1758   334.2356    51.8125      .2773     4.4646
 1020.0132     2.1680   331.7749    51.5938      .2734     4.3441
 1020.1656     2.1719   333.0052    51.9375      .2769     4.3027
 1020.3180     2.1660   330.1345    47.2812      .2773     4.2622
 1020.4704     2.1699   331.7749    45.1562      .2803     4.1961
 1020.6228     2.1641   331.3648    43.7812      .2671     4.2523
 1020.7752     2.1719   333.0052    42.5938      .2607     4.3657
 1020.9276     2.1758   334.2356    44.5938      .2598     4.4547
 1021.0800     2.1914   326.0335    43.7812      .2666     4.7401
 1021.2324     2.1953   324.8032    44.3750      .2686     4.8126
 1021.3848     2.1953   323.1627    43.5312      .2578     4.9834
 1021.5372     2.1875   330.1345    44.5625      .2446     4.9298
 1021.6896     2.1875   340.3871    46.9688      .2466     4.6596
 1021.8420     2.1816   342.0276    43.6562      .2568     4.4689
 1021.9944     2.1680   344.4882    45.0000      .2788     4.1737
 1022.1468     2.1758   342.0276    50.1875      .2764     4.2874
 1022.2992     2.1895   335.4659    58.1875      .2695     4.4129
 1022.4516     2.2129   329.7244    62.5000      .2681     4.6389
 1022.6040     2.2031   330.9547    59.4688      .2759     4.7956
 1022.7564     2.1992   329.7244    60.7500      .2778     4.8098
 1022.9088     2.1914   330.1345    60.0000      .2827     4.6365
 1023.0612     2.1934   331.3648    61.3750      .2783     4.5691
 1023.2136     2.1953   326.0335    59.5625      .2769     4.6749
 1023.3660     2.2109   325.6234    58.9688      .2622     4.8334
 1023.5184     2.2266   323.5728    59.8125      .2573     5.0159
 1023.6708     2.2207   328.0840    62.0625      .2627     5.0161
 1023.8232     2.2090   335.0558    62.0938      .2734     4.7790
 1023.9756     2.1855   335.4659    64.1875      .2798     4.5362
 1024.1280     2.1855   334.6457    62.4062      .2783     4.6881
 1024.2804     2.1875   334.2356    62.9375      .2646     4.6412
 1024.4328     2.1953   334.6457    61.9062      .2578     4.6338
 1024.5852     2.1973   331.7749    61.5938      .2563     4.6826
 1024.7376     2.2012   332.1850    63.8438      .2607     4.7049
 1024.8900     2.2031   335.4659    63.5312      .2725     4.7447
 1025.0424     2.2051   350.6398    64.0000      .2725     4.8411
 1025.1948     2.2012   351.8701    63.7812      .2876     4.9388
 1025.3472     2.2051   348.5892    64.6250      .2861     4.9606
 1025.4996     2.2051   348.9993  -999.2500      .2959     5.0004
 1025.6520     2.2051   349.8195  -999.2500      .2769     4.9405
 1025.8044     2.1914   351.0499  -999.2500      .2783     4.8963
 1025.9568     2.1855   346.9488  -999.2500      .2734     4.6469
 1026.1092     2.1895   345.7185  -999.2500      .2739     4.6909
 1026.2616     2.2012   343.6680  -999.2500      .2725     4.8349
 1026.4140     2.2168   338.3366  -999.2500      .2749     4.7380
 1026.5664     2.2188   333.8255  -999.2500      .2749     4.5416
 1026.7188     2.2227   333.8255  -999.2500      .2695     4.3888
 1026.8712     2.2168   408.8747  -999.2500      .2642     4.3924
 1027.0236     2.2070   409.6949  -999.2500      .2715     4.3799
 1027.1760     2.1836   409.2848  -999.2500      .2695     4.3844
 1027.3284     2.1699   408.0545  -999.2500      .2661     4.5376
 1027.4808     2.1680   408.8747  -999.2500      .2661  -999.2500
 1027.6332     2.1816   408.8747  -999.2500      .2671  -999.2500
 1027.7856     2.1875   410.5151  -999.2500      .2754  -999.2500
 1027.9380     2.1855   414.6161  -999.2500      .2778  -999.2500
 1028.0904     2.1797   410.5151  -999.2500      .2832  -999.2500
 1028.2428     2.1797   411.3353  -999.2500  -999.2500  -999.2500
 1028.3952     2.1816   412.5656  -999.2500  -999.2500  -999.2500
 1028.5476     2.1816   413.7959  -999.2500  -999.2500  -999.2500
 1028.7000     2.1758   415.0262  -999.2500  -999.2500  -999.2500
 1028.8524     2.1680  -999.2500  -999.2500  -999.2500  -999.2500
 1029.0048     2.1602  -999.2500  -999.2500  -999.2500  -999.2500
 1029.1572     2.1543  -999.2500  -999.2500  -999.2500  -999.2500
 1029.3096     2.1699  -999.2500  -999.2500  -999.2500  -999.2500
 1029.4620     2.1914  -999.2500  -999.2500  -999.2500  -999.2500
 1029.6144     2.2246  -999.2500  -999.2500  -999.2500  -999.2500
 1029.7668     2.2520  -999.2500  -999.2500  -999.2500  -999.2500
 1029.9192     2.2773  -999.2500  -999.2500  -999.2500  -999.2500
 1030.0716     2.3008  -999.2500  -999.2500  -999.2500  -999.2500
 1030.2240     2.2734  -999.2500  -999.2500  -999.2500  -999.2500
 1030.3764     2.2520  -999.2500  -999.2500  -999.2500  -999.2500
 1030.5288     2.2305  -999.2500  -999.2500  -999.2500  -999.2500
 1030.6812     2.2402  -999.2500  -999.2500  -999.2500  -999.2500
 1030.8336     2.2480  -999.2500  -999.2500  -999.2500  -999.2500
 1030.9860     2.2383  -999.2500  -999.2500  -999.2500  -999.2500
 1031.1384     2.2188  -999.2500  -999.2500  -999.2500  -999.2500
