~VERSION INFORMATION
VERS.                                                 2.0:   CWLS Log ASCII Standard-VERSION 2.0
WRAP.                                                  NO:   One line per depth step
~Well Information Block
STRT.M                                            61.2648:   Top Depth
STOP.M                                          2091.2328:   Bottom Depth
STEP.M                                             .15240:   Depth Increment
NULL.                                            -999.250:   Null Value
FLD .                                               YIBAL:   Field Name
WELL.                                           YIBAL-5H1:   NAME
LOC .                                     YIBAL 50-100-39:   AREA NAME
EDF .                                              116.42:   ELEV DRILL FLOOR
EPD .                                                   0:   ELEV PERM DATUM
EGL .                                              111.54:   GROUND LEVEL
SRVC.                                        SCHLUMBERGER:   LOGGING CONTRACTOR
COMP.                          Petroleum Development Oman:   OPERATOR
PDAT.                                                 MSL:   PERM DATUM
COUN.                                             RIG02_1:   RIG NAME
SPUD.                                          1967/02/12:   SPUD DATE
LATI.                                         22.15958657:   SURF. LATITUDE
LONG.                                          56.0289369:   SURF. LONGITUDE
UTME.                                           399872.59:   SURF. UTM E
UTMN.                                          2450604.47:   SURF. UTM N
~PARAMETER INFORMATION (log)
LNAM.                                              PUBLIC:   NAME
LTYP.                                              JOINED:   LOG TYPE
LSRV.                                            CLEAN UP:   SERVICE
LSOU.                                               FUGRO:   LOG SOURCE
LVSN.                                                   1:   LOG VERSION
BHIS.                                                   R:   BRIEF HISTORY
TDD .M                                            2093.98:   FINAL TD DRILLER
TDL .M                                            2091.54:   FINAL TD LOGGER
FHIS.                                             RAW-LAS:   FULL HISTORY
LCNM.                                        SCHLUMBERGER:   LOGGING CONTRACTOR
~Curve Information Block
#MNEM.UNIT                                        API CODE    No Description
#=========                                        ========    == ===========
DEPT.M                                       00 001 00 00:     1  DEPTH
DEN.G/CC                                                 :     2  Bulk Density
DT.US/M                                                  :     3  Acoustic log
GR.API                                                   :     4  Gamma Ray
NEU.V/V                                                  :     5  Neutron Porosity in Limestone Units
RES_DEP.OHMM                                             :     6  Resistivity Deep
~ASCII
# ...
 1530.0960     2.3019   278.4100     9.6038   895.6544      .2199
 1530.2484     2.3038   277.0520     9.5189   896.3167      .2131
 1530.4008     2.3129   276.8530     9.2811   888.4251      .2052
 1530.5532     2.3138   278.5540     9.0122   885.2654      .1994
 1530.7056     2.3049   278.0692     8.6383   890.5250      .1950
 1530.8580     2.3049   278.7944     8.7111   907.3719      .1920
 1531.0104     2.3078   279.0119     8.9863   910.4091      .1921
 1531.1628     2.3270   277.7564     9.0379   904.2391      .1930
 1531.3152     2.3114   275.6835     9.0504   895.8289      .1919
 1531.4676     2.3114   274.5666     9.0769   882.3506      .1911
 1531.6200     2.3248   273.5410     9.0974   882.0314      .1910
 1531.7724     2.3357   272.2216     9.2358   892.7805      .1910
 1531.9248     2.3456   270.7054     9.2332   902.1962      .1910
 1532.0772     2.3417   269.9469     9.2818   904.4674      .1923
 1532.2296     2.3401   269.7054     9.2974   905.0167      .1956
 1532.3820     2.3404   272.6872     9.3929   907.5179      .1984
 1532.5344     2.3397   274.5657     9.5801   902.9062      .2005
 1532.6868     2.3487   276.8574     9.8627   900.8166      .2033
 1532.8392     2.3277   279.4397    10.0600   903.0319      .2068
 1532.9916     2.3224   279.6534    10.0781   905.7739      .2092
 1533.1440     2.3186   278.4408    10.0038   909.4946      .2110
 1533.2964     2.3333   272.6471     9.9886   908.5634      .2130
 1533.4488     2.3441   270.0102    10.2408   897.6418      .2139
 1533.6012     2.3388   266.4803    10.1619   896.4056      .2153
 1533.7536     2.3377   264.9041     9.1694   897.1191      .2186
 1533.9060     2.3441   266.6949     8.4278   899.8368      .2201
 1534.0584     2.3416   274.3428    10.0921   906.9922      .2189
 1534.2108     2.3321   276.3031    10.3280   907.2845      .2191
 1534.3632     2.3410   274.6559    10.5226   903.1829      .2210
 1534.5156     2.3311   274.5337    10.2032   904.9731      .2219
 1534.6680     2.3196   272.9442     9.6163   906.6619      .2220
 1534.8204     2.3256   270.2157     9.6431   902.3453      .2212
 1534.9728     2.3298   268.0179     9.6919   904.9251      .2205
 1535.1252     2.3313   265.0210     9.7087   909.2451      .2213
 1535.2776     2.3456   263.3756     9.7895   902.9372      .2219
 1535.4300     2.3546   263.2409    10.0778   894.4023      .2249
 1535.5824     2.3583   263.6555    10.0542   893.5996      .2353
 1535.7348     2.3490   265.0881     9.5299   895.6767      .2524
 1535.8872     2.3446   266.0948     8.9547   903.9672      .2725
 1536.0396     2.3359   267.2331     8.7597   908.5301      .2935
 1536.1920     2.3410   271.4655     8.9763   900.9427      .3114
 1536.3444     2.3472   271.6648     9.6612   899.2288      .3227
 1536.4968     2.3493   271.3068    10.1904   914.2339      .3284
 1536.6492     2.3630   270.8350    10.3007   923.3188      .3309
 1536.8016     2.3543   271.4884    10.3479   922.0760      .3320
 1536.9540     2.3422   270.9174    10.3931   917.4805      .3309
 1537.1064     2.3275   269.7286    10.2209   915.0850      .3301
 1537.2588     2.3277   269.0364    10.2764   919.8215      .3292
 1537.4112     2.3152   268.7305    10.4941   925.7317      .3264
 1537.5636     2.3166   269.0188    10.4360   926.4979      .3233
 1537.7160     2.3236   269.6325     9.6955   927.8243      .3218
 1537.8684     2.3225   270.3420     9.0433   931.1281      .3205
 1538.0208     2.3220   271.5478     8.6213   929.1148      .3185
 1538.1732     2.3282   272.4877     8.2580   918.6933      .3165
 1538.3256     2.3321   273.2672     8.4359   916.3853      .3137
 1538.4780     2.3342   276.7106     9.2105   916.6751      .3100
 1538.6304     2.3189   277.0754     9.5071   915.9014      .3060
 1538.7828     2.3197   276.7464     9.3936   912.1585      .3010
 1538.9352     2.3172   276.1512     9.2839   904.0539      .2931
 1539.0876     2.3264   275.7198     9.4124   913.4349      .2824
 1539.2400     2.3303   275.0515     9.7176   922.8846      .2713
 1539.3924     2.3305   276.2606    10.3855   936.9394      .2629
 1539.5448     2.3389   276.3420    10.4514   939.0559      .2565
 1539.6972     2.3335   275.9418    10.4059   943.4697      .2518
 1539.8496     2.3465   276.9572    10.8097   946.1968      .2501
 1540.0020     2.3499   277.4645    11.4310   954.8854      .2500
 1540.1544     2.3263   278.4109    11.7636   953.7139      .2500
 1540.3068     2.3239   277.4437    11.7399   939.5803      .2500
 1540.4592     2.3290   277.0163    11.8902   934.8801      .2500
 1540.6116     2.3039   276.7723    11.9326   941.4463      .2500
 1540.7640     2.2949   277.3554    11.8602   948.6408      .2490
 1540.9164     2.2997   278.2010    12.2193   950.6683      .2470
 1541.0688     2.3070   278.3149    12.7823   942.8192      .2450
 1541.2212     2.3120   278.5712    12.8479   945.6319      .2409
 1541.3736     2.3243   278.5939    12.4634   963.0242      .2350
 1541.5260     2.3203   278.6186    12.3810   966.4849      .2377
 1541.6784     2.3264   278.7443    12.0911   977.8251      .2572
 1541.8308     2.3350   277.6812    12.0766   980.3225      .2859
 1541.9832     2.3417   276.8590    12.2795   991.6967      .3118
 1542.1356     2.3434   272.9719    12.7052  1010.0545      .3276
 1542.2880     2.3490   269.0029    13.3131  1014.3838      .3377
 1542.4404     2.3600   267.8200    14.1509  1012.4094      .3491
 1542.5928     2.3694   269.9127    15.1842  1001.5079      .3602
 1542.7452     2.3504   269.0675    16.7729   979.4709      .3679
 1542.8976     2.3211   268.4117    19.1690   972.1434      .3730
 1543.0500     2.3265   268.5335    21.7245   975.3087      .3759
 1543.2024     2.3483   269.6096    23.8001   989.6097      .3764
 1543.3548     2.3677   265.0270    25.0597   997.8760      .3749
 1543.5072     2.3859   258.0397    24.8510   998.8317      .3741
 1543.6596     2.3730   258.2190    22.1310   999.8738      .3730
 1543.8120     2.3522   261.8406    21.5816   999.3430      .3670
 1543.9644     2.3301   261.4199    19.5621   993.5394      .3548
 1544.1168     2.3259   260.9646    17.4681   988.5450      .3405
 1544.2692     2.3299   262.6964    15.6401   988.0099      .3255
 1544.4216     2.3243   266.8173    14.6680   987.3451      .3026
 1544.5740     2.3221   267.4161    14.3883   982.3540      .2678
 1544.7264     2.3209   266.8552    14.7356   984.4149      .2335
 1544.8788     2.3197   270.3350    15.3005   989.0600      .2155
 1545.0312     2.3239   270.3026    15.5838   992.0599      .2135
 1545.1836     2.3345   271.0276    15.1714   994.9559      .2212
 1545.3360     2.3580   273.1524    14.5369  1003.7474      .2415
 1545.4884     2.3787   273.4920    14.5077  1007.1617      .2723
 1545.6408     2.3882   275.8887    14.8466  1026.3053      .2965
 1545.7932     2.3826   272.1549    15.0247  1029.5692      .3049
 1545.9456     2.3713   268.6564    16.2330  1037.0732      .3049
 1546.0980     2.3762   268.9489    17.2507  1034.1985      .3030
 1546.2504     2.3710   268.0746    17.7871  1026.9806      .3013
 1546.4028     2.3618   266.4942    17.9971  1026.3993      .3018
 1546.5552     2.3615   264.9127    17.7566  1024.9386      .3085
 1546.7076     2.3671   264.1834    17.3227  1020.4246      .3196
 1546.8600     2.3543   266.0797    16.8856  1013.1793      .3310
 1547.0124     2.3520   267.5387    16.3651   999.0510      .3386
 1547.1648     2.3545   267.0680    15.7599   980.8795      .3355
 1547.3172     2.3579   266.0484    14.8138   983.8932      .3295
 1547.4696     2.3599   264.4958    14.6212   986.4841      .3346
 1547.6220     2.3774   263.1774    13.9390  1002.6647      .3429
 1547.7744     2.3849   261.8916    13.8111  1005.9148      .3476
 1547.9268     2.3694   258.9874    13.4127  1017.9436      .3526
 1548.0792     2.3699   259.3824    13.1380  1032.3199      .3577
 1548.2316     2.3724   259.1049    12.8070  1046.4113      .3609
 1548.3840     2.3883   258.4094    12.4180  1065.8530      .3619
 1548.5364     2.3998   259.0946    13.3797  1076.7942      .3641
