~VERSION INFORMATION
VERS.                                                 2.0:   CWLS Log ASCII Standard-VERSION 2.0
WRAP.                                                  NO:   One line per depth step
~Well Information Block
STRT.M                                            61.2648:   Top Depth
STOP.M                                          2091.2328:   Bottom Depth
STEP.M                                             .15240:   Depth Increment
NULL.                                            -999.250:   Null Value
FLD .                                               YIBAL:   Field Name
WELL.                                           YIBAL-5H1:   NAME
LOC .                                     YIBAL 50-100-39:   AREA NAME
EDF .                                              116.42:   ELEV DRILL FLOOR
EPD .                                                   0:   ELEV PERM DATUM
EGL .                                              111.54:   GROUND LEVEL
SRVC.                                        SCHLUMBERGER:   LOGGING CONTRACTOR
COMP.                          Petroleum Development Oman:   OPERATOR
PDAT.                                                 MSL:   PERM DATUM
COUN.                                             RIG02_1:   RIG NAME
SPUD.                                          1967/02/12:   SPUD DATE
LATI.                                         22.15958657:   SURF. LATITUDE
LONG.                                          56.0289369:   SURF. LONGITUDE
UTME.                                           399872.59:   SURF. UTM E
UTMN.                                          2450604.47:   SURF. UTM N
~PARAMETER INFORMATION (log)
LNAM.                                              PUBLIC:   NAME
LTYP.                                              JOINED:   LOG TYPE
LSRV.                                            CLEAN UP:   SERVICE
LSOU.                                               FUGRO:   LOG SOURCE
LVSN.                                                   1:   LOG VERSION
BHIS.                                                   R:   BRIEF HISTORY
TDD .M                                            2093.98:   FINAL TD DRILLER
TDL .M                                            2091.54:   FINAL TD LOGGER
FHIS.                                             RAW-LAS:   FULL HISTORY
LCNM.                                        SCHLUMBERGER:   LOGGING CONTRACTOR
~Curve Information Block
#MNEM.UNIT                                        API CODE    No Description
#=========                                        ========    == ===========
DEPT.M                                       00 001 00 00:     1  DEPTH
DEN.G/CC                                                 :     2  Bulk Density
DT.US/M                                                  :     3  Acoustic log
GR.API                                                   :     4  Gamma Ray
NEU.V/V                                                  :     5  Neutron Porosity in Limestone Units
RES_DEP.OHMM                                             :     6  Resistivity Deep
~ASCII
# ...
 1660.2456     2.6846   194.8567    32.0711  1530.8577    12.1542
 1660.3980     2.6860   193.1268    38.8248  1568.3040    12.3439
 1660.5504     2.6918   190.0853    39.6207  1576.8612    12.3846
 1660.7028     2.7014   187.8841    38.9728  1608.0702    12.4113
 1660.8552     2.6916   188.8835    36.4429  1630.6355    12.5786
 1661.0076     2.6790   186.5837    31.9501  1631.6437    12.7349
 1661.1600     2.6888   183.6327    28.2774  1623.4692    12.9033
 1661.3124     2.7004   186.4470    25.4477  1625.6772    13.0474
 1661.4648     2.6882   187.7957    23.0009  1634.2017    12.7691
 1661.6172     2.6728   189.2783    20.3413  1617.0837    12.2228
 1661.7696     2.6735   190.2884    21.1534  1544.7628    11.7390
 1661.9220     2.6769   192.8394    21.7360  1529.9922    11.1765
 1662.0744     2.6719   194.4981    25.3736  1486.2631    10.2752
 1662.2268     2.6597   197.1888    28.6304  1463.9774     9.2479
 1662.3792     2.6462   198.9510    30.6336  1458.6592     8.1819
 1662.5316     2.6320   198.0354    31.8564  1473.9551     7.1257
 1662.6840     2.6192   195.2157    31.4887  1481.8691     6.2611
 1662.8364     2.6091   193.7440    30.3093  1493.0603     5.4774
 1662.9888     2.5969   192.7607    27.6534  1495.7357     4.7272
 1663.1412     2.5851   192.2140    22.0474  1493.0901     4.1373
 1663.2936     2.5792   192.8906    20.1950  1478.6177     3.7581
 1663.4460     2.5728   194.7576    20.4461  1449.4973     3.4690
 1663.5984     2.5664   196.4713    20.7129  1419.1212     3.1873
 1663.7508     2.5666   198.9317    18.8448  1390.4797     2.9627
 1663.9032     2.5615   201.0877    18.3901  1386.9651     2.8145
 1664.0556     2.5525   201.4097    16.6565  1386.7734     2.7263
 1664.2080     2.5486   199.8766    14.8735  1396.7656     2.6948
 1664.3604     2.5562   198.1257    13.3789  1418.5853     2.7257
 1664.5128     2.5749   196.3694    12.4552  1438.6757     2.8214
 1664.6652     2.5919   194.4669    13.6660  1468.3065     2.9840
 1664.8176     2.6095   192.0323    15.0361  1487.6724     3.2370
 1664.9700     2.6277   193.0937    16.2855  1500.2208     3.5648
 1665.1224     2.6417   191.8582    17.5400  1514.8414     3.9672
 1665.2748     2.6582   191.2627    17.3628  1537.5887     4.4820
 1665.4272     2.6743   195.4317    16.8827  1560.5863     5.1179
 1665.5796     2.6815   195.0140    15.9062  1580.2495     5.7387
 1665.7320     2.6781   192.8884    14.3899  1601.1318     6.3567
 1665.8844     2.6759   189.3132    14.1437  1604.3906     7.0128
 1666.0368     2.6790   190.6235    13.6653  1611.3458     7.5147
 1666.1892     2.6800   189.9227    13.4193  1619.7157     7.7140
 1666.3416     2.6821   185.5123    13.4220  1607.9241     7.6424
 1666.4940     2.6783   189.5374    13.6162  1580.7919     7.4480
 1666.6464     2.6686   195.5872    13.8308  1559.6367     7.2414
 1666.7988     2.6528   195.0949    13.6178  1527.7875     7.0176
 1666.9512     2.6422   193.5213    13.3148  1508.4728     6.7550
 1667.1036     2.6344   194.1886    13.4548  1510.2728     6.4829
 1667.2560     2.6192   195.5777    13.8496  1523.4918     6.2197
 1667.4084     2.6166   192.0085    14.6230  1542.3229     6.0002
 1667.5608     2.6202   184.8725    15.9362  1547.2268     5.9195
 1667.7132     2.6277   185.5578    17.8209  1557.5425     6.0048
 1667.8656     2.6444   186.1740    18.0342  1560.0646     6.2030
 1668.0180     2.6573   187.7260    17.9010  1569.7418     6.4456
 1668.1704     2.6629   189.5975    17.8410  1575.5798     6.6795
 1668.3228     2.6588   190.8787    18.7264  1572.9614     6.9210
 1668.4752     2.6588   191.4943    20.4988  1567.3462     7.1827
 1668.6276     2.6692   193.0189    21.7609  1563.6422     7.4093
 1668.7800     2.6700   192.6390    22.1687  1567.6138     7.5642
 1668.9324     2.6595   192.4176    21.8736  1567.8740     7.6532
 1669.0848     2.6502   195.3661    22.4709  1554.5242     7.7081
 1669.2372     2.6419   198.4961    23.3348  1533.7491     7.7838
 1669.3896     2.6322   196.3379    24.1856  1509.4292     7.9279
 1669.5420     2.6305   194.1701    24.4442  1527.8252     8.1435
 1669.6944     2.6352   193.2760    21.8964  1579.8634     8.3903
 1669.8468     2.6400   191.6814    21.1414  1589.7286     8.6492
 1669.9992     2.6516   187.2247    17.8047  1615.9600     9.2797
 1670.1516     2.6679   181.5482    15.5758  1633.0553    10.4400
 1670.3040     2.6789   180.7154    15.3714  1651.2278    11.4849
 1670.4564     2.6794   181.4841    15.5659  1655.4224    11.9500
 1670.6088     2.6786   181.7817    15.7431  1652.4299    11.9558
 1670.7612     2.6834   181.5511    15.7586  1638.2832    11.4781
 1670.9136     2.6797   183.5146    15.9901  1621.1704    10.5300
 1671.0660     2.6680   186.1863    16.9562  1579.4403     9.6856
 1671.2184     2.6617   193.0122    19.5842  1526.8223     9.2956
 1671.3708     2.6669   194.9691    22.9055  1452.7356     9.0617
 1671.5232     2.6786   196.2128    23.9833  1452.0837     8.7644
 1671.6756     2.6868   200.4294    23.2459  1487.7678     8.4699
 1671.8280     2.6834   200.7983    22.9505  1496.9858     8.2514
 1671.9804     2.6765   198.7491    21.3545  1534.9641     8.1733
 1672.1328     2.6731   192.8950    19.3952  1572.0745     8.2722
 1672.2852     2.6594   192.0881    17.3024  1605.4070     8.4545
 1672.4376     2.6514   191.3472    15.0878  1615.7621     8.6057
 1672.5900     2.6479   189.6634    13.1060  1603.4198     8.7036
 1672.7424     2.6465   189.0896    12.1426  1588.9631     8.7669
 1672.8948     2.6514   190.0956    11.7276  1581.0403     8.8153
 1673.0472     2.6586   190.4584    11.6957  1581.6671     8.8844
 1673.1996     2.6771   190.1725    11.6208  1602.1420     9.2618
 1673.3520     2.6964   189.7330    11.3753  1622.4142    10.1645
 1673.5044     2.6949   190.5195    11.0609  1623.3485    11.1507
 1673.6568     2.6893   191.0366    11.5676  1625.3206    11.7286
 1673.8092     2.6857   190.0539    11.6486  1625.8661    11.9326
 1673.9616     2.6811   187.8222    11.7191  1628.8348    11.9874
 1674.1140     2.6810   187.0775    11.6544  1636.6294    12.0098
 1674.2664     2.6810   187.4441    11.4639  1639.0601    12.0163
 1674.4188     2.6853   188.7779    11.4177  1616.8167    11.9737
 1674.5712     2.6782   188.6676    11.6641  1602.7480    11.8223
 1674.7236     2.6717   187.0315    11.7390  1608.0389    11.0854
 1674.8760     2.6757   189.9451    11.5154  1611.5254     9.8434
 1675.0284     2.6731   190.6891    10.8111  1608.2401     8.8840
 1675.1808     2.6705   189.3033    10.4103  1591.1832     8.2568
 1675.3332     2.6709   187.7805    10.4313  1573.0999     7.7453
 1675.4856     2.6621   187.0985    11.0255  1549.3142     7.2839
 1675.6380     2.6513   187.3174    11.3629  1520.6659     6.8392
 1675.7904     2.6534   189.3183    11.3423  1517.1505     6.5301
 1675.9428     2.6552   189.0407    10.8626  1517.8229     6.3322
 1676.0952     2.6489   188.7281    10.2537  1527.3823     6.1936
 1676.2476     2.6506   188.7346     9.5991  1539.1168     6.1590
 1676.4000     2.6599   188.9456     9.6650  1550.6204     6.2468
 1676.5524     2.6698   188.4725    10.1144  1564.2872     6.5324
 1676.7048     2.6720   187.3769    10.7024  1581.8845     7.0136
 1676.8572     2.6684   186.3317    11.5948  1593.5934     7.5195
 1677.0096     2.6732   187.2909    13.0182  1592.5856     8.0102
 1677.1620     2.6671   189.9290    14.2534  1579.0131     8.4976
 1677.3144     2.6569   191.6461    15.4824  1569.2158     8.8862
 1677.4668     2.6570   190.7528    15.0406  1568.7014     9.0745
 1677.6192     2.6516   190.0378    12.5660  1597.8351     9.1244
 1677.7716     2.6446   189.3106    12.0686  1602.5763     9.2602
 1677.9240     2.6484   187.7857    10.7077  1608.9209     9.7739
 1678.0764     2.6639   184.1255    10.2173  1606.3273    10.7006
 1678.2288     2.6872   180.5481    10.1029  1606.6014    11.5792
 1678.3812     2.7069   179.5488    10.2735  1629.3268    12.0028
 1678.5336     2.7092   179.0627    10.7300  1645.0836    12.0755
 1678.6860     2.6898   179.9841    11.3720  1654.1456    12.1139
