~VERSION INFORMATION
VERS.                                                 2.0:   CWLS Log ASCII Standard-VERSION 2.0
WRAP.                                                  NO:   One line per depth step
~Well Information Block
STRT.M                                            61.2648:   Top Depth
STOP.M                                          2091.2328:   Bottom Depth
STEP.M                                             .15240:   Depth Increment
NULL.                                            -999.250:   Null Value
FLD .                                               YIBAL:   Field Name
WELL.                                           YIBAL-5H1:   NAME
LOC .                                     YIBAL 50-100-39:   AREA NAME
EDF .                                              116.42:   ELEV DRILL FLOOR
EPD .                                                   0:   ELEV PERM DATUM
EGL .                                              111.54:   GROUND LEVEL
SRVC.                                        SCHLUMBERGER:   LOGGING CONTRACTOR
COMP.                          Petroleum Development Oman:   OPERATOR
PDAT.                                                 MSL:   PERM DATUM
COUN.                                             RIG02_1:   RIG NAME
SPUD.                                          1967/02/12:   SPUD DATE
LATI.                                         22.15958657:   SURF. LATITUDE
LONG.                                          56.0289369:   SURF. LONGITUDE
UTME.                                           399872.59:   SURF. UTM E
UTMN.                                          2450604.47:   SURF. UTM N
~PARAMETER INFORMATION (log)
LNAM.                                              PUBLIC:   NAME
LTYP.                                              JOINED:   LOG TYPE
LSRV.                                            CLEAN UP:   SERVICE
LSOU.                                               FUGRO:   LOG SOURCE
LVSN.                                                   1:   LOG VERSION
BHIS.                                                   R:   BRIEF HISTORY
TDD .M                                            2093.98:   FINAL TD DRILLER
TDL .M                                            2091.54:   FINAL TD LOGGER
FHIS.                                             RAW-LAS:   FULL HISTORY
LCNM.                                        SCHLUMBERGER:   LOGGING CONTRACTOR
~Curve Information Block
#MNEM.UNIT                                        API CODE    No Description
#=========                                        ========    == ===========
DEPT.M                                       00 001 00 00:     1  DEPTH
DEN.G/CC                                                 :     2  Bulk Density
DT.US/M                                                  :     3  Acoustic log
GR.API                                                   :     4  Gamma Ray
NEU.V/V                                                  :     5  Neutron Porosity in Limestone Units
RES_DEP.OHMM                                             :     6  Resistivity Deep
~ASCII
# ...
  990.9048     2.2182   294.9140    17.3448   732.1906      .3198
  991.0572     2.2321   287.5401    17.0040   743.4689      .3088
  991.2096     2.2695   280.3190    17.0583   759.7744      .2992
  991.3620     2.2973   284.2212    17.4210   780.1294      .3017
  991.5144     2.2957   288.1328    17.8553   791.0662      .3020
  991.6668     2.2757   282.7652    18.1832   806.1913      .3020
  991.8192     2.2708   278.8175    18.1657   820.8420      .3023
  991.9716     2.2822   277.7867    18.1157   827.0508      .3054
  992.1240     2.2999   278.5553    18.4406   823.1424      .3023
  992.2764     2.3070   288.3636    18.9478   825.0789      .3020
  992.4288     2.3085   285.3783    19.0938   839.4481      .3020
  992.5812     2.3260   282.5478    19.0945   841.5490      .3023
  992.7336     2.3404   296.2191    18.9972   846.3543      .3054
  992.8860     2.3296   299.1251    19.0332   820.7938      .3023
  993.0384     2.3096   298.1926    19.1795   803.7075      .3017
  993.1908     2.2843   299.1452    19.3752   789.1926      .2978
  993.3432     2.2580   300.3077    19.6490   767.4670      .2925
  993.4956     2.2506   301.4702    19.9343   746.2208      .2909
  993.6480     2.2521   305.1082    20.0645   727.4388      .2791
  993.8004     2.2630   302.9176    19.3316   723.1862      .2764
  993.9528     2.2837   307.0822    19.2153   727.0825      .2589
  994.1052     2.2862   302.5947    19.3294   737.0139      .2391
  994.2576     2.2849   305.0720    19.5630   747.1966      .2300
  994.4100     2.2810   309.3094    19.9191   744.1769      .2227
  994.5624     2.2695   312.4099    20.2705   738.4642      .2220
  994.7148     2.2585   307.1394    20.5283   733.3165      .2220
  994.8672     2.2488   310.6822    20.8432   729.1970      .2223
  995.0196     2.2453   302.0926    20.8693   734.8205      .2253
  995.1720     2.2411   296.0994    20.8405   751.3831      .2220
  995.3244     2.2362   294.3977    20.7960   754.8421      .2183
  995.4768     2.2399   287.5141    20.4377   737.5564      .2180
  995.6292     2.2576   285.4306    19.6214   728.4652      .2180
  995.7816     2.2682   280.3550    18.8249   732.1891      .2180
  995.9340     2.2639   274.2756    18.1388   745.4503      .2180
  996.0864     2.2776   280.1995    17.7006   758.7665      .2180
  996.2388     2.2892   275.2449    18.0306   783.7560      .2180
  996.3912     2.2850   284.7636    19.1093   807.1968      .2180
  996.5436     2.2745   286.8062    19.5641   827.1252      .2180
  996.6960     2.2685   282.1827    19.7810   846.5699      .2180
  996.8484     2.2540   282.0934    19.2183   848.9150      .2183
  997.0008     2.2334   288.3927    18.6320   835.0418      .2217
  997.1532     2.2250   293.9718    18.4507   803.5862      .2226
  997.3056     2.2428   294.4357    18.1672   772.1183      .2293
  997.4580     2.2559   308.7220    17.7917   730.1501      .2297
  997.6104     2.2822   316.6945    17.5884   705.9896      .2263
  997.7628     2.3097   321.6948    17.7327   686.8355      .2258
  997.9152     2.2974   315.6287    18.5424   681.4498      .2240
  998.0676     2.2829   314.0532    19.6122   690.8720      .2222
  998.2200     2.2769   303.9756    20.2217   706.2390      .2223
  998.3724     2.2651   293.9785    20.2244   718.6345      .2257
  998.5248     2.2573   294.0964    19.4643   727.9756      .2260
  998.6772     2.2598   292.9862    18.9771   733.4718      .2260
  998.8296     2.2662   288.7339    18.7013   737.6678      .2260
  998.9820     2.2680   289.0990    18.4991   747.1010      .2260
  999.1344     2.2663   293.9439    18.3297   753.0704      .2263
  999.2868     2.2720   297.6424    18.0883   763.3845      .2297
  999.4392     2.2779   295.0784    17.6835   779.2109      .2303
  999.5916     2.2836   290.0040    17.2926   792.6902      .2334
  999.7440     2.2801   286.8625    16.8145   784.6972      .2303
  999.8964     2.2663   294.1248    16.7535   766.4787      .2300
 1000.0488     2.2459   290.7376    17.2345   738.6280      .2300
 1000.2012     2.2448   287.3736    17.6987   712.7721      .2300
 1000.3536     2.2629   283.9122    18.0136   696.3611      .2298
 1000.5060     2.2766   282.8498    18.1927   701.3373      .2280
 1000.6584     2.2658   288.3542    18.1019   715.6315      .2258
 1000.8108     2.2583   290.7761    17.6820   733.6871      .2223
 1000.9632     2.2665   278.1131    17.9240   756.2900      .2217
 1001.1156     2.2884   277.9682    18.5481   780.6694      .2183
 1001.2680     2.3029   284.5064    19.6547   804.9620      .2180
 1001.4204     2.2980   292.9285    20.7852   819.8145      .2177
 1001.5728     2.2712   288.2961    20.5303   813.2488      .2143
 1001.7252     2.2486   291.8476    20.0494   794.9261      .2140
 1001.8776     2.2508   300.7357    20.2853   781.5327      .2140
 1002.0300     2.2626   298.7307    20.1770   778.0954      .2140
 1002.1824     2.2681   293.6592    19.0402   805.1482      .2140
 1002.3348     2.2744   286.9387    17.5233   834.8121      .2137
 1002.4872     2.2693   280.8896    16.5916   853.9265      .2103
 1002.6396     2.2434   280.8708    15.9036   845.7485      .2100
 1002.7920     2.2425   282.7743    16.9132   831.5428      .2094
 1002.9444     2.2674   288.2885    18.8087   815.4838      .2036
 1003.0968     2.2697   299.0774    19.1270   798.1605      .2027
 1003.2492     2.2532   312.1298    18.9532   794.1141      .1993
 1003.4016     2.2462   322.3738    18.8440   782.4770      .1988
 1003.5540     2.2444   317.4661    18.7886   752.8604      .1970
 1003.7064     2.2346   313.3731    18.7867   723.3381      .1951
 1003.8588     2.2143   308.7061    18.8185   712.4429      .1938
 1004.0112     2.2123   306.8350    18.8773   714.7381      .1909
 1004.1636     2.2227   300.1729    18.9119   723.0396      .1873
 1004.3160     2.2313   291.0588    18.9417   728.4229      .1867
 1004.4684     2.2375   289.9588    18.9401   732.0013      .1829
 1004.6208     2.2500   290.7473    18.7970   746.6125      .1778
 1004.7732     2.2635   295.6769    18.3893   758.0471      .1700
 1004.9256     2.2644   301.9857    18.3411   770.2761      .1526
 1005.0780     2.2557   308.7645    18.3810   780.9485      .1497
 1005.2304     2.2379   309.6018    18.3876   784.5212      .1363
 1005.3828     2.2291   312.2607    18.2628   782.4700      .1347
 1005.5352     2.2193   315.3484    18.1163   772.5189      .1310
 1005.6876     2.2094   315.1271    17.9954   762.2855      .1269
 1005.8400     2.2107   307.1406    17.6787   752.7609      .1219
 1005.9924     2.2134   300.1095    18.7656   746.1047      .1160
 1006.1448     2.2055   296.3870    19.4533   739.2001      .1099
 1006.2972     2.2047   292.9899    19.6536   745.7300      .1031
 1006.4496     2.2156   283.7862    18.5902   761.8111      .0975
 1006.6020     2.2193   273.6674    17.8278   807.8580      .0863
 1006.7544     2.2098   280.7668    17.5907   818.5108      .0708
 1006.9068     2.2039   292.8540    18.0007   810.3673      .1109
 1007.0592     2.2134   301.7838    19.0662   777.5443      .1147
 1007.2116     2.2378   300.2907    19.1449   743.0352      .1113
 1007.3640     2.2407   303.3232    17.8045   727.0269      .1113
 1007.5164     2.2262   308.1932    17.2950   721.6288      .1147
 1007.6688     2.2187   301.2603    17.1491   729.2259      .1153
 1007.8212     2.2176   294.2798    17.6064   744.9111      .1190
 1007.9736     2.2136   290.5782    18.6053   775.1118      .1230
 1008.1260     2.2070   288.0205    18.5700   801.5686      .1274
 1008.2784     2.2070   288.7880    18.5360   836.9848      .1360
 1008.4308     2.2204   291.1281    18.5983   846.4257      .1456
 1008.5832     2.2411   298.0842    18.7719   836.6359      .1715
 1008.7356     2.2584   305.0096    19.5602   816.8492      .2039
 1008.8880     2.2769   306.5684    20.2345   794.2010      .2243
 1009.0404     2.2747   299.0504    19.4518   782.9914      .2263
 1009.1928     2.2558   290.9308    18.5852   782.2516      .2297
 1009.3452     2.2444   291.8519    18.0382   782.5531      .2300
