~VERSION INFORMATION
VERS.                                                 2.0:   CWLS Log ASCII Standard-VERSION 2.0
WRAP.                                                  NO:   One line per depth step
~Well Information Block
STRT.M                                            61.2648:   Top Depth
STOP.M                                          2091.2328:   Bottom Depth
STEP.M                                             .15240:   Depth Increment
NULL.                                            -999.250:   Null Value
FLD .                                               YIBAL:   Field Name
WELL.                                           YIBAL-5H1:   NAME
LOC .                                     YIBAL 50-100-39:   AREA NAME
EDF .                                              116.42:   ELEV DRILL FLOOR
EPD .                                                   0:   ELEV PERM DATUM
EGL .                                              111.54:   GROUND LEVEL
SRVC.                                        SCHLUMBERGER:   LOGGING CONTRACTOR
COMP.                          Petroleum Development Oman:   OPERATOR
PDAT.                                                 MSL:   PERM DATUM
COUN.                                             RIG02_1:   RIG NAME
SPUD.                                          1967/02/12:   SPUD DATE
LATI.                                         22.15958657:   SURF. LATITUDE
LONG.                                          56.0289369:   SURF. LONGITUDE
UTME.                                           399872.59:   SURF. UTM E
UTMN.                                          2450604.47:   SURF. UTM N
~PARAMETER INFORMATION (log)
LNAM.                                              PUBLIC:   NAME
LTYP.                                              JOINED:   LOG TYPE
LSRV.                                            CLEAN UP:   SERVICE
LSOU.                                               FUGRO:   LOG SOURCE
LVSN.                                                   1:   LOG VERSION
BHIS.                                                   R:   BRIEF HISTORY
TDD .M                                            2093.98:   FINAL TD DRILLER
TDL .M                                            2091.54:   FINAL TD LOGGER
FHIS.                                             RAW-LAS:   FULL HISTORY
LCNM.                                        SCHLUMBERGER:   LOGGING CONTRACTOR
~Curve Information Block
#MNEM.UNIT                                        API CODE    No Description
#=========                                        ========    == ===========
DEPT.M                                       00 001 00 00:     1  DEPTH
DEN.G/CC                                                 :     2  Bulk Density
DT.US/M                                                  :     3  Acoustic log
GR.API                                                   :     4  Gamma Ray
NEU.V/V                                                  :     5  Neutron Porosity in Limestone Units
RES_DEP.OHMM                                             :     6  Resistivity Deep
~ASCII
# ...
  470.3064  -999.2500   338.8013    32.9597   715.4246     2.7220
  470.4588  -999.2500   334.0732    30.8737   784.3565     3.0208
  470.6112  -999.2500   328.3224    27.7276   846.3649     3.2608
  470.7636  -999.2500   322.5716    25.2181   913.6292     3.4969
  470.9160  -999.2500   286.9753    22.4165   950.5364     3.7156
  471.0684  -999.2500   248.4548    21.3697   914.0953     3.7477
  471.2208  -999.2500   224.9859    21.3030   813.3763     3.4424
  471.3732  -999.2500   220.1520    21.4721   724.8714     2.7937
  471.5256  -999.2500   216.9996    21.9302   681.8824     2.2455
  471.6780  -999.2500   213.8472    22.4241   675.2833     1.9253
  471.8304  -999.2500   272.2013    21.6354   684.2039     1.7775
  471.9828  -999.2500   292.0376    21.0813   687.7067     1.7193
  472.1352  -999.2500   304.1660    20.2552   683.6866     1.7127
  472.2876  -999.2500   301.1275    20.3705   680.3996     1.7328
  472.4400  -999.2500   303.7485    21.0469   682.9132     1.7828
  472.5924  -999.2500   307.2442    21.1102   702.8646     1.8834
  472.7448  -999.2500   306.5314    21.0236   709.8716     2.0609
  472.8972  -999.2500   301.4280    20.0925   702.2591     2.3566
  473.0496  -999.2500   302.3297    19.9894   688.8398     2.7222
  473.2020  -999.2500   296.9996    19.8066   679.9521     2.9983
  473.3544  -999.2500   295.2802    19.2248   671.1878     3.1339
  473.5068  -999.2500   282.3593    18.7876   658.8817     3.1483
  473.6592  -999.2500   278.5867    18.9202   651.8201     3.0844
  473.8116  -999.2500   286.6077    19.3463   653.4343     2.9616
  473.9640  -999.2500   291.4626    19.5421   678.7474     2.7812
  474.1164  -999.2500   291.2534    19.7343   705.6185     2.5465
  474.2688  -999.2500   287.6117    18.7917   723.9287     2.3150
  474.4212  -999.2500   287.1252    18.3017   724.3649     2.1999
  474.5736  -999.2500   291.5096    18.2360   712.2346     2.1857
  474.7260  -999.2500   292.3408    17.8338   711.4882     2.2113
  474.8784  -999.2500   290.3561    16.3702   727.7228     2.2660
  475.0308  -999.2500   283.1709    16.5854   743.7676     2.3412
  475.1832  -999.2500   283.8704    17.7114   761.5637     2.4187
  475.3356  -999.2500   289.4115    19.7869   766.7089     2.4978
  475.4880  -999.2500   280.3724    22.8009   750.2091     2.5980
  475.6404  -999.2500   271.6203    25.2404   727.0442     2.7140
  475.7928  -999.2500   262.4338    28.9282   704.6672     2.7988
  475.9452  -999.2500   267.2164    31.1511   655.5375     2.8089
  476.0976  -999.2500   278.8303    31.5304   636.9014     2.7733
  476.2500  -999.2500   288.1785    29.2757   635.7644     2.7393
  476.4024  -999.2500   294.5229    27.2760   649.5776     2.6848
  476.5548  -999.2500   277.8793    26.4683   659.7291     2.6421
  476.7072  -999.2500   310.0879    26.7098   659.5472     2.6796
  476.8596  -999.2500   308.0300    27.2011   670.0748     2.7974
  477.0120  -999.2500   302.1241    28.0215   678.6755     2.9438
  477.1644  -999.2500   296.2183    29.3884   686.5756     3.0137
  477.3168  -999.2500   295.1628    30.6787   702.1050     2.9213
  477.4692  -999.2500   299.3427    32.1796   736.6683     2.7716
  477.6216  -999.2500   312.4994    36.0543   775.7778     2.7188
  477.7740  -999.2500   267.5578    39.8438   801.4468     2.7701
  477.9264  -999.2500   271.6722    42.9726   817.2909     2.8632
  478.0788  -999.2500   258.1422    44.8935   825.3063     2.8817
  478.2312  -999.2500   315.1152    45.6522   811.5238     2.6863
  478.3836  -999.2500   379.2173    44.9450   800.6203     2.3294
  478.5360  -999.2500   443.3195    43.6083   785.9319     2.0078
  478.6884  -999.2500   455.4204    41.8320   770.9780     1.9346
  478.8408  -999.2500   462.4261    41.8549   757.0629     2.0343
  478.9932  -999.2500   469.4319    42.4662   734.6821     2.2187
  479.1456  -999.2500   473.8568    43.2366   711.0716     2.4042
  479.2980  -999.2500   478.0290    43.8526   724.8449     2.5393
  479.4504  -999.2500   482.2011    44.0661   761.0302     2.6858
  479.6028  -999.2500   458.9289    43.8509   811.4999     2.8632
  479.7552  -999.2500   432.9675    42.9857   821.1155     3.0096
  479.9076  -999.2500   407.0061    39.3868   799.4284     3.0083
  480.0600  -999.2500   405.8143    36.6372   779.5760     2.9216
  480.2124  -999.2500   297.9945    34.7778   749.1466     2.9173
  480.3648  -999.2500   274.8562    35.8569   717.8131     2.9396
  480.5172  -999.2500   288.2135    39.3348   681.7905     2.8506
  480.6696  -999.2500   299.0878    40.2335   653.5521     2.6855
  480.8220  -999.2500   326.2061    40.8029   654.5073     2.4753
  480.9744  -999.2500   340.8326    42.2242   714.9531     2.2317
  481.1268  -999.2500   335.5002    44.4905   757.9710     2.0363
  481.2792  -999.2500   311.2335    47.9015   786.0073     1.9852
  481.4316  -999.2500   299.5455    51.5461   790.7814     2.0557
  481.5840  -999.2500   280.9507    55.0267   750.2541     2.1184
  481.7364  -999.2500   285.9587    56.5016   711.8281     2.1199
  481.8888  -999.2500   293.3593    56.2703   694.1772     2.0744
  482.0412  -999.2500   300.7597    55.0557   690.9476     1.9953
  482.1936  -999.2500   323.8296    50.6536   713.9675     1.9223
  482.3460  -999.2500   357.6127    48.1282   719.3093     1.8928
  482.4984  -999.2500   367.6642    46.6408   719.9343     1.9154
  482.6508  -999.2500   375.3024    47.0312   712.0944     1.9638
  482.8032  -999.2500   382.9406    48.5405   699.6956     1.9975
  482.9556  -999.2500   376.8994    51.7272   668.6118     1.9860
  483.1080  -999.2500   369.5180    54.9669   644.2784     1.9405
  483.2604  -999.2500   362.1366    56.9849   649.7663     1.8838
  483.4128  -999.2500   363.1640    57.0857   681.1851     1.8757
  483.5652  -999.2500   364.6748    54.8013   725.7543     1.9724
  483.7176  -999.2500   341.6588    52.7589   748.9442     2.1623
  483.8700  -999.2500   316.2430    51.4244   762.1815     2.3910
  484.0224  -999.2500   290.8271    50.2433   742.9498     2.5785
  484.1748  -999.2500   298.6908    50.0731   693.5813     2.6588
  484.3272  -999.2500   296.5063    50.8554   683.6746     2.6124
  484.4796  -999.2500   283.7276    52.2989   689.5164     2.5936
  484.6320  -999.2500   298.0149    52.5521   671.5705     2.6372
  484.7844  -999.2500   308.3775    47.7069   649.1709     2.6032
  484.9368  -999.2500   304.8369    40.4633   619.9795     2.5131
  485.0892  -999.2500   299.9980    38.0494   614.6853     2.4649
  485.2416  -999.2500   295.1592    36.0455   617.6276     2.5201
  485.3940  -999.2500   350.8355    34.6135   608.2030     2.6248
  485.5464  -999.2500   350.0659    33.8047   588.6990     2.6508
  485.6988  -999.2500   350.9529    33.4480   591.2407     2.6040
  485.8512  -999.2500   352.6010    33.1438   595.6334     2.5388
  486.0036  -999.2500   352.8965    32.9585   595.0778     2.4667
  486.1560  -999.2500   353.0594    32.5787   584.5742     2.4149
  486.3084  -999.2500   353.2223    31.4494   579.5364     2.4314
  486.4608  -999.2500   285.9694    30.9835   590.5281     2.5610
  486.6132  -999.2500   282.7070    31.3434   607.5800     2.7311
  486.7656  -999.2500   286.3618    31.2296   621.7573     2.8346
  486.9180  -999.2500   290.0165    29.4370   652.6302     2.8116
  487.0704  -999.2500   277.5897    27.1014   676.1609     2.6965
  487.2228  -999.2500   276.5524    24.9370   709.6476     2.6190
  487.3752  -999.2500   243.7698    23.6747   751.8440     2.6516
  487.5276  -999.2500   207.7522    23.4398   769.8861     2.7826
  487.6800  -999.2500   171.7346    23.5039   760.2231     2.9616
  487.8324  -999.2500   173.9118    24.3680   732.2717     3.1568
  487.9848  -999.2500   168.9118    25.0822   663.6248     3.3961
  488.1372  -999.2500   187.5949    24.7293   620.7454     3.6401
  488.2896  -999.2500   309.0453    24.4641   601.4510     3.7835
  488.4420  -999.2500   315.1712    24.2141   602.9651     3.7271
  488.5944  -999.2500   309.0340    23.9464   615.4395     3.5726
  488.7468  -999.2500   302.8968    23.9475   629.1348     3.3909
