~VERSION INFORMATION
VERS.                                                 2.0:   CWLS Log ASCII Standard-VERSION 2.0
WRAP.                                                  NO:   One line per depth step
~Well Information Block
STRT.M                                            61.2648:   Top Depth
STOP.M                                          2091.2328:   Bottom Depth
STEP.M                                             .15240:   Depth Increment
NULL.                                            -999.250:   Null Value
FLD .                                               YIBAL:   Field Name
WELL.                                           YIBAL-5H1:   NAME
LOC .                                     YIBAL 50-100-39:   AREA NAME
EDF .                                              116.42:   ELEV DRILL FLOOR
EPD .                                                   0:   ELEV PERM DATUM
EGL .                                              111.54:   GROUND LEVEL
SRVC.                                        SCHLUMBERGER:   LOGGING CONTRACTOR
COMP.                          Petroleum Development Oman:   OPERATOR
PDAT.                                                 MSL:   PERM DATUM
COUN.                                             RIG02_1:   RIG NAME
SPUD.                                          1967/02/12:   SPUD DATE
LATI.                                         22.15958657:   SURF. LATITUDE
LONG.                                          56.0289369:   SURF. LONGITUDE
UTME.                                           399872.59:   SURF. UTM E
UTMN.                                          2450604.47:   SURF. UTM N
~PARAMETER INFORMATION (log)
LNAM.                                              PUBLIC:   NAME
LTYP.                                              JOINED:   LOG TYPE
LSRV.                                            CLEAN UP:   SERVICE
LSOU.                                               FUGRO:   LOG SOURCE
LVSN.                                                   1:   LOG VERSION
BHIS.                                                   R:   BRIEF HISTORY
TDD .M                                            2093.98:   FINAL TD DRILLER
TDL .M                                            2091.54:   FINAL TD LOGGER
FHIS.                                             RAW-LAS:   FULL HISTORY
LCNM.                                        SCHLUMBERGER:   LOGGING CONTRACTOR
~Curve Information Block
#MNEM.UNIT                                        API CODE    No Description
#=========                                        ========    == ===========
DEPT.M                                       00 001 00 00:     1  DEPTH
DEN.G/CC                                                 :     2  Bulk Density
DT.US/M                                                  :     3  Acoustic log
GR.API                                                   :     4  Gamma Ray
NEU.V/V                                                  :     5  Neutron Porosity in Limestone Units
RES_DEP.OHMM                                             :     6  Resistivity Deep
~ASCII
# ...
 1808.9880     2.5255   220.0694     9.4105  1353.6552     3.9896
 1809.1404     2.5243   220.7403     9.8492  1351.7013     4.0463
 1809.2928     2.5380   217.9667    10.5937  1367.8470     4.0921
 1809.4452     2.5778   216.0320    10.6866  1372.6212     4.1065
 1809.5976     2.5769   211.9045    10.6306  1392.5778     4.0871
 1809.7500     2.5490   207.8124    10.5406  1425.7897     4.0324
 1809.9024     2.5607   201.5432    10.6679  1482.1498     3.9274
 1810.0548     2.5820   196.6212    10.7031  1496.0757     3.7725
 1810.2072     2.5867   191.5049    10.7978  1542.5208     3.5907
 1810.3596     2.5858   187.0596    10.7272  1571.2556     3.3875
 1810.5120     2.5668   184.6235    10.6486  1572.6599     3.1662
 1810.6644     2.5693   185.0773    10.6962  1563.3621     2.9391
 1810.8168     2.5722   185.6643    10.8386  1547.3901     2.6964
 1810.9692     2.5497   189.8322    10.8269  1523.1995     2.4023
 1811.1216     2.5271   196.7323    10.8189  1505.5793     2.0865
 1811.2740     2.5161   202.7240    10.8302  1431.1760     1.8135
 1811.4264     2.5195   211.3041    10.7867  1414.7739     1.6073
 1811.5788     2.4891   216.3875    10.4200  1370.2938     1.4565
 1811.7312     2.4847   216.7167     9.9530  1334.6724     1.3381
 1811.8836     2.4865   215.6359     9.9042  1302.3218     1.2382
 1812.0360     2.4581   220.1368     9.9372  1296.2980     1.1454
 1812.1884     2.4470   221.9969    10.1904  1281.9589     1.0553
 1812.3408     2.4452   222.0150    10.5132  1269.1036      .9844
 1812.4932     2.4409   222.9055    11.3543  1258.1791      .9328
 1812.6456     2.4514   225.7989    13.1409  1241.9548      .8939
 1812.7980     2.4726   226.6721    14.7298  1208.0096      .8577
 1812.9504     2.4618   228.3145    15.0891  1189.6437      .8154
 1813.1028     2.4307   229.3363    14.8545  1178.2928      .7712
 1813.2552     2.4199   231.4389    14.0432  1171.8308      .7318
 1813.4076     2.4097   231.8369    13.9351  1173.0760      .6957
 1813.5600     2.4025   232.8982    13.9379  1187.5282      .6666
 1813.7124     2.4050   235.0638    13.7162  1195.9990      .6445
 1813.8648     2.4219   236.0010    13.0189  1196.3784      .6269
 1814.0172     2.4329   236.7207    12.8638  1196.9106      .6163
 1814.1696     2.4401   237.6411    12.4229  1201.7317      .6133
 1814.3220     2.4266   238.3433    12.0534  1208.4110      .6151
 1814.4744     2.4311   238.8590    11.7918  1211.8661      .6220
 1814.6268     2.4347   238.3581    11.5321  1214.3514      .6365
 1814.7792     2.4197   237.6790    10.8773  1206.1241      .6630
 1814.9316     2.4149   236.9715    10.1904  1204.4258      .6962
 1815.0840     2.4085   237.6685     9.8685  1204.9476      .7270
 1815.2364     2.4159   237.9581    10.5581  1209.1497      .7565
 1815.3888     2.4286   237.8398    10.6969  1210.4797      .7905
 1815.5412     2.4390   239.9885    10.9633  1214.6467      .8323
 1815.6936     2.4610   239.8889    11.1945  1206.7354      .8820
 1815.8460     2.4735   240.2661    11.5439  1184.0068      .9270
 1815.9984     2.4510   239.6858    11.5860  1178.2098      .9481
 1816.1508     2.4432   238.2706    11.5075  1158.1300      .9445
 1816.3032     2.4416   235.3631    11.1295  1140.8990      .9195
 1816.4556     2.4473   231.6740    10.7808  1131.3224      .8724
 1816.6080     2.4579   230.8496    10.8484  1117.1844      .8136
 1816.7604     2.4563   231.5205    11.3525  1105.0090      .7636
 1816.9128     2.4397   230.0105    11.6497  1110.6163      .7231
 1817.0652     2.4169   231.3318    11.4971  1139.7384      .6831
 1817.2176     2.4099   236.9580    10.6430  1157.1029      .6459
 1817.3700     2.4069   238.9521    10.4922  1155.2688      .6212
 1817.5224     2.4280   239.7065    10.2478  1124.3883      .6182
 1817.6748     2.4146   246.1512    10.0136  1082.6689      .6304
 1817.8272     2.4016   254.7464     9.9779  1051.0635      .6535
 1817.9796     2.3837   257.2211     9.9834  1048.7837      .6875
 1818.1320     2.3814   255.7447    10.0745  1065.1824      .7181
 1818.2844     2.3977   250.3058    10.4029  1108.0725      .7349
 1818.4368     2.4117   245.1945    10.7381  1140.7006      .7409
 1818.5892     2.4111   236.3917    10.7988  1164.7800      .7443
 1818.7416     2.4128   230.3069    10.6448  1185.4667      .7478
 1818.8940     2.4064   228.2600    10.3666  1195.7998      .7538
 1819.0464     2.4108   227.8679    10.2006  1200.9784      .7679
 1819.1988     2.4088   230.9297     9.9332  1213.4320      .7890
 1819.3512     2.4160   238.6135     9.8758  1216.0737      .8128
 1819.5036     2.4283   239.8465     9.7150  1222.9521      .8370
 1819.6560     2.4157   239.4931     9.5462  1227.8260      .8550
 1819.8084     2.4053   240.0547     9.3190  1226.3634      .8573
 1819.9608     2.4093   241.4654     9.2852  1222.8629      .8439
 1820.1132     2.4344   245.2390     9.2633  1198.7186      .8166
 1820.2656     2.4324   244.6587     9.2919  1176.9326      .7718
 1820.4180     2.4156   243.3283     9.3521  1164.4996      .7108
 1820.5704     2.3991   240.1843     9.4299  1145.8542      .6415
 1820.7228     2.3880   240.0594     9.6078  1139.0791      .5688
 1820.8752     2.3768   241.8570     9.8510  1131.0314      .4898
 1821.0276     2.3730   241.2439    10.1665  1123.6466      .4203
 1821.1800     2.3890   245.4069    10.7157  1117.0236      .3761
 1821.3324     2.3741   248.4276    10.8259  1116.8679      .3560
 1821.4848     2.3729   251.9856    11.0895  1121.8784      .3507
 1821.6372     2.3832   255.4392    11.2963  1125.7383      .3521
 1821.7896     2.3920   255.8531    11.5912  1124.9078      .3629
 1821.9420     2.3826   255.3187    11.8509  1108.9413      .3909
 1822.0944     2.3767   253.3446    12.1884  1095.8483      .4439
 1822.2468     2.3887   253.9119    12.6377  1102.0225      .5118
 1822.3992     2.3921   255.8478    13.2332  1122.2781      .5692
 1822.5516     2.3970   253.2429    13.8128  1136.6924      .6128
 1822.7040     2.4159   251.7788    14.4761  1155.3463      .6530
 1822.8564     2.4140   250.7072    15.0518  1170.1377      .7016
 1823.0088     2.4085   247.6633    14.6317  1172.9701      .7612
 1823.1612     2.4291   245.5914    13.1617  1154.4438      .8144
 1823.3136     2.4303   242.7783    12.9257  1148.6050      .8440
 1823.4660     2.4135   243.4362    12.7618  1126.5427      .8523
 1823.6184     2.4098   243.4115    13.1898  1116.2467      .8482
 1823.7708     2.4118   240.6016    13.7504  1111.2206      .8360
 1823.9232     2.4289   239.6321    14.1271  1124.3514      .8184
 1824.0756     2.4277   238.9754    14.2747  1163.2189      .8082
 1824.2280     2.4149   238.3272    14.0665  1187.4773      .7991
 1824.3804     2.4055   238.0229    13.6418  1203.1057      .7664
 1824.5328     2.4171   239.6570    13.6352  1207.4800      .7341
 1824.6852     2.4107   239.5233    13.7318  1193.9613      .7100
 1824.8376     2.4038   240.3432    13.6532  1179.7917      .6863
 1824.9900     2.4081   241.3707    13.1026  1164.6188      .6675
 1825.1424     2.4164   242.4666    11.8836  1146.4633      .6592
 1825.2948     2.4215   242.5237    11.6706  1144.4818      .6619
 1825.4472     2.4170   243.8202    11.3838  1148.2206      .6759
 1825.5996     2.4198   246.1127    11.5721  1156.3832      .7017
 1825.7520     2.4152   247.2881    12.0129  1160.6466      .7334
 1825.9044     2.4190   248.0980    12.6124  1160.3546      .7574
 1826.0568     2.4145   247.6740    13.5761  1160.7517      .7669
 1826.2092     2.4006   247.2095    14.5467  1167.2446      .7689
 1826.3616     2.4051   246.0156    14.9064  1174.8311      .7684
 1826.5140     2.3996   244.6780    14.7786  1182.7563      .7660
 1826.6664     2.4104   243.1196    14.1295  1186.0045      .7583
 1826.8188     2.4320   242.3514    13.2757  1176.4650      .7417
 1826.9712     2.4293   245.5376    12.3944  1163.4807      .7138
 1827.1236     2.4159   249.5208    11.7188  1152.4729      .6835
 1827.2760     2.4113   249.4917    11.6522  1151.0809      .6643
 1827.4284     2.4344   244.1228    11.8292  1151.1506      .6574
