~VERSION INFORMATION
VERS.                                                 2.0:   CWLS Log ASCII Standard-VERSION 2.0
WRAP.                                                  NO:   One line per depth step
~Well Information Block
STRT.M                                            61.2648:   Top Depth
STOP.M                                          2091.2328:   Bottom Depth
STEP.M                                             .15240:   Depth Increment
NULL.                                            -999.250:   Null Value
FLD .                                               YIBAL:   Field Name
WELL.                                           YIBAL-5H1:   NAME
LOC .                                     YIBAL 50-100-39:   AREA NAME
EDF .                                              116.42:   ELEV DRILL FLOOR
EPD .                                                   0:   ELEV PERM DATUM
EGL .                                              111.54:   GROUND LEVEL
SRVC.                                        SCHLUMBERGER:   LOGGING CONTRACTOR
COMP.                          Petroleum Development Oman:   OPERATOR
PDAT.                                                 MSL:   PERM DATUM
COUN.                                             RIG02_1:   RIG NAME
SPUD.                                          1967/02/12:   SPUD DATE
LATI.                                         22.15958657:   SURF. LATITUDE
LONG.                                          56.0289369:   SURF. LONGITUDE
UTME.                                           399872.59:   SURF. UTM E
UTMN.                                          2450604.47:   SURF. UTM N
~PARAMETER INFORMATION (log)
LNAM.                                              PUBLIC:   NAME
LTYP.                                              JOINED:   LOG TYPE
LSRV.                                            CLEAN UP:   SERVICE
LSOU.                                               FUGRO:   LOG SOURCE
LVSN.                                                   1:   LOG VERSION
BHIS.                                                   R:   BRIEF HISTORY
TDD .M                                            2093.98:   FINAL TD DRILLER
TDL .M                                            2091.54:   FINAL TD LOGGER
FHIS.                                             RAW-LAS:   FULL HISTORY
LCNM.                                        SCHLUMBERGER:   LOGGING CONTRACTOR
~Curve Information Block
#MNEM.UNIT                                        API CODE    No Description
#=========                                        ========    == ===========
DEPT.M                                       00 001 00 00:     1  DEPTH
DEN.G/CC                                                 :     2  Bulk Density
DT.US/M                                                  :     3  Acoustic log
GR.API                                                   :     4  Gamma Ray
NEU.V/V                                                  :     5  Neutron Porosity in Limestone Units
RES_DEP.OHMM                                             :     6  Resistivity Deep
~ASCII
# ...
 1939.1376     2.6184   264.8615    36.8709  1002.7283     1.8219
 1939.2900     2.6223   263.1893    36.1997  1003.3445     1.8397
 1939.4424     2.6261   261.6765    36.2393  1001.5082     1.8632
 1939.5948     2.6137   260.9531    36.5452  1001.8359     1.8911
 1939.7472     2.6053   260.6304    36.6060  1002.7995     1.9189
 1939.8996     2.6132   260.5578    36.6529  1009.6418     1.9450
 1940.0520     2.6274   260.1940    36.0926  1022.8265     1.9759
 1940.2044     2.6360   259.3382    34.4776  1048.0676     2.0061
 1940.3568     2.6234   258.6138    34.2264  1052.7334     2.0208
 1940.5092     2.6033   257.6755    34.1655  1059.6459     2.0460
 1940.6616     2.5963   256.7010    34.4296  1062.6678     2.0768
 1940.8140     2.6066   255.8054    35.0417  1057.1725     2.1075
 1940.9664     2.6188   255.4077    35.8353  1051.5714     2.1350
 1941.1188     2.6256   255.1662    36.2151  1049.3929     2.1531
 1941.2712     2.6316   255.4644    36.2666  1048.2219     2.1584
 1941.4236     2.6333   256.0866    36.6345  1045.8290     2.1506
 1941.5760     2.6228   256.6295    35.2162  1039.7941     2.1260
 1941.7284     2.6177   256.4244    34.8918  1039.3021     2.1032
 1941.8808     2.6167   256.1079    34.2222  1043.3879     2.1021
 1942.0332     2.6121   255.7475    33.9868  1054.5283     2.1329
 1942.1856     2.6225   255.1382    34.6791  1058.1783     2.1554
 1942.3380     2.6346   254.5720    34.8127  1058.0366     2.1605
 1942.4904     2.6231   254.5832    34.9644  1054.5366     2.1610
 1942.6428     2.6083   255.0859    35.0140  1051.6025     2.1601
 1942.7952     2.6134   255.2088    35.3336  1049.1035     2.1587
 1942.9476     2.6235   255.6289    35.4157  1045.4542     2.1607
 1943.1000     2.6210   256.7497    35.4774  1040.4784     2.1664
 1943.2524     2.6138   257.3665    36.1575  1033.4861     2.1859
 1943.4048     2.6147   257.0850    36.5199  1031.7262     2.2265
 1943.5572     2.6206   256.2301    36.0899  1057.6213     2.2930
 1943.7096     2.6191   255.3857    35.9184  1063.0118     2.3747
 1943.8620     2.6169   253.4604    35.1649  1073.2085     2.4430
 1944.0144     2.6170   250.8000    33.9735  1083.0313     2.4910
 1944.1668     2.6115   249.1369    32.0871  1082.3511     2.5218
 1944.3192     2.6128   248.3665    31.6817  1081.8138     2.5295
 1944.4716     2.6196   247.6740    31.0820  1080.0649     2.5301
 1944.6240     2.6282   246.8174    32.4969  1079.3698     2.5266
 1944.7764     2.6391   246.7423    32.8386  1076.1841     2.5161
 1944.9288     2.6437   248.6107    33.1609  1063.0061     2.4933
 1945.0812     2.6338   249.8753    33.5353  1054.4838     2.4574
 1945.2336     2.6266   250.1232    34.1207  1055.6862     2.4170
 1945.3860     2.6343   250.7554    34.6250  1069.3629     2.3825
 1945.5384     2.6358   251.5040    33.9825  1086.3453     2.3564
 1945.6908     2.6337   250.9686    33.8393  1089.1675     2.3422
 1945.8432     2.6387   249.8295    33.6895  1092.1003     2.3370
 1945.9956     2.6366   249.1866    34.2040  1092.3542     2.3335
 1946.1480     2.6319   249.1136    34.6645  1089.1464     2.3264
 1946.3004     2.6325   249.1990    34.6589  1086.7064     2.3234
 1946.4528     2.6285   249.9864    34.2149  1071.3481     2.3191
 1946.6052     2.6218   252.0536    34.0478  1048.2083     2.3128
 1946.7576     2.6249   253.9431    34.7700  1039.5743     2.3100
 1946.9100     2.6300   255.0503    35.6704  1036.3895     2.3136
 1947.0624     2.6304   255.9247    35.8408  1037.6447     2.3231
 1947.2148     2.6285   256.0894    36.1823  1049.2139     2.3512
 1947.3672     2.6309   256.1080    36.6345  1065.9025     2.4056
 1947.5196     2.6338   254.3385    37.0117  1103.2839     2.4578
 1947.6720     2.6318   251.5675    37.0465  1109.8475     2.4985
 1947.8244     2.6353   247.7437    36.8901  1116.1060     2.5209
 1947.9768     2.6470   246.8439    36.3784  1110.8132     2.5255
 1948.1292     2.6550   245.8475    35.5139  1092.5649     2.5225
 1948.2816     2.6445   244.4167    35.0555  1077.6178     2.5178
 1948.4340     2.6293   243.7756    35.2509  1077.8763     2.5084
 1948.5864     2.6227   244.1912    35.6729  1086.3926     2.4793
 1948.7388     2.6168   245.7268    35.9240  1097.1351     2.4401
 1948.8912     2.6121   245.4778    35.3580  1114.2522     2.4006
 1949.0436     2.6148   242.6704    35.1225  1117.8137     2.3637
 1949.1960     2.6224   243.2610    34.1904  1124.0618     2.3449
 1949.3484     2.6312   243.8940    34.0405  1119.5356     2.3401
 1949.5008     2.6375   245.2755    35.3291  1108.6748     2.3324
 1949.6532     2.6354   244.3148    35.5859  1107.8428     2.3057
 1949.8056     2.6286   243.3803    35.8062  1113.4802     2.2604
 1949.9580     2.6232   246.0103    34.9068  1115.7852     2.1974
 1950.1104     2.6211   247.1248    34.1217  1081.3015     2.1170
 1950.2628     2.6233   248.5466    33.9021  1044.6702     2.0330
 1950.4152     2.6209   249.6060    35.6418  1006.4490     1.9515
 1950.5676     2.6222   252.3376    38.4197   986.0320     1.8716
 1950.7200     2.6281   255.8828    40.2059   974.0346     1.7749
 1950.8724     2.6176   260.7417    43.8393   958.1782     1.6729
 1951.0248     2.6134   262.0436    44.3318   954.6771     1.5926
 1951.1772     2.6168   262.7778    44.0585   944.9697     1.5269
 1951.3296     2.6172   267.7368    44.3415   926.4797     1.4907
 1951.4820     2.6097   276.0989    47.7010   893.2922     1.4845
 1951.6344     2.5741   279.4946    48.7659   893.2987     1.4973
 1951.7868     2.5456   281.0585    51.9925   926.7701     1.5249
 1951.9392     2.5628   279.4469    50.9605   959.8400     1.5782
 1952.0916     2.6061   278.1754    47.8736   989.7208     1.6626
 1952.2440     2.6385   275.1941    43.7974  1011.9443     1.7651
 1952.3964     2.6462   267.4531    40.9671  1018.7563     1.8676
 1952.5488     2.6370   262.8052    39.3881  1019.6695     1.9642
 1952.7012     2.6279   260.1336    38.7698  1026.1302     2.0349
 1952.8536     2.6305   260.2059    38.7397  1049.2263     2.0856
 1953.0060     2.6417   259.4617    38.8521  1054.6472     2.1163
 1953.1584     2.6398   257.2517    39.5999  1067.5613     2.1376
 1953.3108     2.6304   256.0465    40.0521  1067.9990     2.1479
 1953.4632     2.6303   256.3546    39.2339  1034.7366     2.1525
 1953.6156     2.6331   256.1907    39.2103  1028.2574     2.1562
 1953.7680     2.6363   256.0476    39.7730  1020.5763     2.1690
 1953.9204     2.6403   255.3539    39.1622  1025.8074     2.2035
 1954.0728     2.6339   255.3002    38.6902  1033.8036     2.2501
 1954.2252     2.6231   253.9826    38.7762  1035.9176     2.2978
 1954.3776     2.6203   253.0222    39.0708  1041.1958     2.3695
 1954.5300     2.6241   252.5452    39.0705  1056.4647     2.4574
 1954.6824     2.6295   251.5686    38.4655  1082.8805     2.5598
 1954.8348     2.6343   249.6177    35.4891  1144.2494     2.6658
 1954.9872     2.6451   245.3865    34.8129  1156.6351     2.7668
 1955.1396     2.6603   242.2720    32.8309  1180.0605     2.8642
 1955.2920     2.6634   238.2003    29.0880  1199.7275     2.9718
 1955.4444     2.6608   235.3275    28.4434  1209.2120     3.0832
 1955.5968     2.6592   231.0867    28.3286  1212.8895     3.1645
 1955.7492     2.6529   229.3554    27.7421  1227.9526     3.1937
 1955.9016     2.6564   231.1511    27.0496  1225.6143     3.1898
 1956.0540     2.6662   231.7875    26.8727  1213.9911     3.1586
 1956.2064     2.6611   232.2248    27.9465  1204.4407     3.1068
 1956.3588     2.6387   231.8949    29.7656  1193.2966     3.0575
 1956.5112     2.6273   233.9468    30.5533  1183.2815     3.0239
 1956.6636     2.6311   235.6157    31.0855  1174.2542     2.9985
 1956.8160     2.6399   237.9445    31.8539  1163.2129     2.9667
 1956.9684     2.6452   237.7665    32.1676  1163.3512     2.9276
 1957.1208     2.6454   237.7902    33.4697  1173.7764     2.8736
 1957.2732     2.6471   239.6709    34.0929  1171.5548     2.7967
 1957.4256     2.6507   239.6517    34.9103  1146.0956     2.7064
 1957.5780     2.6464   240.4313    35.3314  1140.7728     2.5987
