~VERSION INFORMATION
VERS.                                                 2.0:   CWLS Log ASCII Standard-VERSION 2.0
WRAP.                                                  NO:   One line per depth step
~Well Information Block
STRT.M                                            61.2648:   Top Depth
STOP.M                                          2091.2328:   Bottom Depth
STEP.M                                             .15240:   Depth Increment
NULL.                                            -999.250:   Null Value
FLD .                                               YIBAL:   Field Name
WELL.                                           YIBAL-5H1:   NAME
LOC .                                     YIBAL 50-100-39:   AREA NAME
EDF .                                              116.42:   ELEV DRILL FLOOR
EPD .                                                   0:   ELEV PERM DATUM
EGL .                                              111.54:   GROUND LEVEL
SRVC.                                        SCHLUMBERGER:   LOGGING CONTRACTOR
COMP.                          Petroleum Development Oman:   OPERATOR
PDAT.                                                 MSL:   PERM DATUM
COUN.                                             RIG02_1:   RIG NAME
SPUD.                                          1967/02/12:   SPUD DATE
LATI.                                         22.15958657:   SURF. LATITUDE
LONG.                                          56.0289369:   SURF. LONGITUDE
UTME.                                           399872.59:   SURF. UTM E
UTMN.                                          2450604.47:   SURF. UTM N
~PARAMETER INFORMATION (log)
LNAM.                                              PUBLIC:   NAME
LTYP.                                              JOINED:   LOG TYPE
LSRV.                                            CLEAN UP:   SERVICE
LSOU.                                               FUGRO:   LOG SOURCE
LVSN.                                                   1:   LOG VERSION
BHIS.                                                   R:   BRIEF HISTORY
TDD .M                                            2093.98:   FINAL TD DRILLER
TDL .M                                            2091.54:   FINAL TD LOGGER
FHIS.                                             RAW-LAS:   FULL HISTORY
LCNM.                                        SCHLUMBERGER:   LOGGING CONTRACTOR
~Curve Information Block
#MNEM.UNIT                                        API CODE    No Description
#=========                                        ========    == ===========
DEPT.M                                       00 001 00 00:     1  DEPTH
DEN.G/CC                                                 :     2  Bulk Density
DT.US/M                                                  :     3  Acoustic log
GR.API                                                   :     4  Gamma Ray
NEU.V/V                                                  :     5  Neutron Porosity in Limestone Units
RES_DEP.OHMM                                             :     6  Resistivity Deep
~ASCII
# ...
 2069.2872     2.6205   254.8456    39.0700  1038.7133     2.5916
 2069.4396     2.6268   256.4836    38.2769  1035.5229     2.5896
 2069.5920     2.6396   257.2614    38.1185  1034.9536     2.5811
 2069.7444     2.6449   256.2008    37.8976  1033.1716     2.5711
 2069.8968     2.6334   254.8713    38.1180  1040.8933     2.5589
 2070.0492     2.6371   254.7480    38.2706  1043.7340     2.5560
 2070.2016     2.6236   253.5927    38.9575  1055.4225     2.5613
 2070.3540     2.6327   252.0474    39.0458  1075.0778     2.5966
 2070.5064     2.6299   250.7431    37.7103  1089.5249     2.7118
 2070.6588     2.6291   249.9761    37.9539  1092.6857     2.7754
 2070.8112     2.6428   250.4211    37.9365  1092.7649     2.7853
 2070.9636     2.6344   249.7738    37.3078  1089.6244     2.7893
 2071.1160     2.6344   251.0629    36.2905  1076.9022     2.7894
 2071.2684     2.6211   252.6539    35.3970  1069.7513     2.7851
 2071.4208     2.6072   253.8436    34.9458  1055.2656     2.7738
 2071.5732     2.6064   254.0571    35.1723  1027.7595     2.7483
 2071.7256     2.6312   254.3563    36.9145  1024.9480     2.7087
 2071.8780     2.6392   254.4763    39.9543  1054.1997     2.6764
 2072.0304     2.6489   253.3306    41.3654  1079.6650     2.6719
 2072.1828     2.6274   251.8280    41.3939  1084.7721     2.6759
 2072.3352     2.6301   250.8956    40.3502  1089.4906     2.6878
 2072.4876     2.6460   251.0318    38.9860  1067.3844     2.7099
 2072.6400     2.6396   252.6723    38.7638  1061.5934     2.7110
 2072.7924     2.6353   254.3619    38.7671  1047.3105     2.6925
 2072.9448     2.6256   256.4546    39.4848  1030.4802     2.6615
 2073.0972     2.6302   258.5876    40.2353  1020.4872     2.6307
 2073.2496     2.6268   260.7206    41.9874  1023.8835     2.5836
 2073.4020     2.6240   258.2322    42.3843  1032.2603     2.5749
 2073.5544     2.6258   257.2485    42.3445  1035.3972     2.5710
 2073.7068     2.6167   255.8201    41.6947  1047.3467     2.5676
 2073.8592     2.6068   254.9760    40.2220  1056.4526     2.5679
 2074.0116     2.6147   255.5577    39.9798  1057.5682     2.5719
 2074.1640     2.6240   256.9469    39.8136  1054.6581     2.5734
 2074.3164     2.6262   257.5997    39.2057  1039.4755     2.5861
 2074.4688     2.6356   257.4471    38.7376  1022.6862     2.6060
 2074.6212     2.6596   257.2883    39.7670  1029.9583     2.6440
 2074.7736     2.6489   256.3447    39.9172  1035.8134     2.6553
 2074.9260     2.6342   254.7523    39.4846  1060.2969     2.6792
 2075.0784     2.6294   252.9172    37.8219  1061.6805     2.6880
 2075.2308     2.6223   251.9117    37.3373  1061.9814     2.6985
 2075.3832     2.6120   253.0589    37.4443  1060.7302     2.7068
 2075.5356     2.6238   253.9155    38.3114  1051.8093     2.7164
 2075.6880     2.6319   254.7300    38.4000  1045.1061     2.7439
 2075.8404     2.6323   253.4291    38.5923  1058.0001     2.7931
 2075.9928     2.6124   253.2464    39.1631  1074.0402     2.8050
 2076.1452     2.6190   253.5303    39.3760  1075.5343     2.8239
 2076.2976     2.6299   253.6065    40.2181  1070.4980     2.8333
 2076.4500     2.6372   252.3017    41.3047  1070.3384     2.8380
 2076.6024     2.6494   251.2492    42.5061  1076.0334     2.8420
 2076.7548     2.6455   250.3087    42.2347  1068.8887     2.8460
 2076.9072     2.6543   249.6589    40.3078  1064.7208     2.8500
 2077.0596     2.6683   249.4218    37.8273  1068.1340     2.8527
 2077.2120     2.6571   249.9164    36.6711  1064.1774     2.8497
 2077.3644     2.6428   250.3293    37.1812  1059.1621     2.8416
 2077.5168     2.6420   250.9513    37.3586  1060.1534     2.7954
 2077.6692     2.6499   251.5270    37.7033  1068.4744     2.7376
 2077.8216     2.6468   251.6149    37.2662  1061.2484     2.6898
 2077.9740     2.6331   252.0515    37.2889  1058.4073     2.6587
 2078.1264     2.6360   254.7584    38.0247  1048.3586     2.6244
 2078.2788     2.6324   256.4990    39.1327  1034.4907     2.5588
 2078.4312     2.6264   256.1529    40.0519  1013.5909     2.5439
 2078.5836     2.6310   257.4227    40.4661  1019.6638     2.5245
 2078.7360     2.6233   261.0817    40.5347  1021.8206     2.5162
 2078.8884     2.6183   260.7386    40.6818  1025.2430     2.4882
 2079.0408     2.6258   259.2980    41.3251  1018.8619     2.4701
 2079.1932     2.6335   258.7082    43.3277  1007.5552     2.4647
 2079.3456     2.6293   260.7574    43.6771  1005.7615     2.4640
 2079.4980     2.6311   261.9556    43.4977  1006.3803     2.4648
 2079.6504     2.6400   260.0862    41.3992  1016.7978     2.4744
 2079.8028     2.6349   259.1768    41.1768  1044.4216     2.5020
 2079.9552     2.6310   259.4430    42.4339  1053.2970     2.5106
 2080.1076     2.6170   257.3506    42.5229  1054.1946     2.5336
 2080.2600     2.6174   255.6204    41.6871  1052.4117     2.5552
 2080.4124     2.6411   255.5777    40.4835  1041.5968     2.5655
 2080.5648     2.6604   255.6251    39.3656  1032.7490     2.5664
 2080.7172     2.6523   257.1447    39.1398  1026.9830     2.5641
 2080.8696     2.6527   258.0888    40.5211  1023.4858     2.5659
 2081.0220     2.6484   259.3652    40.9091  1023.1307     2.5631
 2081.1744     2.6383   259.0679    41.2494  1026.0363     2.5604
 2081.3268     2.6304   257.7885    41.9026  1031.7240     2.5606
 2081.4792     2.6312   258.7350    41.8883  1033.2281     2.5639
 2081.6316     2.6418   258.5568    41.1293  1034.6447     2.5699
 2081.7840     2.6515   257.6818    40.4391  1022.7079     2.5936
 2081.9364     2.6567   256.6623    40.4225  1022.8300     2.6367
 2082.0888     2.6411   255.1183    40.8313  1036.5957     2.6980
 2082.2412     2.6443   254.0309    40.3915  1050.2977     2.7417
 2082.3936     2.6300   252.8204    39.1095  1064.9924     2.7672
 2082.5460     2.6162   250.8125    38.0513  1073.5237     2.8138
 2082.6984     2.6177   251.1010    37.9087  1071.9313     2.8297
 2082.8508     2.6311   251.6773    38.0429  1058.4513     2.8737
 2083.0032     2.6284   250.3077    38.6259  1071.2979     2.8874
 2083.1556     2.6249   248.8042    38.8118  1093.5939     2.8815
 2083.3080     2.6293   249.5270    38.6525  1095.8242     2.8639
 2083.4604     2.6266   249.5394    37.3645  1085.5493     2.8334
 2083.6128     2.6233   248.8470    35.8769  1059.9668     2.7895
 2083.7652     2.6137   249.4309    37.1869  1037.2273     2.7139
 2083.9176     2.6094   252.5728    38.9949  1028.2925     2.7005
 2084.0700     2.6240   255.2771    39.4184  1026.3934     2.6945
 2084.2224     2.6381   254.7883    40.4035  1023.9173     2.6903
 2084.3748     2.6694   255.3406    41.0155  1038.9896     2.6812
 2084.5272     2.6490   256.5817    40.5434  1055.3386     2.6618
 2084.6796     2.6484   256.4856    39.6506  1051.0457     2.6427
 2084.8320     2.6538   256.1567    38.7328  1036.8219     2.6361
 2084.9844     2.6416   255.7703    38.7812  1037.2389     2.6224
 2085.1368     2.6293   255.4011    39.9797  1047.7819     2.6159
 2085.2892     2.6154   256.1624    39.9849  1038.7289     2.6145
 2085.4416     2.6295   255.6179    40.0059  1035.2168     2.6106
 2085.5940     2.6528   255.8704    40.6012  1023.5475     2.6038
 2085.7464     2.6534   256.7988    42.5841  1014.0313     2.5959
 2085.8988     2.6436   257.8020    42.9082  1014.1506     2.5866
 2086.0512     2.6329   257.2513    42.7178  1023.5800     2.5750
 2086.2036     2.6145   255.9422    41.3223  1033.2523     2.5646
 2086.3560     2.6108   255.9920    41.0466  1044.4432     2.5625
 2086.5084     2.6123   257.3989    41.2434  1045.8849     2.5595
 2086.6608     2.6285   257.3835    41.3058  1045.0975     2.5590
 2086.8132     2.6301   257.1692    41.4733  1039.3140     2.5590
 2086.9656     2.6382   256.4360    41.6140  1033.4376     2.5590
 2087.1180     2.6446   257.6926    41.9115  1040.4456     2.5590
 2087.2704     2.6236   257.7137    41.9375  1041.7600     2.5590
 2087.4228     2.6156   257.9583    41.9360  1040.9325     2.5590
 2087.5752     2.6186   258.1907    42.9197  1031.7587     2.5590
 2087.7276     2.6436   258.3662    45.1398  1014.1971     2.5590
