~VERSION INFORMATION
VERS.                                                 2.0:   CWLS Log ASCII Standard-VERSION 2.0
WRAP.                                                  NO:   One line per depth step
~Well Information Block
STRT.M                                            61.2648:   Top Depth
STOP.M                                          2091.2328:   Bottom Depth
STEP.M                                             .15240:   Depth Increment
NULL.                                            -999.250:   Null Value
FLD .                                               YIBAL:   Field Name
WELL.                                           YIBAL-5H1:   NAME
LOC .                                     YIBAL 50-100-39:   AREA NAME
EDF .                                              116.42:   ELEV DRILL FLOOR
EPD .                                                   0:   ELEV PERM DATUM
EGL .                                              111.54:   GROUND LEVEL
SRVC.                                        SCHLUMBERGER:   LOGGING CONTRACTOR
COMP.                          Petroleum Development Oman:   OPERATOR
PDAT.                                                 MSL:   PERM DATUM
COUN.                                             RIG02_1:   RIG NAME
SPUD.                                          1967/02/12:   SPUD DATE
LATI.                                         22.15958657:   SURF. LATITUDE
LONG.                                          56.0289369:   SURF. LONGITUDE
UTME.                                           399872.59:   SURF. UTM E
UTMN.                                          2450604.47:   SURF. UTM N
~PARAMETER INFORMATION (log)
LNAM.                                              PUBLIC:   NAME
LTYP.                                              JOINED:   LOG TYPE
LSRV.                                            CLEAN UP:   SERVICE
LSOU.                                               FUGRO:   LOG SOURCE
LVSN.                                                   1:   LOG VERSION
BHIS.                                                   R:   BRIEF HISTORY
TDD .M                                            2093.98:   FINAL TD DRILLER
TDL .M                                            2091.54:   FINAL TD LOGGER
FHIS.                                             RAW-LAS:   FULL HISTORY
LCNM.                                        SCHLUMBERGER:   LOGGING CONTRACTOR
~Curve Information Block
#MNEM.UNIT                                        API CODE    No Description
#=========                                        ========    == ===========
DEPT.M                                       00 001 00 00:     1  DEPTH
DEN.G/CC                                                 :     2  Bulk Density
DT.US/M                                                  :     3  Acoustic log
GR.API                                                   :     4  Gamma Ray
NEU.V/V                                                  :     5  Neutron Porosity in Limestone Units
RES_DEP.OHMM                                             :     6  Resistivity Deep
~ASCII
# ...
  730.6056  -999.2500   462.9149    39.3510   570.7877      .3109
  730.7580  -999.2500   461.4535    39.8430   572.8470      .3103
  730.9104  -999.2500   448.7901    39.4579   573.7035      .3096
  731.0628  -999.2500   445.5087    39.2022   569.6878      .3090
  731.2152  -999.2500   455.5877    39.7220   557.4129      .3083
  731.3676  -999.2500   461.1521    39.8934   546.8469      .3077
  731.5200  -999.2500   464.8507    39.7095   541.7108      .3071
  731.6724  -999.2500   467.7590    38.9686   539.1621      .3064
  731.8248  -999.2500   463.4969    38.2634   536.2795      .3058
  731.9772  -999.2500   460.9862    38.4779   529.8021      .3052
  732.1296  -999.2500   456.0363    38.6118   537.4894      .3045
  732.2820  -999.2500   453.6769    38.3001   542.0820      .3039
  732.4344  -999.2500   445.2148    37.6174   551.3000      .3032
  732.5868  -999.2500   448.8127    37.1698   561.4744      .3026
  732.7392  -999.2500   447.5983    37.7571   566.4185      .3020
  732.8916  -999.2500   455.6952    37.4360   577.5474      .3013
  733.0440  -999.2500   451.5154    37.5796   575.6991      .3007
  733.1964  -999.2500   447.1525    38.0663   574.7633      .3000
  733.3488  -999.2500   451.5166    37.5031   568.6127      .2994
  733.5012  -999.2500   441.7978    38.0465   566.3870      .2988
  733.6536  -999.2500   442.4331    38.8756   559.2270      .2981
  733.8060  -999.2500   442.7813    38.7358   557.5219      .2975
  733.9584  -999.2500   445.2558    39.1940   546.0883      .2969
  734.1108  -999.2500   451.2762    38.6858   541.1026      .2962
  734.2632  -999.2500   449.8712    38.2475   542.2145      .2956
  734.4156  -999.2500   452.0679    36.8491   547.8386      .2949
  734.5680  -999.2500   454.6489    35.5565   553.5596      .2943
  734.7204  -999.2500   453.6898    35.0362   555.6125      .2937
  734.8728  -999.2500   453.4045    34.8652   551.0956      .2930
  735.0252  -999.2500   459.8811    34.7185   554.6694      .2924
  735.1776  -999.2500   460.1045    34.5645   565.4988      .2918
  735.3300  -999.2500   458.1607    34.7593   560.5448      .2911
  735.4824  -999.2500   451.9946    35.6481   559.8143      .2905
  735.6348  -999.2500   448.9336    36.5504   557.9070      .2898
  735.7872  -999.2500   453.7219    36.8459   554.2560      .2892
  735.9396  -999.2500   447.3409    36.3397   553.3926      .2886
  736.0920  -999.2500   451.3219    36.2876   557.9845      .2879
  736.2444  -999.2500   446.2999    36.2375   554.8452      .2873
  736.3968  -999.2500   444.9993    35.6425   558.8844      .2866
  736.5492  -999.2500   439.5009    34.9136   563.7969      .2860
  736.7016  -999.2500   436.2524    34.7500   569.6132      .2854
  736.8540  -999.2500   436.1634    35.1375   574.1125      .2847
  737.0064  -999.2500   438.1548    35.6198   574.1819      .2841
  737.1588  -999.2500   439.2163    35.7183   574.0021      .2835
  737.3112  -999.2500   440.7497    35.7892   575.3410      .2830
  737.4636  -999.2500   444.1639    35.9633   572.0166      .2835
  737.6160  -999.2500   445.1193    36.0180   566.4276      .2846
  737.7684  -999.2500   452.0480    36.4582   562.7340      .2858
  737.9208  -999.2500   453.2855    36.9997   559.7786      .2870
  738.0732  -999.2500   450.8786    38.2173   552.1782      .2881
  738.2256  -999.2500   453.6590    39.5209   547.5880      .2893
  738.3780  -999.2500   457.3851    39.6245   548.6994      .2905
  738.5304  -999.2500   460.0687    39.4277   554.3165      .2916
  738.6828  -999.2500   458.4595    38.6693   559.8572      .2928
  738.8352  -999.2500   456.0486    37.6897   560.0656      .2940
  738.9876  -999.2500   455.1465    36.8394   556.2907      .2951
  739.1400  -999.2500   453.5627    36.1483   547.3045      .2963
  739.2924  -999.2500   454.9545    35.4871   539.2048      .2975
  739.4448  -999.2500   457.3584    34.8223   535.1288      .2986
  739.5972  -999.2500   461.2316    34.1462   530.2611      .2998
  739.7496  -999.2500   460.0082    34.1500   524.1086      .3010
  739.9020  -999.2500   460.4961    34.8913   528.4983      .3021
  740.0544  -999.2500   461.5766    35.7445   538.0619      .3033
  740.2068  -999.2500   461.2936    35.7024   546.8560      .3045
  740.3592  -999.2500   465.9847    35.8363   550.1614      .3056
  740.5116  -999.2500   467.0955    36.0089   545.2611      .3068
  740.6640  -999.2500   459.5969    36.3161   542.8749      .3079
  740.8164  -999.2500   459.6411    36.6545   543.9857      .3091
  740.9688  -999.2500   462.4916    36.9946   547.3102      .3103
  741.1212  -999.2500   465.4785    37.3353   549.6275      .3114
  741.2736  -999.2500   467.5841    37.7032   549.2646      .3126
  741.4260  -999.2500   466.7971    38.3105   542.9716      .3138
  741.5784  -999.2500   476.6814    38.1106   539.5756      .3149
  741.7308  -999.2500   476.8502    36.7197   541.4958      .3161
  741.8832  -999.2500   477.1473    36.1846   543.5228      .3173
  742.0356  -999.2500   481.0727    37.5652   540.9811      .3184
  742.1880  -999.2500   479.2753    38.7729   532.4188      .3196
  742.3404  -999.2500   475.9251    38.9824   526.4592      .3208
  742.4928  -999.2500   471.8298    38.5781   537.4766      .3219
  742.6452  -999.2500   458.7518    36.8187   544.6270      .3231
  742.7976  -999.2500   460.9691    35.2381   545.6221      .3243
  742.9500  -999.2500   457.2737    35.5726   549.9362      .3260
  743.1024  -999.2500   451.1110    36.4995   552.9839      .3346
  743.2548  -999.2500   443.6740    37.5595   549.4545      .3614
  743.4072  -999.2500   436.6243    38.1696   550.8434      .3992
  743.5596  -999.2500   436.4008    38.0589   549.2421      .4371
  743.7120  -999.2500   420.4018    37.8517   561.6802      .4665
  743.8644  -999.2500   419.2074    37.3965   559.3151      .4733
  744.0168  -999.2500   423.4653    37.9665   562.6943      .4669
  744.1692  -999.2500   426.2285    37.5607   560.5493      .4593
  744.3216  -999.2500   425.2391    38.1603   565.1188      .4517
  744.4740  -999.2500   436.0594    38.0449   563.6991      .4442
  744.6264  -999.2500   447.5334    37.8451   564.3458      .4366
  744.7788  -999.2500   458.0826    37.6008   562.8016      .4291
  744.9312  -999.2500   454.8945    37.2184   565.6241      .4215
  745.0836  -999.2500   442.9389    36.0110   555.0526      .4139
  745.2360  -999.2500   449.1404    34.6727   554.6262      .4064
  745.3884  -999.2500   448.8051    34.1738   550.5417      .3988
  745.5408  -999.2500   434.4932    34.4326   548.5259      .3913
  745.6932  -999.2500   432.7796    36.2902   552.3722      .3837
  745.8456  -999.2500   439.4032    37.7062   552.8542      .3763
  745.9980  -999.2500   459.2036    38.3193   553.7551      .3702
  746.1504  -999.2500   465.5821    37.9983   554.8726      .3655
  746.3028  -999.2500   471.1845    38.2737   557.1036      .3614
  746.4552  -999.2500   479.4997    38.7200   554.3318      .3573
  746.6076  -999.2500   467.3249    37.5143   553.3561      .3532
  746.7600  -999.2500   459.0105    36.7033   545.5179      .3491
  746.9124  -999.2500   464.6099    36.0012   539.3047      .3450
  747.0648  -999.2500   467.5014    35.9047   538.7161      .3409
  747.2172  -999.2500   456.9982    36.1284   540.7059      .3368
  747.3696  -999.2500   448.8933    35.7439   541.0073      .3327
  747.5220  -999.2500   448.9916    35.5910   542.5797      .3286
  747.6744  -999.2500   456.7629    35.7891   548.9978      .3245
  747.8268  -999.2500   445.9200    36.0379   552.8723      .3205
  747.9792  -999.2500   432.1547    36.4352   555.8043      .3164
  748.1316  -999.2500   425.5652    36.0780   551.8900      .3123
  748.2840  -999.2500   426.4111    36.0915   549.5773      .3097
  748.4364  -999.2500   432.3356    36.7127   550.1945      .3240
  748.5888  -999.2500   430.5661    37.7463   547.9922      .3623
  748.7412  -999.2500   425.7985    38.3469   544.4042      .4098
  748.8936  -999.2500   426.7101    38.1961   539.9932      .4437
  749.0460  -999.2500   432.8966    38.8862   538.4952      .4516
