~VERSION INFORMATION
VERS.                                                 2.0:   CWLS Log ASCII Standard-VERSION 2.0
WRAP.                                                  NO:   One line per depth step
~Well Information Block
STRT.M                                            61.2648:   Top Depth
STOP.M                                          2091.2328:   Bottom Depth
STEP.M                                             .15240:   Depth Increment
NULL.                                            -999.250:   Null Value
FLD .                                               YIBAL:   Field Name
WELL.                                           YIBAL-5H1:   NAME
LOC .                                     YIBAL 50-100-39:   AREA NAME
EDF .                                              116.42:   ELEV DRILL FLOOR
EPD .                                                   0:   ELEV PERM DATUM
EGL .                                              111.54:   GROUND LEVEL
SRVC.                                        SCHLUMBERGER:   LOGGING CONTRACTOR
COMP.                          Petroleum Development Oman:   OPERATOR
PDAT.                                                 MSL:   PERM DATUM
COUN.                                             RIG02_1:   RIG NAME
SPUD.                                          1967/02/12:   SPUD DATE
LATI.                                         22.15958657:   SURF. LATITUDE
LONG.                                          56.0289369:   SURF. LONGITUDE
UTME.                                           399872.59:   SURF. UTM E
UTMN.                                          2450604.47:   SURF. UTM N
~PARAMETER INFORMATION (log)
LNAM.                                              PUBLIC:   NAME
LTYP.                                              JOINED:   LOG TYPE
LSRV.                                            CLEAN UP:   SERVICE
LSOU.                                               FUGRO:   LOG SOURCE
LVSN.                                                   1:   LOG VERSION
BHIS.                                                   R:   BRIEF HISTORY
TDD .M                                            2093.98:   FINAL TD DRILLER
TDL .M                                            2091.54:   FINAL TD LOGGER
FHIS.                                             RAW-LAS:   FULL HISTORY
LCNM.                                        SCHLUMBERGER:   LOGGING CONTRACTOR
~Curve Information Block
#MNEM.UNIT                                        API CODE    No Description
#=========                                        ========    == ===========
DEPT.M                                       00 001 00 00:     1  DEPTH
DEN.G/CC                                                 :     2  Bulk Density
DT.US/M                                                  :     3  Acoustic log
GR.API                                                   :     4  Gamma Ray
NEU.V/V                                                  :     5  Neutron Porosity in Limestone Units
RES_DEP.OHMM                                             :     6  Resistivity Deep
~ASCII
# ...
 1399.9464     2.1320   344.0068    13.2463   909.2053    86.2118
 1400.0988     2.1268   344.7065    14.0452   910.8510    88.5625
 1400.2512     2.1271   344.4543    14.2697   905.1393    91.0583
 1400.4036     2.1303   344.4451    13.9813   897.4089    95.2407
 1400.5560     2.1308   344.6681    13.6524   889.6874    99.0132
 1400.7084     2.1304   344.2983    13.5887   885.5601    99.9823
 1400.8608     2.1288   343.2434    13.6707   881.9643   100.0299
 1401.0132     2.1266   343.5308    13.8467   883.6868    99.9707
 1401.1656     2.1326   342.3530    14.2367   891.6427    99.8174
 1401.3180     2.1464   340.7034    14.7005   899.6788    99.6280
 1401.4704     2.1578   338.8141    15.2262   905.6543    99.4748
 1401.6228     2.1683   337.2222    15.2787   906.7871    99.3194
 1401.7752     2.1735   334.0491    15.2727   911.7717    99.1325
 1401.9276     2.1685   332.7907    15.2881   912.6631    93.6630
 1402.0800     2.1632   331.6848    15.4095   915.4028    76.9060
 1402.2324     2.1551   332.0216    15.1901   911.8466    66.3522
 1402.3848     2.1560   330.5134    14.8428   909.3401    61.0260
 1402.5372     2.1649   329.5358    14.4436   908.9467    56.6558
 1402.6896     2.1660   331.8115    14.0881   908.7263    51.2579
 1402.8420     2.1601   332.0477    13.8889   909.6891    44.8911
 1402.9944     2.1545   332.2523    13.7921   913.9061    40.5774
 1403.1468     2.1600   334.1039    13.7841   913.6197    37.4603
 1403.2992     2.1702   334.2391    13.8298   907.8141    34.5873
 1403.4516     2.1676   333.7137    13.6666   894.2433    33.1605
 1403.6040     2.1597   333.8748    13.6438   894.7585    34.1258
 1403.7564     2.1533   333.4970    13.6043   912.1606    37.4082
 1403.9088     2.1548   332.4014    13.5986   913.7800    43.0776
 1404.0612     2.1620   332.4782    13.6088   910.5242    52.6410
 1404.2136     2.1644   331.6835    13.9024   904.3085    73.3970
 1404.3660     2.1645   328.8966    14.8725   915.0759    93.2156
 1404.5184     2.1680   325.7856    16.7209   929.9326    98.7036
 1404.6708     2.1758   323.9830    18.2466   938.0111    99.2729
 1404.8232     2.1819   322.2645    19.1547   944.2130    99.3775
 1404.9756     2.1890   319.9243    19.4264   944.4247    99.4708
 1405.1280     2.1825   316.3629    19.9060   937.5719    98.4430
 1405.2804     2.1729   310.0062    19.9113   925.8641    90.7874
 1405.4328     2.1729   308.0620    18.5942   905.5087    72.6878
 1405.5852     2.1634   308.2752    18.3851   904.3928    54.6681
 1405.7376     2.1538   307.1263    17.8076   913.4033    45.3544
 1405.8900     2.1501   309.1312    17.7652   915.4857    37.6429
 1406.0424     2.1500   316.8554    17.9492   925.8980    32.3324
 1406.1948     2.1487   320.0732    17.9420   931.2997    30.4517
 1406.3472     2.1532   326.5810    17.4922   922.9504    30.5291
 1406.4996     2.1537   326.3995    16.5616   914.0524    31.4335
 1406.6520     2.1444   326.0475    15.7727   906.8541    32.4831
 1406.8044     2.1399   328.7971    15.2973   904.0643    34.7571
 1406.9568     2.1441   332.8173    15.2230   903.7114    38.0241
 1407.1092     2.1511   333.6938    15.2503   903.9867    40.8015
 1407.2616     2.1579   335.3656    15.3583   905.7771    44.4743
 1407.4140     2.1576   333.7635    15.8934   908.9444    47.8082
 1407.5664     2.1485   334.7757    15.9741   908.8506    50.6692
 1407.7188     2.1487   338.2854    16.3161   906.4222    56.1906
 1407.8712     2.1580   335.9132    17.5170   918.8796    60.9669
 1408.0236     2.1616   334.5645    17.0521   927.2800    68.0292
 1408.1760     2.1589   332.0528    16.2102   935.3861    76.8428
 1408.3284     2.1587   329.3015    15.7432   940.6141    78.4989
 1408.4808     2.1596   327.0884    15.4660   953.3050    85.6580
 1408.6332     2.1753   322.0945    14.7156   950.3504    92.1499
 1408.7856     2.1937   323.2578    13.9237   947.6628    84.8454
 1408.9380     2.1973   319.5321    14.3316   938.9440    78.5714
 1409.0904     2.1885   317.3129    16.2328   915.7729    75.9525
 1409.2428     2.1817   317.5204    16.4736   912.8517    70.7093
 1409.3952     2.1755   316.4785    16.7965   908.7701    61.7910
 1409.5476     2.1758   316.1862    16.8228   907.1498    56.6993
 1409.7000     2.1857   316.8105    16.7381   896.0933    54.6828
 1409.8524     2.2001   315.5319    16.6713   891.2098    54.5801
 1410.0048     2.2024   315.0301    16.6728   905.9177    55.4832
 1410.1572     2.1945   313.8064    16.6755   925.2413    53.7145
 1410.3096     2.1839   310.4796    16.5605   931.4707    49.5819
 1410.4620     2.1733   312.3909    16.3855   932.6895    47.4905
 1410.6144     2.1647   314.7743    16.3984   928.7564    46.0300
 1410.7668     2.1615   322.7292    16.7676   916.6830    43.7786
 1410.9192     2.1656   328.6169    17.1930   914.0914    43.2469
 1411.0716     2.1643   329.0075    17.7787   912.7704    40.8355
 1411.2240     2.1519   327.6922    17.7599   910.5973    37.0380
 1411.3764     2.1389   329.8657    17.0540   892.4106    33.2226
 1411.5288     2.1332   328.3307    16.9107   890.0093    30.2235
 1411.6812     2.1366   325.0254    16.2817   886.4000    27.8355
 1411.8336     2.1414   323.5508    15.8448   886.7244    26.4425
 1411.9860     2.1392   327.7548    15.5831   887.7546    27.5224
 1412.1384     2.1322   329.1536    15.0968   891.1904    29.5970
 1412.2908     2.1350   327.9393    15.0629   896.5592    30.4326
 1412.4432     2.1396   325.3856    15.5010   892.9619    29.2508
 1412.5956     2.1488   322.7480    16.1218   890.2285    26.5006
 1412.7480     2.1583   319.6613    16.9894   901.8677    22.9360
 1412.9004     2.1624   315.4133    17.9083   902.7860    20.4740
 1413.0528     2.1605   312.9500    18.5888   887.9021    18.7130
 1413.2052     2.1538   311.4432    18.4771   884.7120    17.2099
 1413.3576     2.1389   312.0248    16.8953   870.9633    15.8543
 1413.5100     2.1279   314.8040    16.7087   869.3389    14.7064
 1413.6624     2.1227   323.0235    16.5435   868.1865    13.7721
 1413.8148     2.1242   326.2350    16.0840   867.2436    13.1556
 1413.9672     2.1311   326.1010    15.7159   866.7487    13.1078
 1414.1196     2.1351   324.9251    16.2493   866.7945    13.6589
 1414.2720     2.1379   324.3653    18.0264   868.9469    14.4646
 1414.4244     2.1378   325.3798    18.2008   871.0518    14.9436
 1414.5768     2.1371   325.6337    17.6686   871.6907    15.1664
 1414.7292     2.1358   324.7247    16.7190   870.8920    15.2307
 1414.8816     2.1335   325.8888    16.4867   870.1668    15.2741
 1415.0340     2.1340   325.7172    16.2705   870.2245    15.5084
 1415.1864     2.1368   325.3622    16.1805   870.3266    16.0618
 1415.3388     2.1366   325.1010    15.5788   871.1120    16.6925
 1415.4912     2.1325   325.6516    15.5275   871.4340    17.2041
 1415.6436     2.1267   326.1680    15.6891   873.8066    17.4728
 1415.7960     2.1228   325.9788    15.9588   876.7847    17.4906
 1415.9484     2.1204   328.5086    15.7213   879.6498    17.4448
 1416.1008     2.1208   328.2711    15.2714   882.0317    17.4484
 1416.2532     2.1205   328.4059    14.5498   882.4088    17.5198
 1416.4056     2.1199   327.8408    14.0982   881.2628    17.6479
 1416.5580     2.1186   327.4639    14.0221   879.7215    17.8985
 1416.7104     2.1154   327.3380    14.4384   876.9999    18.3208
 1416.8628     2.1109   329.0166    15.2860   872.2476    18.6386
 1417.0152     2.1137   330.3024    15.3821   860.9062    18.5906
 1417.1676     2.1104   330.9326    15.4718   861.1700    18.1820
 1417.3200     2.1026   330.8683    16.2496   874.2337    17.5734
 1417.4724     2.1062   329.7876    16.3638   876.6080    16.9957
 1417.6248     2.1155   327.6277    16.6394   885.4882    16.5591
 1417.7772     2.1244   324.8731    16.8359   890.8970    16.2568
 1417.9296     2.1305   323.2107    16.7365   890.6096    16.0807
 1418.0820     2.1303   322.2551    16.2856   880.3383    16.2997
 1418.2344     2.1305   319.7285    16.0262   880.7448    16.8453
 1418.3868     2.1362   319.0501    16.1386   884.8483    16.8651
