~VERSION INFORMATION
VERS.                                                 2.0:   CWLS Log ASCII Standard-VERSION 2.0
WRAP.                                                  NO:   One line per depth step
~Well Information Block
STRT.M                                            61.2648:   Top Depth
STOP.M                                          2091.2328:   Bottom Depth
STEP.M                                             .15240:   Depth Increment
NULL.                                            -999.250:   Null Value
FLD .                                               YIBAL:   Field Name
WELL.                                           YIBAL-5H1:   NAME
LOC .                                     YIBAL 50-100-39:   AREA NAME
EDF .                                              116.42:   ELEV DRILL FLOOR
EPD .                                                   0:   ELEV PERM DATUM
EGL .                                              111.54:   GROUND LEVEL
SRVC.                                        SCHLUMBERGER:   LOGGING CONTRACTOR
COMP.                          Petroleum Development Oman:   OPERATOR
PDAT.                                                 MSL:   PERM DATUM
COUN.                                             RIG02_1:   RIG NAME
SPUD.                                          1967/02/12:   SPUD DATE
LATI.                                         22.15958657:   SURF. LATITUDE
LONG.                                          56.0289369:   SURF. LONGITUDE
UTME.                                           399872.59:   SURF. UTM E
UTMN.                                          2450604.47:   SURF. UTM N
~PARAMETER INFORMATION (log)
LNAM.                                              PUBLIC:   NAME
LTYP.                                              JOINED:   LOG TYPE
LSRV.                                            CLEAN UP:   SERVICE
LSOU.                                               FUGRO:   LOG SOURCE
LVSN.                                                   1:   LOG VERSION
BHIS.                                                   R:   BRIEF HISTORY
TDD .M                                            2093.98:   FINAL TD DRILLER
TDL .M                                            2091.54:   FINAL TD LOGGER
FHIS.                                             RAW-LAS:   FULL HISTORY
LCNM.                                        SCHLUMBERGER:   LOGGING CONTRACTOR
~Curve Information Block
#MNEM.UNIT                                        API CODE    No Description
#=========                                        ========    == ===========
DEPT.M                                       00 001 00 00:     1  DEPTH
DEN.G/CC                                                 :     2  Bulk Density
DT.US/M                                                  :     3  Acoustic log
GR.API                                                   :     4  Gamma Ray
NEU.V/V                                                  :     5  Neutron Porosity in Limestone Units
RES_DEP.OHMM                                             :     6  Resistivity Deep
~ASCII
# ...
 1139.6472     2.2784   275.8931    11.5842   824.2091      .2028
 1139.7996     2.2853   284.5920    10.8338   818.9109      .2007
 1139.9520     2.2907   288.7482    10.7059   800.3519      .1955
 1140.1044     2.2873   282.8334    10.8103   783.6597      .1947
 1140.2568     2.2710   278.3786    10.7930   783.1387      .1913
 1140.4092     2.2557   282.4742    10.7850   779.8126      .1907
 1140.5616     2.2522   288.2007    10.9556   769.2111      .1873
 1140.7140     2.2514   286.8831    11.1878   756.7767      .1867
 1140.8664     2.2493   286.4456    11.5234   738.4065      .1833
 1141.0188     2.2486   283.6749    11.5715   734.9175      .1832
 1141.1712     2.2486   278.8480    11.5478   762.4577      .1848
 1141.3236     2.2464   273.5900    11.5910   766.7831      .1852
 1141.4760     2.2456   264.6024    12.0971   785.3241      .1871
 1141.6284     2.2588   258.2390    12.2917   802.1622      .1905
 1141.7808     2.2692   262.2528    11.9527   812.6648      .1995
 1141.9332     2.2627   268.7390    12.0959   817.5999      .2137
 1142.0856     2.2636   285.1559    12.7272   816.8812      .2155
 1142.2380     2.2682   295.4434    12.6852   811.3724      .2213
 1142.3904     2.2535   297.4599    12.9735   802.0778      .2310
 1142.5428     2.2363   305.9909    13.6051   788.9290      .2402
 1142.6952     2.2292   302.9026    14.3113   771.5359      .2435
 1142.8476     2.2242   292.8208    14.9041   750.0285      .2695
 1143.0000     2.2347   293.3600    15.0568   742.7404      .2749
 1143.1524     2.2624   289.9869    14.9397   740.5508      .3051
 1143.3048     2.2738   297.2555    14.9061   742.9985      .3091
 1143.4572     2.2811   285.8783    14.6308   772.6046      .3215
 1143.6096     2.2965   276.1568    13.8948   795.8823      .3282
 1143.7620     2.3016   281.3681    12.8752   814.0944      .3158
 1143.9144     2.2790   276.9282    12.1224   810.7771      .3004
 1144.0668     2.2727   275.1140    12.7285   781.6614      .2979
 1144.2192     2.2899   266.7399    13.4784   754.5181      .2862
 1144.3716     2.3210   273.4389    14.3121   757.4760      .2749
 1144.5240     2.3406   273.3798    14.2021   773.3148      .2631
 1144.6764     2.3328   273.5251    13.2571   786.8761      .2620
 1144.8288     2.3044   268.5459    12.9896   794.6965      .2620
 1144.9812     2.2897   276.7152    12.8505   793.5209      .2617
 1145.1336     2.2791   273.7395    12.6720   769.4951      .2583
 1145.2860     2.2815   280.8604    12.6477   766.0740      .2574
 1145.4384     2.2982   292.2111    12.5591   754.9380      .2508
 1145.5908     2.3068   300.0646    12.5361   765.0786      .2410
 1145.7432     2.2960   298.1186    12.5234   782.9315      .2307
 1145.8956     2.2816   270.9664    12.5713   813.1316      .2081
 1146.0480     2.2783   280.4610    12.9864   796.2690      .2047
 1146.2004     2.2781   286.9437    13.4737   783.8968      .1904
 1146.3528     2.2598   284.3121    14.1042   772.2389      .1793
 1146.5052     2.2263   277.9885    14.1261   773.6277      .1726
 1146.6576     2.2181   282.7976    13.3705   787.6902      .1722
 1146.8100     2.2252   293.2096    13.0912   798.0852      .1748
 1146.9624     2.2353   289.3105    13.3163   806.8675      .1756
 1147.1148     2.2520   280.3100    13.6855   799.6479      .1823
 1147.2672     2.2582   274.8599    13.6917   798.4303      .1830
 1147.4196     2.2606   278.5477    13.3855   792.0207      .1830
 1147.5720     2.2600   280.2255    13.2365   766.2997      .1833
 1147.7244     2.2485   287.2985    13.1520   747.9586      .1864
 1147.8768     2.2352   283.9216    13.0715   737.4464      .1833
 1148.0292     2.2315   282.0474    13.0118   739.3481      .1830
 1148.1816     2.2330   287.8634    13.3570   745.8417      .1833
 1148.3340     2.2389   279.9454    14.2608   756.7209      .1876
 1148.4864     2.2474   280.1606    14.8580   767.1926      .1981
 1148.6388     2.2581   269.0088    14.3098   777.4940      .2011
 1148.7912     2.2766   271.9061    13.8855   789.1978      .2229
 1148.9436     2.2774   265.3951    13.5868   813.3406      .2257
 1149.0960     2.2646   261.0035    12.8084   839.2611      .2333
 1149.2484     2.2612   274.3203    12.6971   840.5605      .2340
 1149.4008     2.2589   281.0139    12.2875   828.5464      .2334
 1149.5532     2.2473   289.8885    12.2480   811.2900      .2266
 1149.7056     2.2500   292.8332    12.2487   793.2181      .2257
 1149.8580     2.2684   293.8748    12.2574   779.4517      .2223
 1150.0104     2.2743   291.1018    12.2844   767.0896      .2215
 1150.1628     2.2714   295.4838    12.3746   755.3017      .2160
 1150.3152     2.2713   299.5220    12.7734   743.6216      .2093
 1150.4676     2.2787   298.6790    14.1407   741.2695      .1962
 1150.6200     2.2660   292.5818    14.2376   741.8152      .1950
 1150.7724     2.2302   285.2289    13.8541   749.3148      .1950
 1150.9248     2.2298   294.8494    13.4606   749.8665      .1947
 1151.0772     2.2584   296.3149    12.5273   709.4893      .1913
 1151.2296     2.2652   290.3815    12.4281   703.6522      .1910
 1151.3820     2.2473   286.8151    12.3531   682.8690      .1910
 1151.5344     2.2190   291.6430    13.0891   677.0526      .1912
 1151.6868     2.2183   304.3015    13.7508   678.7948      .1943
 1151.8392     2.2472   298.5605    14.3634   681.8325      .2096
 1151.9916     2.2563   282.6352    14.6223   684.5897      .2119
 1152.1440     2.2439   274.8201    14.0278   695.2748      .2219
 1152.2964     2.2182   275.8951    13.5455   714.1265      .2318
 1152.4488     2.2004   270.3454    12.9718   777.2316      .2484
 1152.6012     2.1951   262.0224    12.9109   784.3759      .2496
 1152.7536     2.1928   265.5391    12.8082   797.6557      .2454
 1152.9060     2.2187   272.1316    12.7102   811.6451      .2432
 1153.0584     2.2800   276.0648    12.7545   812.2443      .2239
 1153.2108     2.2982   271.3676    12.7431   813.0206      .2223
 1153.3632     2.2837   271.2227    12.5554   823.5911      .2260
 1153.5156     2.2628   282.2895    12.4106   845.4124      .2293
 1153.6680     2.2519   279.6638    12.6067   841.5840      .2251
 1153.8204     2.2460   283.9775    12.5622   830.6035      .2113
 1153.9728     2.2434   294.0425    12.2839   804.8601      .2102
 1154.1252     2.2406   301.7799    12.2205   800.1339      .2117
 1154.2776     2.2452   300.4283    12.6998   806.4848      .2099
 1154.4300     2.2602   295.7626    14.0703   826.2966      .2072
 1154.5824     2.2662   296.0772    14.1735   828.5063      .2064
 1154.7348     2.2679   294.9514    13.8407   831.8444      .1997
 1154.8872     2.2623   292.6289    13.0136   826.8520      .1990
 1155.0396     2.2449   290.9326    12.3708   813.6944      .1987
 1155.1920     2.2323   289.4292    11.8952   792.6298      .1950
 1155.3444     2.2299   297.5749    11.9456   770.9103      .1919
 1155.4968     2.2231   296.9626    12.4653   751.4357      .1975
 1155.6492     2.2142   302.4015    12.9490   735.9987      .1992
 1155.8016     2.2224   306.2850    13.3528   717.8583      .2027
 1155.9540     2.2247   307.0497    14.2443   702.0016      .2033
 1156.1064     2.2166   307.5228    13.9921   685.7031      .2062
 1156.2588     2.2007   310.7222    13.4366   672.0323      .2117
 1156.4112     2.1846   312.2620    12.5601   681.1212      .2138
 1156.5636     2.1792   293.2547    12.4615   683.5303      .2140
 1156.7160     2.1779   276.5016    12.3300   699.5850      .2140
 1156.8684     2.1830   271.3632    13.2438   713.3016      .2140
 1157.0208     2.1949   263.6756    13.8756   735.0774      .2140
 1157.1732     2.1922   246.8204    14.2097   758.0311      .2140
 1157.3256     2.1874   253.4201    13.7864   779.8461      .2140
 1157.4780     2.2095   266.3870    13.0905   791.3531      .2140
 1157.6304     2.2265   279.4803    12.6633   794.9926      .2135
 1157.7828     2.2182   291.7211    12.5818   794.0978      .2085
 1157.9352     2.2196   301.0899    13.6363   789.0052      .2079
 1158.0876     2.2356   309.1996    14.5658   752.2187      .2069
