~VERSION INFORMATION
VERS.                                                 2.0:   CWLS Log ASCII Standard-VERSION 2.0
WRAP.                                                  NO:   One line per depth step
~Well Information Block
STRT.M                                            61.2648:   Top Depth
STOP.M                                          2091.2328:   Bottom Depth
STEP.M                                             .15240:   Depth Increment
NULL.                                            -999.250:   Null Value
FLD .                                               YIBAL:   Field Name
WELL.                                           YIBAL-5H1:   NAME
LOC .                                     YIBAL 50-100-39:   AREA NAME
EDF .                                              116.42:   ELEV DRILL FLOOR
EPD .                                                   0:   ELEV PERM DATUM
EGL .                                              111.54:   GROUND LEVEL
SRVC.                                        SCHLUMBERGER:   LOGGING CONTRACTOR
COMP.                          Petroleum Development Oman:   OPERATOR
PDAT.                                                 MSL:   PERM DATUM
COUN.                                             RIG02_1:   RIG NAME
SPUD.                                          1967/02/12:   SPUD DATE
LATI.                                         22.15958657:   SURF. LATITUDE
LONG.                                          56.0289369:   SURF. LONGITUDE
UTME.                                           399872.59:   SURF. UTM E
UTMN.                                          2450604.47:   SURF. UTM N
~PARAMETER INFORMATION (log)
LNAM.                                              PUBLIC:   NAME
LTYP.                                              JOINED:   LOG TYPE
LSRV.                                            CLEAN UP:   SERVICE
LSOU.                                               FUGRO:   LOG SOURCE
LVSN.                                                   1:   LOG VERSION
BHIS.                                                   R:   BRIEF HISTORY
TDD .M                                            2093.98:   FINAL TD DRILLER
TDL .M                                            2091.54:   FINAL TD LOGGER
FHIS.                                             RAW-LAS:   FULL HISTORY
LCNM.                                        SCHLUMBERGER:   LOGGING CONTRACTOR
~Curve Information Block
#MNEM.UNIT                                        API CODE    No Description
#=========                                        ========    == ===========
DEPT.M                                       00 001 00 00:     1  DEPTH
DEN.G/CC                                                 :     2  Bulk Density
DT.US/M                                                  :     3  Acoustic log
GR.API                                                   :     4  Gamma Ray
NEU.V/V                                                  :     5  Neutron Porosity in Limestone Units
RES_DEP.OHMM                                             :     6  Resistivity Deep
~ASCII
# ...
  191.4144  -999.2500   497.3038    26.6817   542.1935     4.7840
  191.5668  -999.2500   451.1913    26.9521   549.0372     4.9238
  191.7192  -999.2500   429.1415    26.9782   570.8028     4.9618
  191.8716  -999.2500   399.1476    26.8797   609.2955     5.6612
  192.0240  -999.2500   356.0488    25.7869   632.0383     7.1157
  192.1764  -999.2500   339.2562    25.4222   647.7438     8.8091
  192.3288  -999.2500   333.7434    25.4486   649.1469     9.7911
  192.4812  -999.2500   356.7244    26.0019   649.8052     9.9285
  192.6336  -999.2500   356.5130    27.6362   646.0889     9.0603
  192.7860  -999.2500   361.4497    29.0290   637.4572     6.0526
  192.9384  -999.2500   397.2172    29.5460   633.0445     5.7876
  193.0908  -999.2500   415.0326    29.4567   625.8321     6.7260
  193.2432  -999.2500   430.0492    29.4128   614.8485     7.4600
  193.3956  -999.2500   432.4932    29.0085   598.2945     6.8962
  193.5480  -999.2500   445.1772    28.7944   579.4930     4.5003
  193.7004  -999.2500   459.4922    28.2064   575.5261     2.8306
  193.8528  -999.2500   473.6274    27.5802   593.2768     1.8652
  194.0052  -999.2500   475.3576    26.9413   596.0922     1.3721
  194.1576  -999.2500   473.8750    26.1679   584.6429     1.0465
  194.3100  -999.2500   499.1126    25.3078   554.6714      .8187
  194.4624  -999.2500   521.6354    23.6987   529.6037      .6990
  194.6148  -999.2500   540.4980    22.5825   513.7868      .6129
  194.7672  -999.2500   575.2414    22.2564   511.7575      .5926
  194.9196  -999.2500   583.6615    21.8556   513.9621      .5913
  195.0720  -999.2500   590.4603    21.0953   515.0963      .5913
  195.2244  -999.2500   597.6830    20.8821   512.2009      .5913
  195.3768  -999.2500   604.3627    21.1533   511.9620      .5936
  195.5292  -999.2500   599.8640    21.3266   513.9509      .6203
  195.6816  -999.2500   600.2601    21.6125   515.2369      .6582
  195.8340  -999.2500   601.2422    21.7081   517.7997      .6762
  195.9864  -999.2500   602.1969    19.6102   523.5240      .6793
  196.1388  -999.2500   602.7213    18.3460   520.3490      .6795
  196.2912  -999.2500   601.6760    18.4141   522.9951      .6800
  196.4436  -999.2500   601.5832    19.0381   514.0905      .6876
  196.5960  -999.2500   601.8138    20.0877   511.3059      .7172
  196.7484  -999.2500   602.8112    21.0698   513.2980      .7547
  196.9008  -999.2500   603.0999    22.2936   516.7783      .8106
  197.0532  -999.2500   602.2762    23.3583   521.8277      .8770
  197.2056  -999.2500   601.9471    23.8374   531.3926      .9453
  197.3580  -999.2500   602.1955    23.9005   534.2014     1.0125
  197.5104  -999.2500   602.2996    24.3655   523.4142     1.0639
  197.6628  -999.2500   603.0441    25.2444   511.9533     1.0752
  197.8152  -999.2500   602.2479    25.7682   506.9767     1.0679
  197.9676  -999.2500   601.6484    24.9212   508.0597     1.0336
  198.1200  -999.2500   601.8954    24.0241   514.3556      .9919
  198.2724  -999.2500   601.6986    23.8889   517.9845      .9525
  198.4248  -999.2500   601.6732    24.1655   518.3489      .9334
  198.5772  -999.2500   601.6696    24.6129   518.2300      .9204
  198.7296  -999.2500   601.6660    24.6584   515.9101      .9150
  198.8820  -999.2500   601.6624    24.4940   511.5005      .9829
  199.0344  -999.2500   601.6593    23.9186   507.5116     1.0258
  199.1868  -999.2500   601.6620    23.3942   500.0018     1.0772
  199.3392  -999.2500   601.6765    22.3752   496.7747     1.1226
  199.4916  -999.2500   601.8209    21.6107   500.9427     1.1820
  199.6440  -999.2500   603.1290    21.3242   505.6971     1.2610
  199.7964  -999.2500   602.3462    21.6234   509.4577     1.3527
  199.9488  -999.2500   601.1868    22.1077   512.9247     1.4581
  200.1012  -999.2500   601.1389    22.5923   514.6743     1.5511
  200.2536  -999.2500   601.7221    22.9456   519.2343     1.5942
  200.4060  -999.2500   602.0701    23.2832   524.0894     1.5911
  200.5584  -999.2500   602.1205    23.6181   529.1489     1.5434
  200.7108  -999.2500   602.3258    23.9683   535.7825     1.4571
  200.8632  -999.2500   602.5490    24.4315   537.4771     1.3633
  201.0156  -999.2500   602.7719    24.6286   526.6898     1.2191
  201.1680  -999.2500   602.9522    24.7575   514.8622     1.1027
  201.3204  -999.2500   602.7234    25.9212   514.5733     1.0371
  201.4728  -999.2500   602.8674    26.6967   511.8033     1.0064
  201.6252  -999.2500   603.0493    27.3977   509.4503     1.0004
  201.7776  -999.2500   603.1964    28.6409   511.6390     1.0000
  201.9300  -999.2500   603.1456    28.6613   516.1544     1.0003
  202.0824  -999.2500   602.3411    27.6545   519.4518     1.0055
  202.2348  -999.2500   602.2698    26.8518   518.5959     1.0321
  202.3872  -999.2500   602.3100    26.5209   520.3220     1.0865
  202.5396  -999.2500   602.6555    28.0452   522.3372     1.1507
  202.6920  -999.2500   603.2369    29.2608   524.0902     1.1800
  202.8444  -999.2500   603.2459    29.4274   523.2529     1.1957
  202.9968  -999.2500   602.6368    28.7656   524.0292     1.2137
  203.1492  -999.2500   600.6139    28.7839   524.9877     1.2269
  203.3016  -999.2500   586.7993    29.8031   525.8837     1.2291
  203.4540  -999.2500   602.0412    30.8610   526.1159     1.2257
  203.6064  -999.2500   603.2794    31.2586   526.4409     1.2171
  203.7588  -999.2500   602.0269    30.3133   529.1799     1.2053
  203.9112  -999.2500   602.0786    29.7749   525.9246     1.1951
  204.0636  -999.2500   602.1611    29.3015   519.0942     1.1944
  204.2160  -999.2500   603.1501    29.0093   512.5507     1.2106
  204.3684  -999.2500   607.6906    29.2430   512.1746     1.2417
  204.5208  -999.2500   608.8459    29.6340   514.1771     1.2801
  204.6732  -999.2500   607.6713    30.3959   515.9829     1.3277
  204.8256  -999.2500   604.9807    31.0775   513.0862     1.4398
  204.9780  -999.2500   593.7126    30.5410   512.8121     1.6537
  205.1304  -999.2500   578.6105    29.7294   513.9196     1.8949
  205.2828  -999.2500   568.6259    28.7411   516.7958     2.1512
  205.4352  -999.2500   547.6552    28.9119   527.3484     2.4129
  205.5876  -999.2500   529.2153    30.3638   544.9727     2.6774
  205.7400  -999.2500   498.5000    31.6003   568.0054     2.9247
  205.8924  -999.2500   437.5254    32.1304   599.5515     3.1818
  206.0448  -999.2500   397.8457    32.5633   622.1276     3.4143
  206.1972  -999.2500   379.3393    34.0377   645.2593     3.8419
  206.3496  -999.2500   367.0200    35.3657   662.6866     4.8021
  206.5020  -999.2500   366.0891    35.3761   668.7931     5.8985
  206.6544  -999.2500   365.5084    34.1252   654.2000     7.2180
  206.8068  -999.2500   376.7238    31.8958   630.3578     7.7603
  206.9592  -999.2500   383.5562    28.8799   623.7100     7.2780
  207.1116  -999.2500   366.3251    26.8235   629.9257     6.7158
  207.2640  -999.2500   354.7640    25.9532   639.5758     6.3012
  207.4164  -999.2500   351.8443    25.5232   650.7338     6.0185
  207.5688  -999.2500   349.6948    25.6031   633.0581     5.7670
  207.7212  -999.2500   347.5452    25.6925   611.2667     5.5304
  207.8736  -999.2500   353.4211    25.1186   596.5706     5.5376
  208.0260  -999.2500   390.8094    24.5685   580.6348     5.7819
  208.1784  -999.2500   423.9409    24.9524   564.6353     5.8755
  208.3308  -999.2500   430.2545    25.4143   555.7936     5.5770
  208.4832  -999.2500   434.0101    25.7431   550.4044     5.1671
  208.6356  -999.2500   437.7658    26.0590   553.6099     4.9082
  208.7880  -999.2500   424.7797    26.3746   562.3155     5.0122
  208.9404  -999.2500   410.5818    26.6518   578.3508     5.8112
  209.0928  -999.2500   387.2072    26.5018   588.8619     6.8400
  209.2452  -999.2500   332.9828    25.9823   596.0948     8.4592
  209.3976  -999.2500   348.3901    24.7699   600.9835     9.3335
  209.5500  -999.2500   351.9783    23.6315   604.5854     9.0363
  209.7024  -999.2500   353.7117    23.9519   607.4855     8.5192
  209.8548  -999.2500   357.3284    24.2550   616.1100     8.1812
