~VERSION INFORMATION
VERS.                                                 2.0:   CWLS Log ASCII Standard-VERSION 2.0
WRAP.                                                  NO:   One line per depth step
~Well Information Block
STRT.M                                            61.2648:   Top Depth
STOP.M                                          2091.2328:   Bottom Depth
STEP.M                                             .15240:   Depth Increment
NULL.                                            -999.250:   Null Value
FLD .                                               YIBAL:   Field Name
WELL.                                           YIBAL-5H1:   NAME
LOC .                                     YIBAL 50-100-39:   AREA NAME
EDF .                                              116.42:   ELEV DRILL FLOOR
EPD .                                                   0:   ELEV PERM DATUM
EGL .                                              111.54:   GROUND LEVEL
SRVC.                                        SCHLUMBERGER:   LOGGING CONTRACTOR
COMP.                          Petroleum Development Oman:   OPERATOR
PDAT.                                                 MSL:   PERM DATUM
COUN.                                             RIG02_1:   RIG NAME
SPUD.                                          1967/02/12:   SPUD DATE
LATI.                                         22.15958657:   SURF. LATITUDE
LONG.                                          56.0289369:   SURF. LONGITUDE
UTME.                                           399872.59:   SURF. UTM E
UTMN.                                          2450604.47:   SURF. UTM N
~PARAMETER INFORMATION (log)
LNAM.                                              PUBLIC:   NAME
LTYP.                                              JOINED:   LOG TYPE
LSRV.                                            CLEAN UP:   SERVICE
LSOU.                                               FUGRO:   LOG SOURCE
LVSN.                                                   1:   LOG VERSION
BHIS.                                                   R:   BRIEF HISTORY
TDD .M                                            2093.98:   FINAL TD DRILLER
TDL .M                                            2091.54:   FINAL TD LOGGER
FHIS.                                             RAW-LAS:   FULL HISTORY
LCNM.                                        SCHLUMBERGER:   LOGGING CONTRACTOR
~Curve Information Block
#MNEM.UNIT                                        API CODE    No Description
#=========                                        ========    == ===========
DEPT.M                                       00 001 00 00:     1  DEPTH
DEN.G/CC                                                 :     2  Bulk Density
DT.US/M                                                  :     3  Acoustic log
GR.API                                                   :     4  Gamma Ray
NEU.V/V                                                  :     5  Neutron Porosity in Limestone Units
RES_DEP.OHMM                                             :     6  Resistivity Deep
~ASCII
   61.2648  -999.2500  -999.2500    17.8258   500.3278  -999.2500
   61.4172  -999.2500  -999.2500    17.8895   505.7603  -999.2500
   61.5696  -999.2500  -999.2500    18.1110   506.5425  -999.2500
   61.7220  -999.2500  -999.2500    17.8896   502.4326  -999.2500
   61.8744  -999.2500  -999.2500    16.6086   497.9242  -999.2500
   62.0268  -999.2500  -999.2500    17.2111   493.9138  -999.2500
   62.1792  -999.2500  -999.2500    18.0079   491.6517  -999.2500
   62.3316  -999.2500  -999.2500    18.6883   488.1602  -999.2500
   62.4840  -999.2500  -999.2500    18.1415   486.6188  -999.2500
   62.6364  -999.2500  -999.2500    17.2630   486.0569  -999.2500
   62.7888  -999.2500  -999.2500    16.9959   487.7508  -999.2500
   62.9412  -999.2500  -999.2500    17.8485   485.8812  -999.2500
   63.0936  -999.2500  -999.2500    18.6107   485.2395  -999.2500
   63.2460  -999.2500  -999.2500    17.3578   481.1707  -999.2500
   63.3984  -999.2500  -999.2500    15.8160   481.1089  -999.2500
   63.5508  -999.2500  -999.2500    14.8555   485.4453  -999.2500
   63.7032  -999.2500  -999.2500    15.8844   489.7837  -999.2500
   63.8556  -999.2500  -999.2500    16.5477   490.6935  -999.2500
   64.0080  -999.2500  -999.2500    16.7905   496.7975  -999.2500
   64.1604  -999.2500  -999.2500    16.0165   499.1298  -999.2500
   64.3128  -999.2500  -999.2500    15.7655   502.1539  -999.2500
   64.4652  -999.2500  -999.2500    15.5358   505.3614  -999.2500
   64.6176  -999.2500  -999.2500    16.0825   504.6305  -999.2500
   64.7700  -999.2500  -999.2500    16.5477   503.1888  -999.2500
   64.9224  -999.2500  -999.2500    16.7460   499.9441  -999.2500
   65.0748  -999.2500  -999.2500    17.0259   509.2435  -999.2500
   65.2272  -999.2500  -999.2500    16.9426   520.5676  -999.2500
   65.3796  -999.2500  -999.2500    15.7245   522.2268  -999.2500
   65.5320  -999.2500  -999.2500    14.6200   519.3137  -999.2500
   65.6844  -999.2500  -999.2500    13.6678   520.0967  -999.2500
   65.8368  -999.2500  -999.2500    13.1219   511.9529  -999.2500
   65.9892  -999.2500  -999.2500    12.6439   508.7281  -999.2500
   66.1416  -999.2500  -999.2500    12.4975   504.4289  -999.2500
   66.2940  -999.2500  -999.2500    13.0699   499.7973  -999.2500
   66.4464  -999.2500  -999.2500    13.9572   503.5936  -999.2500
   66.5988  -999.2500  -999.2500    14.6957   508.4062  -999.2500
   66.7512  -999.2500  -999.2500    15.0090   514.3992  -999.2500
   66.9036  -999.2500  -999.2500    14.9521   512.8867  -999.2500
   67.0560  -999.2500  -999.2500    14.2569   513.2634  -999.2500
   67.2084  -999.2500  -999.2500    14.1955   520.8053  -999.2500
   67.3608  -999.2500  -999.2500    14.0495   524.5265  -999.2500
   67.5132  -999.2500  -999.2500    14.2180   529.3417  -999.2500
   67.6656  -999.2500  -999.2500    14.8279   535.8867  -999.2500
   67.8180  -999.2500  -999.2500    15.5835   538.2419  -999.2500
   67.9704  -999.2500  -999.2500    16.0987   536.1942  -999.2500
   68.1228  -999.2500  -999.2500    16.7598   533.3817  -999.2500
   68.2752  -999.2500  -999.2500    17.7696   526.7572  -999.2500
   68.4276  -999.2500  -999.2500    18.1899   521.5546  -999.2500
   68.5800  -999.2500  -999.2500    19.0350   515.1213  -999.2500
   68.7324  -999.2500  -999.2500    21.2126   515.9438  -999.2500
   68.8848  -999.2500  -999.2500    27.1248   531.7798  -999.2500
   69.0372  -999.2500  -999.2500    32.6450   542.9888  -999.2500
   69.1896  -999.2500  -999.2500    39.5931   554.2622  -999.2500
   69.3420  -999.2500  -999.2500    42.9542   581.6613  -999.2500
   69.4944  -999.2500  -999.2500    43.7836   600.9662  -999.2500
   69.6468  -999.2500  -999.2500    39.7126   599.3970     1.1179
   69.7992  -999.2500  -999.2500    34.8829   574.8729     1.1729
   69.9516  -999.2500   512.2945    33.9664   557.8070     1.3423
   70.1040  -999.2500   505.0533    35.8917   547.8263     1.3648
   70.2564  -999.2500   517.4729    37.5043   541.1870     1.3310
   70.4088  -999.2500   505.0146    38.6696   543.2402     1.3314
   70.5612  -999.2500   511.9818    38.2099   551.0696     1.3969
   70.7136  -999.2500   465.6812    34.7819   559.1144     1.5442
   70.8660  -999.2500   450.3081    30.6967   563.1819     1.8223
   71.0184  -999.2500   438.6238    26.7967   557.3287     2.2056
   71.1708  -999.2500   420.1309    24.0346   554.2269     2.2357
   71.3232  -999.2500   419.1551    23.4393   548.1365     1.9930
   71.4756  -999.2500   432.7947    23.7585   538.7964     1.8143
   71.6280  -999.2500   409.9376    23.3058   540.8469     1.6735
   71.7804  -999.2500   420.6425    22.3583   551.5910     1.5649
   71.9328  -999.2500   415.0152    22.5192   558.6245     1.5244
   72.0852  -999.2500   427.1093    22.3968   559.1262     1.5043
   72.2376  -999.2500   428.3134    22.1975   547.7867     1.4845
   72.3900  -999.2500   427.7212    21.5477   542.9638     1.4724
   72.5424  -999.2500   427.1014    20.4034   544.6782     1.4777
   72.6948  -999.2500   426.3651    20.1471   535.9134     1.5028
   72.8472  -999.2500   421.9851    21.4572   534.8090     1.5455
   72.9996  -999.2500   422.3062    23.1754   532.8565     1.5861
   73.1520  -999.2500   426.8105    24.7403   533.0515     1.6127
   73.3044  -999.2500   424.4773    24.4543   526.7858     1.6458
   73.4568  -999.2500   450.0707    24.1111   522.7817     1.6703
   73.6092  -999.2500   492.9765    23.7844   518.2391     1.6823
   73.7616  -999.2500   501.6025    23.4836   515.7905     1.6901
   73.9140  -999.2500   476.5827    23.4606   516.1143     1.6990
   74.0664  -999.2500   448.6091    23.5085   523.8000     1.6894
   74.2188  -999.2500   420.6354    22.7001   543.8583     1.6590
   74.3712  -999.2500   407.1705    22.5442   561.2567     1.6262
   74.5236  -999.2500   407.9304    23.2020   559.3065     1.6000
   74.6760  -999.2500   409.0982    23.4541   553.5295     1.5870
   74.8284  -999.2500   409.1709    24.1641   547.5598     1.5811
   74.9808  -999.2500   410.6047    24.6082   541.2823     1.5808
   75.1332  -999.2500   429.6494    24.5052   532.1823     1.5861
   75.2856  -999.2500   444.2796    24.4711   527.5173     1.6036
   75.4380  -999.2500   443.3961    24.2778   529.4554     1.6397
   75.5904  -999.2500   420.7807    23.6948   533.5965     1.6726
   75.7428  -999.2500   417.8033    23.3539   534.1185     1.6961
   75.8952  -999.2500   423.5304    23.1469   536.6347     1.7202
   76.0476  -999.2500   418.9951    22.7097   543.7177     1.7317
   76.2000  -999.2500   440.8033    22.4954   553.7197     1.7269
   76.3524  -999.2500   434.1329    22.0427   549.4820     1.7077
   76.5048  -999.2500   424.4089    21.0354   553.1077     1.6647
   76.6572  -999.2500   414.6849    19.5533   548.4596     1.6088
   76.8096  -999.2500   390.4044    18.8718   536.9154     1.5482
   76.9620  -999.2500   379.8591    20.1405   534.8951     1.4697
   77.1144  -999.2500   388.6738    21.6851   535.8500     1.3600
   77.2668  -999.2500   415.0447    22.8920   536.9038     1.2950
   77.4192  -999.2500   436.7904    24.5425   536.9562     1.3210
   77.5716  -999.2500   456.8672    25.5565   536.8157     1.4583
   77.7240  -999.2500   469.8823    24.8654   536.7219     1.6223
   77.8764  -999.2500   467.9280    23.5364   546.1998     1.8100
   78.0288  -999.2500   464.5738    22.6516   543.0414     2.0427
   78.1812  -999.2500   461.2195    21.4194   541.5121     2.3920
   78.3336  -999.2500   453.7203    20.1232   540.3680     2.9732
   78.4860  -999.2500   389.6289    18.5613   540.7991     3.6802
   78.6384  -999.2500   297.4962    17.0384   546.7733     4.5889
   78.7908  -999.2500   260.6700    16.2835   546.9268     5.5384
   78.9432  -999.2500   259.1561    16.7486   541.7261     6.5459
   79.0956  -999.2500   260.6717    18.2616   528.7866     6.9833
   79.2480  -999.2500   287.6255    20.0211   521.9456     7.2071
   79.4004  -999.2500   300.5896    21.9159   514.7871     7.7147
   79.5528  -999.2500   302.7655    22.1761   512.9657     9.7756
   79.7052  -999.2500   285.3006    18.9412   519.1646    13.7285
