~VERSION INFORMATION
VERS.                                                 2.0:   CWLS Log ASCII Standard-VERSION 2.0
WRAP.                                                  NO:   One line per depth step
~Well Information Block
STRT.M                                            61.2648:   Top Depth
STOP.M                                          2091.2328:   Bottom Depth
STEP.M                                             .15240:   Depth Increment
NULL.                                            -999.250:   Null Value
FLD .                                               YIBAL:   Field Name
WELL.                                           YIBAL-5H1:   NAME
LOC .                                     YIBAL 50-100-39:   AREA NAME
EDF .                                              116.42:   ELEV DRILL FLOOR
EPD .                                                   0:   ELEV PERM DATUM
EGL .                                              111.54:   GROUND LEVEL
SRVC.                                        SCHLUMBERGER:   LOGGING CONTRACTOR
COMP.                          Petroleum Development Oman:   OPERATOR
PDAT.                                                 MSL:   PERM DATUM
COUN.                                             RIG02_1:   RIG NAME
SPUD.                                          1967/02/12:   SPUD DATE
LATI.                                         22.15958657:   SURF. LATITUDE
LONG.                                          56.0289369:   SURF. LONGITUDE
UTME.                                           399872.59:   SURF. UTM E
UTMN.                                          2450604.47:   SURF. UTM N
~PARAMETER INFORMATION (log)
LNAM.                                              PUBLIC:   NAME
LTYP.                                              JOINED:   LOG TYPE
LSRV.                                            CLEAN UP:   SERVICE
LSOU.                                               FUGRO:   LOG SOURCE
LVSN.                                                   1:   LOG VERSION
BHIS.                                                   R:   BRIEF HISTORY
TDD .M                                            2093.98:   FINAL TD DRILLER
TDL .M                                            2091.54:   FINAL TD LOGGER
FHIS.                                             RAW-LAS:   FULL HISTORY
LCNM.                                        SCHLUMBERGER:   LOGGING CONTRACTOR
~Curve Information Block
#MNEM.UNIT                                        API CODE    No Description
#=========                                        ========    == ===========
DEPT.M                                       00 001 00 00:     1  DEPTH
DEN.G/CC                                                 :     2  Bulk Density
DT.US/M                                                  :     3  Acoustic log
GR.API                                                   :     4  Gamma Ray
NEU.V/V                                                  :     5  Neutron Porosity in Limestone Units
RES_DEP.OHMM                                             :     6  Resistivity Deep
~ASCII
# ...
  600.4560  -999.2500   245.5961    28.3101   606.5130     1.0022
  600.6084  -999.2500   258.1659    28.1297   614.3516     1.0008
  600.7608  -999.2500   270.8523    27.8017   614.3824     1.0001
  600.9132  -999.2500   283.1444    26.8285   606.7521     1.0000
  601.0656  -999.2500   294.5326    25.8613   598.7123     1.0000
  601.2180  -999.2500   286.0455    23.3525   583.3729     1.0000
  601.3704  -999.2500   283.3483    21.1412   574.1113     1.0000
  601.5228  -999.2500   292.3720    19.6527   563.7099     1.0000
  601.6752  -999.2500   318.2152    19.8421   555.1274     1.0005
  601.8276  -999.2500   311.1349    20.4167   546.8425     1.0075
  601.9800  -999.2500   317.2808    20.6180   539.9470     1.0322
  602.1324  -999.2500   334.8485    20.8278   537.4500     1.0768
  602.2848  -999.2500   369.6169    21.4727   538.0783     1.1402
  602.4372  -999.2500   388.2924    21.0879   535.6202     1.2213
  602.5896  -999.2500   377.4312    20.4921   529.6870     1.3093
  602.7420  -999.2500   378.0018    20.1877   532.6193     1.4001
  602.8944  -999.2500   367.6562    20.2989   538.6329     1.4961
  603.0468  -999.2500   364.2374    20.3785   546.7613     1.5900
  603.1992  -999.2500   361.6154    21.1624   554.0571     1.6672
  603.3516  -999.2500   358.9935    22.5274   560.4262     1.7221
  603.5040  -999.2500   367.5345    23.5740   558.0441     1.7649
  603.6564  -999.2500   372.7037    22.0473   559.3363     1.8036
  603.8088  -999.2500   377.4354    20.0833   577.4928     1.8178
  603.9612  -999.2500   382.1670    18.9829   597.5090     1.7736
  604.1136  -999.2500   378.3481    18.9449   620.2870     1.6702
  604.2660  -999.2500   390.1169    19.5181   643.8109     1.5435
  604.4184  -999.2500   338.7928    19.9570   661.8000     1.4264
  604.5708  -999.2500   344.5587    19.8099   661.6923     1.3402
  604.7232  -999.2500   356.5395    19.5349   653.6035     1.3094
  604.8756  -999.2500   368.5204    19.2206   641.7136     1.3543
  605.0280  -999.2500   385.2012    18.8734   627.7032     1.4545
  605.1804  -999.2500   388.6203    18.2145   615.4535     1.5618
  605.3328  -999.2500   319.9755    17.6763   603.8920     1.6867
  605.4852  -999.2500   329.2008    19.1388   608.5403     1.8890
  605.6376  -999.2500   291.0448    19.8693   616.7540     2.2426
  605.7900  -999.2500   274.5056    20.5327   624.5818     2.7923
  605.9424  -999.2500   277.6397    21.4133   625.3295     3.4069
  606.0948  -999.2500   282.4415    21.7735   614.6201     3.7694
  606.2472  -999.2500   287.2433    21.9724   605.4236     3.7320
  606.3996  -999.2500   317.0359    22.3869   602.9334     3.3782
  606.5520  -999.2500   349.2772    22.3748   606.3447     2.8298
  606.7044  -999.2500   348.5309    21.7422   613.0616     2.2865
  606.8568  -999.2500   344.5524    20.5507   617.3770     2.0233
  607.0092  -999.2500   340.5739    19.7233   613.2172     1.8446
  607.1616  -999.2500   358.2723    20.5114   594.4470     1.6516
  607.3140  -999.2500   378.0947    21.2599   566.2910     1.4853
  607.4664  -999.2500   397.9170    21.3383   548.0917     1.3376
  607.6188  -999.2500   377.3364    21.4705   539.2955     1.1983
  607.7712  -999.2500   352.7969    21.4337   535.3391     1.0838
  607.9236  -999.2500   328.2574    21.3792   532.7955     1.0191
  608.0760  -999.2500   315.4542    21.3247   541.0032     1.0012
  608.2284  -999.2500   232.7120    21.2691   546.6116     1.0000
  608.3808  -999.2500   221.9664    21.1654   551.4200     1.0000
  608.5332  -999.2500   219.1939    20.5469   560.4784     1.0000
  608.6856  -999.2500   227.7397    19.9229   567.3832     1.0000
  608.8380  -999.2500   237.6134    19.5122   557.3416     1.0000
  608.9904  -999.2500   247.0247    20.0036   549.0465     1.0000
  609.1428  -999.2500   257.1141    21.5190   545.5565     1.0000
  609.2952  -999.2500   263.7656    23.1710   547.6479     1.0000
  609.4476  -999.2500   264.4927    23.8626   551.3526     1.0000
  609.6000  -999.2500   263.1354    24.0387   545.6707     1.0000
  609.7524  -999.2500   259.7838    23.9250   541.0693     1.0000
  609.9048  -999.2500   257.2021    23.7384   532.2290     1.0000
  610.0572  -999.2500   263.4562    23.4090   524.2368     1.0002
  610.2096  -999.2500   280.9739    23.1177   524.2964     1.0028
  610.3620  -999.2500   282.4721    22.8180   532.8402     1.0171
  610.5144  -999.2500   281.6088    22.6760   538.9464     1.0481
  610.6668  -999.2500   293.5741    22.8877   542.2858     1.0772
  610.8192  -999.2500   303.9872    23.8770   540.6414     1.0950
  610.9716  -999.2500   301.5644    24.3827   540.5248     1.1240
  611.1240  -999.2500   300.5520    24.5044   530.4653     1.1693
  611.2764  -999.2500   328.0871    23.8487   528.5687     1.2145
  611.4288  -999.2500   332.9720    22.2414   528.9306     1.2509
  611.5812  -999.2500   335.3660    21.0907   523.2963     1.2789
  611.7336  -999.2500   337.7600    20.1613   526.6804     1.3005
  611.8860  -999.2500   341.8851    19.5864   537.2648     1.3246
  612.0384  -999.2500   346.1798    18.4950   541.1171     1.3597
  612.1908  -999.2500   380.1079    18.5653   550.7307     1.3982
  612.3432  -999.2500   403.0629    18.9816   554.2444     1.4295
  612.4956  -999.2500   388.1021    18.9719   539.4427     1.4542
  612.6480  -999.2500   385.9608    18.4052   537.0771     1.4700
  612.8004  -999.2500   377.3186    18.0174   538.2975     1.4756
  612.9528  -999.2500   366.5303    18.6387   541.9033     1.4771
  613.1052  -999.2500   371.2687    18.5878   545.8354     1.4745
  613.2576  -999.2500   377.5414    18.8264   550.1968     1.4683
  613.4100  -999.2500   383.8141    20.1587   543.6042     1.4622
  613.5624  -999.2500   401.3534    21.5559   542.5545     1.4564
  613.7148  -999.2500   431.0140    22.4653   538.5302     1.4480
  613.8672  -999.2500   444.5325    22.4257   538.0542     1.4400
  614.0196  -999.2500   440.3416    22.5623   537.0470     1.4354
  614.1720  -999.2500   423.6251    22.7239   536.5925     1.4335
  614.3244  -999.2500   418.8406    22.8498   532.9370     1.4314
  614.4768  -999.2500   415.3305    22.6425   536.3137     1.4278
  614.6292  -999.2500   411.8203    23.1196   533.9833     1.4241
  614.7816  -999.2500   395.4555    23.6490   537.1883     1.4198
  614.9340  -999.2500   354.7889    23.9092   542.5109     1.4107
  615.0864  -999.2500   368.4120    23.0637   542.2534     1.3947
  615.2388  -999.2500   357.8681    22.1649   533.9362     1.3711
  615.3912  -999.2500   344.4134    21.9497   530.7005     1.3444
  615.5436  -999.2500   298.7647    23.3755   536.3686     1.3142
  615.6960  -999.2500   306.1093    24.7122   536.0547     1.2846
  615.8484  -999.2500   273.1082    24.8455   537.1536     1.2602
  616.0008  -999.2500   280.7485    25.0196   538.9987     1.2426
  616.1532  -999.2500   281.2517    25.4369   536.3725     1.2318
  616.3056  -999.2500   280.6223    25.4922   538.2939     1.2228
  616.4580  -999.2500   279.9928    25.6652   540.7095     1.2104
  616.6104  -999.2500   282.2272    26.0303   543.2805     1.1959
  616.7628  -999.2500   284.7423    25.4377   546.5717     1.1842
  616.9152  -999.2500   287.2574    24.2968   536.6332     1.1765
  617.0676  -999.2500   310.3298    24.0184   533.2305     1.1693
  617.2200  -999.2500   319.9972    25.0322   540.1027     1.1625
  617.3724  -999.2500   328.1537    26.2578   552.5104     1.1608
  617.5248  -999.2500   336.3102    27.0322   551.0306     1.1668
  617.6772  -999.2500   349.8179    27.0083   554.1368     1.1828
  617.8296  -999.2500   348.1026    25.9130   548.2332     1.2078
  617.9820  -999.2500   344.8444    24.0406   555.6073     1.2382
  618.1344  -999.2500   341.5861    23.4688   557.5476     1.2702
  618.2868  -999.2500   366.9022    24.9595   569.4542     1.2985
  618.4392  -999.2500   382.1373    27.3804   568.2376     1.3147
  618.5916  -999.2500   398.6867    29.1948   563.6153     1.3205
  618.7440  -999.2500   422.5082    29.3031   557.7919     1.3217
  618.8964  -999.2500   422.2901    28.7847   541.9197     1.3119
