~VERSION INFORMATION
VERS.                                                 2.0:   CWLS Log ASCII Standard-VERSION 2.0
WRAP.                                                  NO:   One line per depth step
~Well Information Block
STRT.M                                            61.2648:   Top Depth
STOP.M                                          2091.2328:   Bottom Depth
STEP.M                                             .15240:   Depth Increment
NULL.                                            -999.250:   Null Value
FLD .                                               YIBAL:   Field Name
WELL.                                           YIBAL-5H1:   NAME
LOC .                                     YIBAL 50-100-39:   AREA NAME
EDF .                                              116.42:   ELEV DRILL FLOOR
EPD .                                                   0:   ELEV PERM DATUM
EGL .                                              111.54:   GROUND LEVEL
SRVC.                                        SCHLUMBERGER:   LOGGING CONTRACTOR
COMP.                          Petroleum Development Oman:   OPERATOR
PDAT.                                                 MSL:   PERM DATUM
COUN.                                             RIG02_1:   RIG NAME
SPUD.                                          1967/02/12:   SPUD DATE
LATI.                                         22.15958657:   SURF. LATITUDE
LONG.                                          56.0289369:   SURF. LONGITUDE
UTME.                                           399872.59:   SURF. UTM E
UTMN.                                          2450604.47:   SURF. UTM N
~PARAMETER INFORMATION (log)
LNAM.                                              PUBLIC:   NAME
LTYP.                                              JOINED:   LOG TYPE
LSRV.                                            CLEAN UP:   SERVICE
LSOU.                                               FUGRO:   LOG SOURCE
LVSN.                                                   1:   LOG VERSION
BHIS.                                                   R:   BRIEF HISTORY
TDD .M                                            2093.98:   FINAL TD DRILLER
TDL .M                                            2091.54:   FINAL TD LOGGER
FHIS.                                             RAW-LAS:   FULL HISTORY
LCNM.                                        SCHLUMBERGER:   LOGGING CONTRACTOR
~Curve Information Block
#MNEM.UNIT                                        API CODE    No Description
#=========                                        ========    == ===========
DEPT.M                                       00 001 00 00:     1  DEPTH
DEN.G/CC                                                 :     2  Bulk Density
DT.US/M                                                  :     3  Acoustic log
GR.API                                                   :     4  Gamma Ray
NEU.V/V                                                  :     5  Neutron Porosity in Limestone Units
RES_DEP.OHMM                                             :     6  Resistivity Deep
~ASCII
# ...
 1269.7968     2.2173   253.7257    37.5698   691.6339     1.1178
 1269.9492     2.3365   263.1405    35.5587   751.8124     1.0802
 1270.1016     2.3305   277.6961    30.1642   804.0734      .9873
 1270.2540     2.2188   292.2518    29.1325   802.2675      .8267
 1270.4064     2.1296   330.6443    30.0767   692.1725      .8055
 1270.5588     2.0129   353.5287    40.3845   633.5978      .7352
 1270.7112     1.9722   363.9308    41.5949   596.5610      .6724
 1270.8636     2.0214   358.0386    43.8147   578.2673      .6106
 1271.0160     2.0226   350.6530    43.8774   560.9999      .6105
 1271.1684     1.9721   343.2674    42.3010   552.1027      .6666
 1271.3208     1.9510   356.8340    41.9551   544.9730      .6724
 1271.4732     1.9500   363.7616    39.9540   541.3508      .6766
 1271.6256     1.9500   369.8376    39.7652   538.0959      .6748
 1271.7780     1.9500   375.9135    39.8237   536.4992      .6502
 1271.9304     1.9500   344.9971    39.9317   539.0474      .6271
 1272.0828     1.9500   356.1222    40.7150   546.5383      .6217
 1272.2352     1.9500   350.9807    42.3955   562.0792      .6893
 1272.3876     1.9500   341.4941    42.5835   565.4807      .6948
 1272.5400     1.9500   322.7018    42.9004   563.9103      .6803
 1272.6924     1.9500   333.9228    42.6517   558.9042      .6468
 1272.8448     1.9500   338.1762    39.7680   556.3325      .5948
 1272.9972     1.9500   341.4503    39.5808   562.2448      .5879
 1273.1496     1.9500   344.7244    40.5238   565.7605      .5661
 1273.3020     1.9500   345.2946    40.5303   572.1699      .5618
 1273.4544     1.9500   360.6900    39.6566   575.3613      .5392
 1273.6068     1.9500   377.6495    39.3365   564.6497      .5360
 1273.7592     1.9500   386.5621    36.6132   558.3782      .5256
 1273.9116     1.9500   432.3010    32.7031   547.7713      .5216
 1274.0640     1.9500   433.2798    31.3260   535.1419      .5276
 1274.2164     1.9500   428.1799    32.8614   527.0848      .5764
 1274.3688     1.9500   414.4078    33.2874   526.8698      .5862
 1274.5212     1.9500   395.3964    36.0428   528.1763      .6416
 1274.6736     1.9500   373.7689    36.6177   542.7169      .6845
 1274.8260     1.9553   344.7938    39.8037   550.9647      .6989
 1274.9784     2.0307   325.3630    40.5808   564.8645      .6998
 1275.1308     2.0922   312.6349    45.4119   572.2112      .6982
 1275.2832     2.0987   314.9749    45.8760   573.0005      .6988
 1275.4356     2.0616   332.6114    45.8363   573.2173      .7072
 1275.5880     2.0293   326.5437    45.8616   578.9666      .7074
 1275.7404     1.9938   328.9407    46.1228   582.2136      .6997
 1275.8928     2.0239   331.9679    45.6860   586.2653      .6796
 1276.0452     2.0884   337.3712    45.7646   590.2993      .6747
 1276.1976     2.0860   328.7394    45.4256   590.2063      .6686
 1276.3500     2.0753   323.1040    45.8336   596.3058      .6683
 1276.5024     2.0972   316.9291    50.3837   600.1439      .6719
 1276.6548     2.1476   348.2419    50.7772   607.2748      .6763
 1276.8072     2.1596   366.0899    50.3024   610.9849      .7016
 1276.9596     2.1651   353.7918    50.2805   607.5283      .7053
 1277.1120     2.1835   342.8324    50.5282   605.6177      .7187
 1277.2644     2.2213   328.0185    50.5651   614.6591      .7197
 1277.4168     2.2939   304.0279    50.6984   620.1227      .7163
 1277.5692     2.3317   318.7327    50.6755   640.6282      .7160
 1277.7216     2.3639   318.6099    50.4539   651.8616      .7148
 1277.8740     2.3884   316.6545    52.2748   659.2415      .7023
 1278.0264     2.3846   314.6991    53.4085   670.9409      .7023
 1278.1788     2.3672   336.9643    52.7492   679.6354      .7066
 1278.3312     2.3663   332.1740    52.4473   669.5191      .7074
 1278.4836     2.3806   344.7393    50.0978   662.1356      .7116
 1278.6360     2.3727   342.3452    49.7943   634.0392      .7116
 1278.7884     2.3333   346.8894    49.0102   618.8552      .7074
 1278.9408     2.3471   352.4359    48.8517   619.4131      .7081
 1279.0932     2.4163   343.6084    48.0036   620.3040      .7190
 1279.2456     2.4318   338.2713    47.9948   615.2333      .7226
 1279.3980     2.4057   337.9222    48.7521   612.4600      .7485
 1279.5504     2.3965   344.9430    48.9076   616.1934      .7521
 1279.7028     2.3946   352.2502    49.7520   618.4008      .7628
 1279.8552     2.3920   347.1447    49.8872   619.6415      .7614
 1280.0076     2.3964   350.5531    50.3785   624.4166      .7399
 1280.1600     2.3808   348.0753    51.3987   635.6769      .6815
 1280.3124     2.3719   352.1370    51.8396   633.2636      .6750
 1280.4648     2.3720   357.2373    55.3856   629.4025      .6646
 1280.6172     2.3749   356.1619    55.7705   626.0922      .6597
 1280.7696     2.3743   359.9615    56.1969   624.3526      .6535
 1280.9220     2.3709   362.3382    56.1371   618.8699      .6505
 1281.0744     2.3648   365.1236    55.1017   616.0796      .6254
 1281.2268     2.3689   363.4011    55.0722   624.7605      .6225
 1281.3792     2.3884   356.1523    55.8680   629.6866      .6181
 1281.5316     2.4044   358.6037    56.8202   630.2386      .6246
 1281.6840     2.4113   364.1429    57.6298   627.9666      .6390
 1281.8364     2.4193   364.3823    57.3664   620.9747      .6623
 1281.9888     2.4172   365.4012    56.2514   612.4514      .6770
 1282.1412     2.4013   368.0734    55.6491   606.6596      .6707
 1282.2936     2.3969   368.7608    55.6266   617.6269      .6697
 1282.4460     2.4039   363.9252    55.8929   624.7928      .6658
 1282.5984     2.4202   356.6012    55.8488   638.5417      .6605
 1282.7508     2.4443   352.5712    55.1311   645.7851      .6600
 1282.9032     2.4438   354.2449    54.9257   644.7808      .6610
 1283.0556     2.4226   357.4674    53.5337   643.8468      .6710
 1283.2080     2.4175   357.1215    53.3499   640.4088      .6723
 1283.3604     2.4242   359.5905    52.8431   638.5596      .6757
 1283.5128     2.4263   360.0533    52.8839   639.0817      .6760
 1283.6652     2.4323   361.6144    54.7136   643.8259      .6760
 1283.8176     2.4393   360.5215    56.1657   654.5563      .6760
 1283.9700     2.4306   359.0292    56.4311   649.9456      .6775
 1284.1224     2.4262   358.9339    57.8644   644.9752      .6926
 1284.2748     2.4244   356.8455    57.7309   639.0069      .6953
 1284.4272     2.4182   356.9380    54.9458   636.0203      .7096
 1284.5796     2.4192   353.9831    54.4840   640.4087      .7204
 1284.7320     2.4332   351.9957    52.5155   642.9909      .7238
 1284.8844     2.4434   350.1497    52.1660   643.6017      .7237
 1285.0368     2.4536   346.9821    50.5427   643.8572      .7203
 1285.1892     2.4562   346.3255    50.4986   645.8524      .7200
 1285.3416     2.4556   344.5482    51.7190   646.9728      .7202
 1285.4940     2.4592   346.7355    52.6542   648.4617      .7217
 1285.6464     2.4585   347.4366    52.8088   649.9839      .7198
 1285.7988     2.4528   346.8218    53.5411   648.3785      .7164
 1285.9512     2.4467   348.8052    53.5187   640.0036      .7183
 1286.1036     2.4443   349.4626    52.5435   635.9612      .7418
 1286.2560     2.4459   351.0385    52.3253   641.3580      .7472
 1286.4084     2.4474   352.9456    51.0924   644.7783      .7785
 1286.5608     2.4453   354.3893    51.0148   658.6882      .7791
 1286.7132     2.4491   350.3833    51.4792   666.3806      .8055
 1286.8656     2.4500   328.6546    51.3909   674.4266      .8142
 1287.0180     2.4469   335.5042    50.0169   678.6385      .8770
 1287.1704     2.4499   333.1638    49.8234   684.7123      .8871
 1287.3228     2.4648   332.0071    49.3815   687.7921      .9316
 1287.4752     2.4828   331.7961    50.8586   682.4347      .9863
 1287.6276     2.4895   331.7221    50.7999   674.4237     1.0442
 1287.7800     2.4813   329.1064    48.6316   671.5419     1.1024
 1287.9324     2.4774   325.9229    47.8057   677.6454     1.1381
 1288.0848     2.4861   318.2023    41.5997   681.6993     1.0983
 1288.2372     2.4909   308.6156    40.4594   712.9470     1.0895
