~VERSION INFORMATION
VERS.                                                 2.0:   CWLS Log ASCII Standard-VERSION 2.0
WRAP.                                                  NO:   One line per depth step
~Well Information Block
STRT.M                                            61.2648:   Top Depth
STOP.M                                          2091.2328:   Bottom Depth
STEP.M                                             .15240:   Depth Increment
NULL.                                            -999.250:   Null Value
FLD .                                               YIBAL:   Field Name
WELL.                                           YIBAL-5H1:   NAME
LOC .                                     YIBAL 50-100-39:   AREA NAME
EDF .                                              116.42:   ELEV DRILL FLOOR
EPD .                                                   0:   ELEV PERM DATUM
EGL .                                              111.54:   GROUND LEVEL
SRVC.                                        SCHLUMBERGER:   LOGGING CONTRACTOR
COMP.                          Petroleum Development Oman:   OPERATOR
PDAT.                                                 MSL:   PERM DATUM
COUN.                                             RIG02_1:   RIG NAME
SPUD.                                          1967/02/12:   SPUD DATE
LATI.                                         22.15958657:   SURF. LATITUDE
LONG.                                          56.0289369:   SURF. LONGITUDE
UTME.                                           399872.59:   SURF. UTM E
UTMN.                                          2450604.47:   SURF. UTM N
~PARAMETER INFORMATION (log)
LNAM.                                              PUBLIC:   NAME
LTYP.                                              JOINED:   LOG TYPE
LSRV.                                            CLEAN UP:   SERVICE
LSOU.                                               FUGRO:   LOG SOURCE
LVSN.                                                   1:   LOG VERSION
BHIS.                                                   R:   BRIEF HISTORY
TDD .M                                            2093.98:   FINAL TD DRILLER
TDL .M                                            2091.54:   FINAL TD LOGGER
FHIS.                                             RAW-LAS:   FULL HISTORY
LCNM.                                        SCHLUMBERGER:   LOGGING CONTRACTOR
~Curve Information Block
#MNEM.UNIT                                        API CODE    No Description
#=========                                        ========    == ===========
DEPT.M                                       00 001 00 00:     1  DEPTH
DEN.G/CC                                                 :     2  Bulk Density
DT.US/M                                                  :     3  Acoustic log
GR.API                                                   :     4  Gamma Ray
NEU.V/V                                                  :     5  Neutron Porosity in Limestone Units
RES_DEP.OHMM                                             :     6  Resistivity Deep
~ASCII
# ...
  321.5640  -999.2500   343.3078    17.7586   635.6638     1.0058
  321.7164  -999.2500   356.7420    20.3281   636.2861     1.0014
  321.8688  -999.2500   367.4564    22.3026   633.0055     1.0089
  322.0212  -999.2500   357.7540    22.6820   640.0206     1.0529
  322.1736  -999.2500   324.3204    22.0933   648.5961     1.1513
  322.3260  -999.2500   315.5311    21.1615   661.5778     1.2677
  322.4784  -999.2500   321.6969    20.2912   660.8124     1.3994
  322.6308  -999.2500   320.8278    20.3168   650.2811     1.5518
  322.7832  -999.2500   310.5528    20.0181   647.6047     1.6925
  322.9356  -999.2500   312.3223    19.4469   685.3901     1.7805
  323.0880  -999.2500   315.9948    17.7946   727.0978     1.8112
  323.2404  -999.2500   279.1922    15.9893   771.2943     1.7673
  323.3928  -999.2500   255.8430    13.7152   837.9207     1.6363
  323.5452  -999.2500   243.0296    12.1953   854.0953     1.4364
  323.6976  -999.2500   231.2899    12.2725   841.0175     1.2122
  323.8500  -999.2500   243.3699    13.2225   772.3992     1.0462
  324.0024  -999.2500   275.3391    14.9166   725.3491     1.0029
  324.1548  -999.2500   295.3319    16.7707   659.6400     1.0006
  324.3072  -999.2500   333.0485    18.2122   613.2521     1.0105
  324.4596  -999.2500   338.4532    19.3350   603.6926     1.0734
  324.6120  -999.2500   338.6425    20.2739   619.1912     1.2804
  324.7644  -999.2500   341.5814    20.9701   645.7859     1.6718
  324.9168  -999.2500   340.7467    21.9991   676.1964     2.1144
  325.0692  -999.2500   329.1124    22.4509   738.5707     2.7786
  325.2216  -999.2500   294.4259    20.4565   819.6075     4.5842
  325.3740  -999.2500   277.7416    16.7769   965.8540     7.8002
  325.5264  -999.2500   264.3903    13.1713  1036.8022    11.1809
  325.6788  -999.2500   226.1398    12.0111  1089.9453    17.4123
  325.8312  -999.2500   197.9284    13.0817  1071.8108    21.1287
  325.9836  -999.2500   186.3678    15.7729  1024.4869    19.7579
  326.1360  -999.2500   192.5178    18.2105   972.6708    16.0841
  326.2884  -999.2500   196.0001    19.0204   959.6021    15.5089
  326.4408  -999.2500   197.5262    16.7627   954.1813    16.8261
  326.5932  -999.2500   202.5560    12.9927   957.5226    17.1548
  326.7456  -999.2500   205.7144    11.6344   954.8774    14.4331
  326.8980  -999.2500   199.6930    12.0719   931.6912    10.0963
  327.0504  -999.2500   196.6251    12.2266   906.9945     7.4543
  327.2028  -999.2500   199.0818    11.9050   891.4722     4.7476
  327.3552  -999.2500   202.1178    11.1953   868.4936     3.1808
  327.5076  -999.2500   203.2558    11.0441   845.4720     2.1702
  327.6600  -999.2500   206.4292    11.6369   818.5740     1.6726
  327.8124  -999.2500   215.9071    12.5620   771.0250     1.3730
  327.9648  -999.2500   234.8467    13.5140   726.0579     1.1558
  328.1172  -999.2500   257.6916    14.5171   669.0464     1.0318
  328.2696  -999.2500   296.7132    16.0921   636.2259     1.0019
  328.4220  -999.2500   315.8377    18.1317   612.8813     1.0000
  328.5744  -999.2500   332.8968    20.3057   591.4195     1.0009
  328.7268  -999.2500   349.7215    22.0660   583.4682     1.0144
  328.8792  -999.2500   358.0368    23.4690   582.3422     1.0650
  329.0316  -999.2500   358.9767    24.2476   587.9787     1.1404
  329.1840  -999.2500   358.9707    24.2451   596.8259     1.2390
  329.3364  -999.2500   355.7108    23.4950   602.1478     1.3229
  329.4888  -999.2500   324.0866    22.5232   608.8797     1.3619
  329.6412  -999.2500   315.4351    21.3353   612.9352     1.3591
  329.7936  -999.2500   318.8700    20.8386   606.5912     1.3279
  329.9460  -999.2500   315.4597    20.8901   587.4163     1.2781
  330.0984  -999.2500   314.8120    20.4620   578.7383     1.2209
  330.2508  -999.2500   311.9896    20.1220   579.3113     1.1658
  330.4032  -999.2500   348.8913    21.3527   582.1896     1.1219
  330.5556  -999.2500   359.9362    23.8320   580.1541     1.1081
  330.7080  -999.2500   355.1525    26.8017   576.0719     1.1341
  330.8604  -999.2500   348.8941    29.5743   565.9033     1.2056
  331.0128  -999.2500   357.9388    31.1517   555.9199     1.3464
  331.1652  -999.2500   372.5572    31.3947   555.2761     1.6231
  331.3176  -999.2500   389.1910    31.0509   569.8901     1.9471
  331.4700  -999.2500   389.9630    28.4422   591.7162     2.3355
  331.6224  -999.2500   370.1671    24.5312   623.3970     2.9909
  331.7748  -999.2500   359.2010    20.1772   659.4407     5.0576
  331.9272  -999.2500   329.8371    15.2100   690.4296     9.9371
  332.0796  -999.2500   272.0254    12.4887   720.5340    17.0195
  332.2320  -999.2500   235.1324    10.6493   746.3538    26.5931
  332.3844  -999.2500   205.1954    10.2324   764.3245    28.8617
  332.5368  -999.2500   198.1874    10.2774   766.3394    27.0100
  332.6892  -999.2500   186.0685    11.1286   770.3090    24.5428
  332.8416  -999.2500   185.4482    11.7279   770.3793    22.5377
  332.9940  -999.2500   188.4660    11.6333   765.8250    20.8524
  333.1464  -999.2500   191.6801    11.4621   748.7204    19.4022
  333.2988  -999.2500   194.3111    11.2197   738.3961    18.1128
  333.4512  -999.2500   196.5621    11.5954   729.8234    16.9299
  333.6036  -999.2500   198.9994    11.6855   731.1828    15.7327
  333.7560  -999.2500   203.6466    12.2708   722.1192    14.6217
  333.9084  -999.2500   206.9288    12.8951   716.6861    13.5685
  334.0608  -999.2500   208.8146    13.3602   699.4012    12.0284
  334.2132  -999.2500   211.7631    13.5200   687.5148     9.6610
  334.3656  -999.2500   213.0238    13.3990   683.5186     7.7309
  334.5180  -999.2500   215.0121    13.3613   684.1352     5.1301
  334.6704  -999.2500   215.1958    13.1197   694.3885     3.3790
  334.8228  -999.2500   215.5433    13.3861   698.2249     2.4528
  334.9752  -999.2500   219.3762    13.6803   697.0643     1.7992
  335.1276  -999.2500   219.9226    13.7709   691.3989     1.4149
  335.2800  -999.2500   223.1019    14.5452   672.4940     1.1270
  335.4324  -999.2500   241.0999    15.8196   643.4697      .8988
  335.5848  -999.2500   262.6507    17.0503   622.9606      .7467
  335.7372  -999.2500   279.0322    18.3164   601.5717      .6255
  335.8896  -999.2500   310.2692    19.5235   591.3049      .5680
  336.0420  -999.2500   324.2982    20.0365   586.4887      .5352
  336.1944  -999.2500   336.8922    20.1543   586.0632      .5131
  336.3468  -999.2500   344.7011    19.5664   585.8399      .5152
  336.4992  -999.2500   347.4743    18.8173   583.7081      .5259
  336.6516  -999.2500   353.4716    18.4430   582.3800      .5371
  336.8040  -999.2500   361.7747    17.9378   580.9640      .5484
  336.9564  -999.2500   366.4899    17.0938   577.7428      .5597
  337.1088  -999.2500   374.0518    16.9748   576.8939      .5710
  337.2612  -999.2500   372.7090    16.5585   582.2479      .5823
  337.4136  -999.2500   368.2584    16.3837   588.3799      .5936
  337.5660  -999.2500   369.1577    16.4186   595.9222      .6049
  337.7184  -999.2500   368.5466    16.9881   597.4785      .6162
  337.8708  -999.2500   363.7069    17.4874   596.7338      .6275
  338.0232  -999.2500   364.6118    18.0441   598.8837      .6387
  338.1756  -999.2500   362.1251    17.9593   601.7654      .6500
  338.3280  -999.2500   362.6487    17.9431   598.9345      .6615
  338.4804  -999.2500   356.7786    17.9405   598.1882      .6834
  338.6328  -999.2500   344.2539    17.9766   605.0283      .8245
  338.7852  -999.2500   343.7788    18.4719   616.8299     1.0780
  338.9376  -999.2500   345.3905    19.6610   631.5565     1.3525
  339.0900  -999.2500   344.8036    21.2500   641.7032     1.5520
  339.2424  -999.2500   346.0458    22.4769   654.8638     2.0078
  339.3948  -999.2500   351.1643    21.3188   694.7123     2.6209
  339.5472  -999.2500   343.3357    18.8477   737.1876     3.6702
  339.6996  -999.2500   293.8494    16.0952   782.3046     5.8618
  339.8520  -999.2500   272.9865    14.3403   852.0851    11.3210
  340.0044  -999.2500   238.0661    13.6609   878.7015    21.5529
