~VERSION INFORMATION
VERS.                                                 2.0:   CWLS Log ASCII Standard-VERSION 2.0
WRAP.                                                  NO:   One line per depth step
~Well Information Block
STRT.M                                            61.2648:   Top Depth
STOP.M                                          2091.2328:   Bottom Depth
STEP.M                                             .15240:   Depth Increment
NULL.                                            -999.250:   Null Value
FLD .                                               YIBAL:   Field Name
WELL.                                           YIBAL-5H1:   NAME
LOC .                                     YIBAL 50-100-39:   AREA NAME
EDF .                                              116.42:   ELEV DRILL FLOOR
EPD .                                                   0:   ELEV PERM DATUM
EGL .                                              111.54:   GROUND LEVEL
SRVC.                                        SCHLUMBERGER:   LOGGING CONTRACTOR
COMP.                          Petroleum Development Oman:   OPERATOR
PDAT.                                                 MSL:   PERM DATUM
COUN.                                             RIG02_1:   RIG NAME
SPUD.                                          1967/02/12:   SPUD DATE
LATI.                                         22.15958657:   SURF. LATITUDE
LONG.                                          56.0289369:   SURF. LONGITUDE
UTME.                                           399872.59:   SURF. UTM E
UTMN.                                          2450604.47:   SURF. UTM N
~PARAMETER INFORMATION (log)
LNAM.                                              PUBLIC:   NAME
LTYP.                                              JOINED:   LOG TYPE
LSRV.                                            CLEAN UP:   SERVICE
LSOU.                                               FUGRO:   LOG SOURCE
LVSN.                                                   1:   LOG VERSION
BHIS.                                                   R:   BRIEF HISTORY
TDD .M                                            2093.98:   FINAL TD DRILLER
TDL .M                                            2091.54:   FINAL TD LOGGER
FHIS.                                             RAW-LAS:   FULL HISTORY
LCNM.                                        SCHLUMBERGER:   LOGGING CONTRACTOR
~Curve Information Block
#MNEM.UNIT                                        API CODE    No Description
#=========                                        ========    == ===========
DEPT.M                                       00 001 00 00:     1  DEPTH
DEN.G/CC                                                 :     2  Bulk Density
DT.US/M                                                  :     3  Acoustic log
GR.API                                                   :     4  Gamma Ray
NEU.V/V                                                  :     5  Neutron Porosity in Limestone Units
RES_DEP.OHMM                                             :     6  Resistivity Deep
~ASCII
# ...
  860.7552     1.9742   425.0491    19.5722   863.7861    99.4665
  860.9076     1.9657   426.3160    18.5262   897.7169    99.5510
  861.0600     1.9869   453.3646    17.8738   930.0670    97.0914
  861.2124     2.0290   457.3367    17.7265   936.2040    97.3214
  861.3648     2.0336   460.2856    18.1885   943.4944    99.4369
  861.5172     2.0290   461.2737    18.8314   950.9237    99.6304
  861.6696     2.0214   462.0554    19.4450   958.9609    99.5112
  861.8220     2.0022   462.8371    19.4843   970.6880    99.1990
  861.9744     1.9958   514.1113    18.7800   999.9707    98.9691
  862.1268     2.0134   519.0823    19.2765  1024.3508    98.8496
  862.2792     2.0408   512.2043    19.9199  1050.9492    98.8400
  862.4316     2.0476   482.8692    20.2176  1065.9209    98.8494
  862.5840     2.0228   451.3992    20.1602  1061.4772    98.9534
  862.7364     1.9752   414.4603    19.9076  1050.4075    98.9968
  862.8888     1.9389   379.7089    19.5819  1031.7905    99.0032
  863.0412     1.9478   370.3194    19.0550   980.4949    99.0366
  863.1936     1.9911   383.7227    18.3563   968.7881    99.0397
  863.3460     2.0328   403.1009    17.9932   962.6021    99.0284
  863.4984     2.0418   406.6964    18.5354   953.3178    98.5521
  863.6508     2.0292   434.6857    18.5581   937.5012    92.0830
  863.8032     2.0163   456.5412    18.1588   919.5760    71.7087
  863.9556     2.0349   447.3707    18.6937   894.2686    68.0243
  864.1080     2.0873   435.2434    19.3745   873.4984    76.6469
  864.2604     2.1197   423.1161    19.9685   855.3314    78.1074
  864.4128     2.1294   427.9242    20.6343   860.4772    64.1830
  864.5652     2.1144   434.3916    21.2030   875.4339    53.6535
  864.7176     2.0825   440.8590    21.0445   882.1722    49.2636
  864.8700     2.0737   434.6786    20.6036   889.7941    47.4219
  865.0224     2.0591   427.2589    19.9479   912.2472    53.5018
  865.1748     2.0215   419.8392    19.4893   981.6326    85.4044
  865.3272     2.0006   379.7101    19.2369  1086.4921    98.5768
  865.4796     1.9917   346.2741    19.1314  1162.3597    99.5572
  865.6320     1.9785   345.3835    18.9929  1203.7244    99.5221
  865.7844     1.9766   339.9435    18.8509  1216.7897    99.5024
  865.9368     1.9915   327.2953    18.5603  1207.0835    99.4073
  866.0892     2.0158   330.9728    18.0279  1158.9840    99.2741
  866.2416     2.0304   376.0322    17.7028  1071.5696    99.0801
  866.3940     2.0149   428.2693    17.8417  1041.9388    98.8920
  866.5464     1.9848   460.9691    18.7366  1023.5426    98.7940
  866.6988     1.9802   472.0432    20.3374  1006.5627    97.9250
  866.8512     2.0068   474.8755    21.6831   974.6194    91.9113
  867.0036     2.0513   460.6670    22.9335   935.8082    78.2334
  867.1560     2.0907   450.9991    23.9744   905.3091    77.0911
  867.3084     2.1210   445.7323    24.7158   891.5615    90.4033
  867.4608     2.1279   435.3976    23.8998   893.3580    91.9343
  867.6132     2.0882   436.2892    22.6042   903.9172    94.4355
  867.7656     1.9967   438.3329    20.7253   915.9825    94.0363
  867.9180     1.9395   440.3766    20.9022   928.1523    98.7731
  868.0704     1.9176   404.8943    21.5135   943.1761    99.2734
  868.2228     1.9203   409.1720    22.1478   953.1277    99.2432
  868.3752     1.9578   417.7058    22.5739   959.0724    99.2365
  868.5276     2.0414   426.2396    22.9514   960.0150    99.1911
  868.6800     2.1296   465.2083    23.1840   958.7203    99.0548
  868.8324     2.1426   494.2622    22.5759   952.4644    98.9644
  868.9848     2.0998   458.5008    21.7153   947.6198    98.9327
  869.1372     2.0599   416.5125    20.7218   949.0687    99.0300
  869.2896     2.0436   421.1570    19.8930   954.0862    99.0367
  869.4420     2.0195   430.3706    18.9769   962.3997    99.0076
  869.5944     1.9749   439.5842    18.1572   965.5483    99.0846
  869.7468     1.9445   402.4836    17.5933   959.4191    99.6007
  869.8992     1.9673   390.7495    17.4834   951.5123    99.7559
  870.0516     2.0031   381.9455    17.5384   945.3185    99.8371
  870.2040     2.0114   373.1416    17.7278   943.1625    99.9867
  870.3564     2.0067   411.7365    18.1976   944.5192   100.1091
  870.5088     1.9970   447.0259    19.2232   949.7597   100.2182
  870.6612     1.9846   477.8563    22.3724   953.6235   100.3025
  870.8136     1.9799   476.4715    22.6255   955.7798   100.3098
  870.9660     2.0014   471.9655    21.9428   955.5771   100.3090
  871.1184     2.0204   467.4595    21.2628   955.8909   100.3004
  871.2708     2.0345   435.6725    20.4997   958.8150   100.2931
  871.4232     2.0600   435.7609    19.8143   967.6161   100.2111
  871.5756     2.0918   439.2346    19.9002   972.9109   100.0341
  871.7280     2.1323   442.7082    20.7423   975.6936    99.8989
  871.8804     2.1377   410.4697    21.3235   978.4334    99.8607
  872.0328     2.1121   374.7321    19.7142   981.4395    99.8414
  872.1852     2.0776   373.7933    19.2698   982.7471    99.8398
  872.3376     2.0550   376.2642    19.7501   982.5044    99.8397
  872.4900     2.0519   378.7351    21.4737   981.5131    99.8366
  872.6424     2.0489   376.0224    22.6817   979.3752    99.8031
  872.7948     2.0255   370.2738    22.6813   973.9180    99.7997
  872.9472     1.9909   373.4841    22.2416   966.7515    99.7966
  873.0996     1.9780   377.5965    21.5890   963.4029    99.7630
  873.2520     1.9904   381.7088    21.6839   965.8478    99.7566
  873.4044     2.0288   371.2465    22.7989   969.6331    99.7200
  873.5568     2.0603   398.7430    24.0698   971.9697    99.6831
  873.7092     2.0709   428.9964    23.9904   970.3537    99.6767
  873.8616     2.0725   452.7956    23.3127   964.6429    99.6432
  874.0140     2.0802   460.8726    21.9357   958.7193    99.6399
  874.1664     2.0789   444.9657    20.3864   954.5623    99.6400
  874.3188     2.0609   458.7456    19.7090   952.4346    99.6432
  874.4712     2.0667   466.3337    19.7695   953.3687    99.6798
  874.6236     2.1061   453.9155    20.3097   955.4479    99.7167
  874.7760     2.1370   454.3879    20.8065   956.7258    99.7200
  874.9284     2.1603   451.8538    21.6354   955.5687    99.7200
  875.0808     2.1687   448.8833    22.9602   954.6121    99.7201
  875.2332     2.1699   445.9128    24.6395   952.5464    99.7248
  875.3856     2.1685   460.2633    25.9890   949.4008    99.7765
  875.5380     2.1650   456.4197    25.6242   945.7748    99.7990
  875.6904     2.1709   432.9850    24.8171   942.3154    99.8115
  875.8428     2.1753   419.0323    23.3218   939.6348    99.8406
  875.9952     2.1598   406.1780    20.2966   936.7567    99.8767
  876.1476     2.1247   360.7369    19.3613   936.7919    99.8832
  876.3000     2.0901   351.2204    18.9920   938.6022    99.9198
  876.4524     2.0784   342.4128    18.7320   939.3860    99.9567
  876.6048     2.0757   351.9849    18.3847   940.3458    99.9599
  876.7572     2.0729   363.3878    18.4486   941.6396    99.9568
  876.9096     2.0813   363.5678    18.5985   943.3932    99.9232
  877.0620     2.0839   362.6482    18.1163   945.4005    99.9196
  877.2144     2.0779   361.7286    18.0407   945.3088    99.9100
  877.3668     2.0773   380.4709    18.2769   943.6647    99.7950
  877.5192     2.0912   386.3157    18.7989   941.6972    99.6224
  877.6716     2.1055   390.7080    20.0563   939.4625    99.4726
  877.8240     2.1188   395.1003    21.1360   943.3842    99.3564
  877.9764     2.1300   385.4618    20.8325   950.9278    99.3082
  878.1288     2.1320   401.1243    19.6100   950.5729    99.2509
  878.2812     2.1250   394.1363    18.6953   941.6026    99.2041
  878.4336     2.1110   384.6727    18.3983   935.1138    99.2000
  878.5860     2.0962   375.2092    18.4027   928.5354    99.2000
  878.7384     2.0918   383.4468    18.6859   929.1299    99.2000
  878.8908     2.0923   393.4188    18.7105   932.2147    99.1999
  879.0432     2.0997   403.3907    18.4464   936.1542    99.1959
  879.1956     2.1231   405.4918    18.1358   941.6772    99.1514
